[
    {
        "name": "Nhà Hàng Ông Táo",
        "latitude": 10.77783,
        "longitude": 106.70251,
        "address": "Nhà Hàng Ông Táo, 39 Đường Lê Thánh Tôn, Phường Bến Nghé, Quận 1, Hồ Chí Minh, Việt Nam",
        "country_code": "VNM",
        "country_name": "Việt Nam",
        "city": "Hồ Chí Minh",
        "district": "Quận 1",
        "ward": "Phường Bến Nghé",
        "street": "Đường Lê Thánh Tôn",
        "postal_code": "71006",
        "categories": [
            {
                "name": "Nhà hàng"
            }
        ]
    },
    {
        "name": "Duck Deli - Parkson Lê Thánh Tôn",
        "latitude": 10.77804,
        "longitude": 106.7027,
        "address": "Duck Deli - Parkson Lê Thánh Tôn, Đường Lê Thánh Tôn, Phường Bến Nghé, Quận 1, Hồ Chí Minh, Việt Nam",
        "country_code": "VNM",
        "country_name": "Việt Nam",
        "city": "Hồ Chí Minh",
        "district": "Quận 1",
        "ward": "Phường Bến Nghé",
        "street": "Đường Lê Thánh Tôn",
        "postal_code": "71006",
        "categories": [
            {
                "name": "Nhà hàng"
            }
        ]
    },
    {
        "name": "Il Bacio Pizza",
        "latitude": 10.77804,
        "longitude": 106.7027,
        "address": "Il Bacio Pizza, Đường Lê Thánh Tôn, Phường Bến Nghé, Quận 1, Hồ Chí Minh, Việt Nam",
        "country_code": "VNM",
        "country_name": "Việt Nam",
        "city": "Hồ Chí Minh",
        "district": "Quận 1",
        "ward": "Phường Bến Nghé",
        "street": "Đường Lê Thánh Tôn",
        "postal_code": "71006",
        "categories": [
            {
                "name": "Nhà hàng"
            }
        ]
    },
    {
        "name": "Ihaw Ihaw",
        "latitude": 10.77804,
        "longitude": 106.7027,
        "address": "Ihaw Ihaw, Đường Lê Thánh Tôn, Phường Bến Nghé, Quận 1, Hồ Chí Minh, Việt Nam",
        "country_code": "VNM",
        "country_name": "Việt Nam",
        "city": "Hồ Chí Minh",
        "district": "Quận 1",
        "ward": "Phường Bến Nghé",
        "street": "Đường Lê Thánh Tôn",
        "postal_code": "71006",
        "categories": [
            {
                "name": "Nhà hàng"
            }
        ]
    },
    {
        "name": "Nhà Hàng Maneki Neko Deli",
        "latitude": 10.77773,
        "longitude": 106.70233,
        "address": "Nhà Hàng Maneki Neko Deli, Đường Lê Thánh Tôn, Phường Bến Nghé, Quận 1, Hồ Chí Minh, Việt Nam",
        "country_code": "VNM",
        "country_name": "Việt Nam",
        "city": "Hồ Chí Minh",
        "district": "Quận 1",
        "ward": "Phường Bến Nghé",
        "street": "Đường Lê Thánh Tôn",
        "postal_code": "71006",
        "categories": [
            {
                "name": "Nhà hàng"
            }
        ]
    },
    {
        "name": "Haidilao",
        "latitude": 10.77773,
        "longitude": 106.70233,
        "address": "Haidilao, Đường Lê Thánh Tôn, Phường Bến Nghé, Quận 1, Hồ Chí Minh, Việt Nam",
        "country_code": "VNM",
        "country_name": "Việt Nam",
        "city": "Hồ Chí Minh",
        "district": "Quận 1",
        "ward": "Phường Bến Nghé",
        "street": "Đường Lê Thánh Tôn",
        "postal_code": "71006",
        "categories": [
            {
                "name": "Nhà hàng"
            }
        ]
    },
    {
        "name": "Mỹ Phẩm The Face Shop - Lê Thánh Tôn",
        "latitude": 10.77773,
        "longitude": 106.70233,
        "address": "Mỹ Phẩm The Face Shop - Lê Thánh Tôn, 35BIS Đường Lê Thánh Tôn, Phường Bến Nghé, Quận 1, Hồ Chí Minh, Việt Nam",
        "country_code": "VNM",
        "country_name": "Việt Nam",
        "city": "Hồ Chí Minh",
        "district": "Quận 1",
        "ward": "Phường Bến Nghé",
        "street": "Đường Lê Thánh Tôn",
        "postal_code": "71006",
        "categories": [
            {
                "name": "Nhà hàng"
            }
        ]
    },
    {
        "name": "Cơm Ngon@Parkson",
        "latitude": 10.77773,
        "longitude": 106.70233,
        "address": "Cơm Ngon@Parkson, Đường Lê Thánh Tôn, Phường Bến Nghé, Quận 1, Hồ Chí Minh, Việt Nam",
        "country_code": "VNM",
        "country_name": "Việt Nam",
        "city": "Hồ Chí Minh",
        "district": "Quận 1",
        "ward": "Phường Bến Nghé",
        "street": "Đường Lê Thánh Tôn",
        "postal_code": "71006",
        "categories": [
            {
                "name": "Nhà hàng"
            }
        ]
    },
    {
        "name": "Uncle Yeo's Singapore Food",
        "latitude": 10.77773,
        "longitude": 106.70233,
        "address": "Uncle Yeo's Singapore Food, 35BIS Đường Lê Thánh Tôn, Phường Bến Nghé, Quận 1, Hồ Chí Minh, Việt Nam",
        "country_code": "VNM",
        "country_name": "Việt Nam",
        "city": "Hồ Chí Minh",
        "district": "Quận 1",
        "ward": "Phường Bến Nghé",
        "street": "Đường Lê Thánh Tôn",
        "postal_code": "71006",
        "categories": [
            {
                "name": "Nhà hàng"
            },
            {
                "name": "Dịch vụ kinh doanh"
            }
        ]
    },
    {
        "name": "Cocasuki",
        "latitude": 10.77773,
        "longitude": 106.70233,
        "address": "Cocasuki, Đường Lê Thánh Tôn, Phường Bến Nghé, Quận 1, Hồ Chí Minh, Việt Nam",
        "country_code": "VNM",
        "country_name": "Việt Nam",
        "city": "Hồ Chí Minh",
        "district": "Quận 1",
        "ward": "Phường Bến Nghé",
        "street": "Đường Lê Thánh Tôn",
        "postal_code": "71006",
        "categories": [
            {
                "name": "Nhà hàng"
            }
        ]
    },
    {
        "name": "Fujiya Yakiniku",
        "latitude": 10.77773,
        "longitude": 106.70233,
        "address": "Fujiya Yakiniku, Đường Lê Thánh Tôn, Phường Bến Nghé, Quận 1, Hồ Chí Minh, Việt Nam",
        "country_code": "VNM",
        "country_name": "Việt Nam",
        "city": "Hồ Chí Minh",
        "district": "Quận 1",
        "ward": "Phường Bến Nghé",
        "street": "Đường Lê Thánh Tôn",
        "postal_code": "71006",
        "categories": [
            {
                "name": "Nhà hàng"
            }
        ]
    },
    {
        "name": "Phở 24",
        "latitude": 10.77773,
        "longitude": 106.70233,
        "address": "Phở 24, 35BIS Đường Lê Thánh Tôn, Phường Bến Nghé, Quận 1, Hồ Chí Minh, Việt Nam",
        "country_code": "VNM",
        "country_name": "Việt Nam",
        "city": "Hồ Chí Minh",
        "district": "Quận 1",
        "ward": "Phường Bến Nghé",
        "street": "Đường Lê Thánh Tôn",
        "postal_code": "71006",
        "categories": [
            {
                "name": "Nhà hàng"
            },
            {
                "name": "Quán ăn nhanh"
            }
        ]
    },
    {
        "name": "Park Lounge",
        "latitude": 10.77752,
        "longitude": 106.70332,
        "address": "Park Lounge, Đường Công Trường Lam Sơn, Phường Bến Nghé, Quận 1, Hồ Chí Minh, Việt Nam",
        "country_code": "VNM",
        "country_name": "Việt Nam",
        "city": "Hồ Chí Minh",
        "district": "Quận 1",
        "ward": "Phường Bến Nghé",
        "street": "Đường Công Trường Lam Sơn",
        "postal_code": "71006",
        "categories": [
            {
                "name": "Bar hoặc Quán rượu"
            },
            {
                "name": "Nhà hàng"
            },
            {
                "name": "Cà Phê/Trà"
            },
            {
                "name": "Câu lạc bộ đêm"
            }
        ]
    },
    {
        "name": "Tendoor - Indian Restaurant",
        "latitude": 10.77752,
        "longitude": 106.70332,
        "address": "Tendoor - Indian Restaurant, Đường Công Trường Lam Sơn, Phường Bến Nghé, Quận 1, Hồ Chí Minh, Việt Nam",
        "country_code": "VNM",
        "country_name": "Việt Nam",
        "city": "Hồ Chí Minh",
        "district": "Quận 1",
        "ward": "Phường Bến Nghé",
        "street": "Đường Công Trường Lam Sơn",
        "postal_code": "71006",
        "categories": [
            {
                "name": "Nhà hàng"
            }
        ]
    },
    {
        "name": "Cơm Ngon",
        "latitude": 10.77751,
        "longitude": 106.70229,
        "address": "Cơm Ngon, Đường Lê Thánh Tôn, Phường Bến Nghé, Quận 1, Hồ Chí Minh, Việt Nam",
        "country_code": "VNM",
        "country_name": "Việt Nam",
        "city": "Hồ Chí Minh",
        "district": "Quận 1",
        "ward": "Phường Bến Nghé",
        "street": "Đường Lê Thánh Tôn",
        "postal_code": "71006",
        "categories": [
            {
                "name": "Nhà hàng"
            }
        ]
    },
    {
        "name": "Nhà Hàng Long Monaco",
        "latitude": 10.77751,
        "longitude": 106.70229,
        "address": "Nhà Hàng Long Monaco, Đường Lê Thánh Tôn, Phường Bến Nghé, Quận 1, Hồ Chí Minh, Việt Nam",
        "country_code": "VNM",
        "country_name": "Việt Nam",
        "city": "Hồ Chí Minh",
        "district": "Quận 1",
        "ward": "Phường Bến Nghé",
        "street": "Đường Lê Thánh Tôn",
        "postal_code": "71006",
        "categories": [
            {
                "name": "Nhà hàng"
            }
        ]
    },
    {
        "name": "Song Yến",
        "latitude": 10.77751,
        "longitude": 106.70229,
        "address": "Song Yến, Đường Lê Thánh Tôn, Phường Bến Nghé, Quận 1, Hồ Chí Minh, Việt Nam",
        "country_code": "VNM",
        "country_name": "Việt Nam",
        "city": "Hồ Chí Minh",
        "district": "Quận 1",
        "ward": "Phường Bến Nghé",
        "street": "Đường Lê Thánh Tôn",
        "postal_code": "71006",
        "categories": [
            {
                "name": "Quán cà phê"
            },
            {
                "name": "Nhà hàng"
            }
        ]
    },
    {
        "name": "Tao",
        "latitude": 10.77751,
        "longitude": 106.70229,
        "address": "Tao, Đường Lê Thánh Tôn, Phường Bến Nghé, Quận 1, Hồ Chí Minh, Việt Nam",
        "country_code": "VNM",
        "country_name": "Việt Nam",
        "city": "Hồ Chí Minh",
        "district": "Quận 1",
        "ward": "Phường Bến Nghé",
        "street": "Đường Lê Thánh Tôn",
        "postal_code": "71006",
        "categories": [
            {
                "name": "Nhà hàng"
            }
        ]
    },
    {
        "name": "Seoul Garden - Buffet Lẩu & Nướng Vincom",
        "latitude": 10.7779,
        "longitude": 106.70237,
        "address": "Seoul Garden - Buffet Lẩu & Nướng Vincom, 70-72 Đường Lê Thánh Tôn, Phường Bến Nghé, Quận 1, Hồ Chí Minh, Việt Nam",
        "country_code": "VNM",
        "country_name": "Việt Nam",
        "city": "Hồ Chí Minh",
        "district": "Quận 1",
        "ward": "Phường Bến Nghé",
        "street": "Đường Lê Thánh Tôn",
        "postal_code": "71006",
        "categories": [
            {
                "name": "Nhà hàng"
            },
            {
                "name": "Cà Phê/Trà"
            },
            {
                "name": "Quán cà phê"
            },
            {
                "name": "Vườn Bia"
            }
        ]
    },
    {
        "name": "Yogenfruz Việt Nam",
        "latitude": 10.7779,
        "longitude": 106.70237,
        "address": "Yogenfruz Việt Nam, 70-72 Đường Lê Thánh Tôn, Phường Bến Nghé, Quận 1, Hồ Chí Minh, Việt Nam",
        "country_code": "VNM",
        "country_name": "Việt Nam",
        "city": "Hồ Chí Minh",
        "district": "Quận 1",
        "ward": "Phường Bến Nghé",
        "street": "Đường Lê Thánh Tôn",
        "postal_code": "71006",
        "categories": [
            {
                "name": "Nhà hàng"
            }
        ]
    },
    {
        "name": "Nhà Hàng Union Square",
        "latitude": 10.7779,
        "longitude": 106.70237,
        "address": "Nhà Hàng Union Square, 70-72 Đường Lê Thánh Tôn, Phường Bến Nghé, Quận 1, Hồ Chí Minh, Việt Nam",
        "country_code": "VNM",
        "country_name": "Việt Nam",
        "city": "Hồ Chí Minh",
        "district": "Quận 1",
        "ward": "Phường Bến Nghé",
        "street": "Đường Lê Thánh Tôn",
        "postal_code": "71006",
        "categories": [
            {
                "name": "Nhà hàng"
            }
        ]
    },
    {
        "name": "Xoài Sạch Vườn Nhà",
        "latitude": 10.7779,
        "longitude": 106.70237,
        "address": "Xoài Sạch Vườn Nhà, 70-72 Đường Lê Thánh Tôn, Phường Bến Nghé, Quận 1, Hồ Chí Minh, Việt Nam",
        "country_code": "VNM",
        "country_name": "Việt Nam",
        "city": "Hồ Chí Minh",
        "district": "Quận 1",
        "ward": "Phường Bến Nghé",
        "street": "Đường Lê Thánh Tôn",
        "postal_code": "71006",
        "categories": [
            {
                "name": "Nhà hàng"
            },
            {
                "name": "Siêu thị"
            }
        ]
    },
    {
        "name": "Paris Baguette",
        "latitude": 10.77779,
        "longitude": 106.70229,
        "address": "Paris Baguette, Lê Thánh Tôn, Phường Bến Nghé, Quận 1, Hồ Chí Minh, Việt Nam",
        "country_code": "VNM",
        "country_name": "Việt Nam",
        "city": "Hồ Chí Minh",
        "district": "Quận 1",
        "ward": "Phường Bến Nghé",
        "street": "Lê Thánh Tôn",
        "postal_code": "71006",
        "categories": [
            {
                "name": "Quán cà phê"
            },
            {
                "name": "Nhà hàng"
            },
            {
                "name": "Cafeteria"
            },
            {
                "name": "Hiệu bánh"
            },
            {
                "name": "Cửa hàng chuyên dụng"
            }
        ]
    },
    {
        "name": "Cơm Thố Cháy",
        "latitude": 10.7779,
        "longitude": 106.70233,
        "address": "Cơm Thố Cháy, Đường Lê Thánh Tôn, Phường Bến Nghé, Quận 1, Hồ Chí Minh, Việt Nam",
        "country_code": "VNM",
        "country_name": "Việt Nam",
        "city": "Hồ Chí Minh",
        "district": "Quận 1",
        "ward": "Phường Bến Nghé",
        "street": "Đường Lê Thánh Tôn",
        "postal_code": "71006",
        "categories": [
            {
                "name": "Nhà hàng"
            }
        ]
    },
    {
        "name": "Dragon Court Chinese Restaurant",
        "latitude": 10.777,
        "longitude": 106.70293,
        "address": "Dragon Court Chinese Restaurant, 11-13 Công Trường Lam Sơn, Phường Bến Nghé, Quận 1, Hồ Chí Minh, Việt Nam",
        "country_code": "VNM",
        "country_name": "Việt Nam",
        "city": "Hồ Chí Minh",
        "district": "Quận 1",
        "ward": "Phường Bến Nghé",
        "street": "Công Trường Lam Sơn",
        "postal_code": "71006",
        "categories": [
            {
                "name": "Nhà hàng"
            }
        ]
    },
    {
        "name": "Harajuku Sweets @ Parkson",
        "latitude": 10.777,
        "longitude": 106.70293,
        "address": "Harajuku Sweets @ Parkson, Đường Công Trường Lam Sơn, Phường Bến Nghé, Quận 1, Hồ Chí Minh, Việt Nam",
        "country_code": "VNM",
        "country_name": "Việt Nam",
        "city": "Hồ Chí Minh",
        "district": "Quận 1",
        "ward": "Phường Bến Nghé",
        "street": "Đường Công Trường Lam Sơn",
        "postal_code": "71006",
        "categories": [
            {
                "name": "Nhà hàng"
            }
        ]
    },
    {
        "name": "Arirang Korean Bbq Restaurant",
        "latitude": 10.777,
        "longitude": 106.70293,
        "address": "Arirang Korean Bbq Restaurant, 11-13 Công Trường Lam Sơn, Phường Bến Nghé, Quận 1, Hồ Chí Minh, Việt Nam",
        "country_code": "VNM",
        "country_name": "Việt Nam",
        "city": "Hồ Chí Minh",
        "district": "Quận 1",
        "ward": "Phường Bến Nghé",
        "street": "Công Trường Lam Sơn",
        "postal_code": "71006",
        "categories": [
            {
                "name": "Nhà hàng"
            }
        ]
    },
    {
        "name": "Le Petit Chef",
        "latitude": 10.77791,
        "longitude": 106.70334,
        "address": "Le Petit Chef, Đường Hai Bà Trưng, Phường Bến Nghé, Quận 1, Hồ Chí Minh, Việt Nam",
        "country_code": "VNM",
        "country_name": "Việt Nam",
        "city": "Hồ Chí Minh",
        "district": "Quận 1",
        "ward": "Phường Bến Nghé",
        "street": "Đường Hai Bà Trưng",
        "postal_code": "71006",
        "categories": [
            {
                "name": "Nhà hàng"
            }
        ]
    },
    {
        "name": "Cơm Express",
        "latitude": 10.77759,
        "longitude": 106.70217,
        "address": "Cơm Express, Đường Lê Thánh Tôn, Phường Bến Nghé, Quận 1, Hồ Chí Minh, Việt Nam",
        "country_code": "VNM",
        "country_name": "Việt Nam",
        "city": "Hồ Chí Minh",
        "district": "Quận 1",
        "ward": "Phường Bến Nghé",
        "street": "Đường Lê Thánh Tôn",
        "postal_code": "71006",
        "categories": [
            {
                "name": "Nhà hàng"
            }
        ]
    },
    {
        "name": "Hot & Cold Iyo",
        "latitude": 10.77759,
        "longitude": 106.70217,
        "address": "Hot & Cold Iyo, Đường Lê Thánh Tôn, Phường Bến Nghé, Quận 1, Hồ Chí Minh, Việt Nam",
        "country_code": "VNM",
        "country_name": "Việt Nam",
        "city": "Hồ Chí Minh",
        "district": "Quận 1",
        "ward": "Phường Bến Nghé",
        "street": "Đường Lê Thánh Tôn",
        "postal_code": "71006",
        "categories": [
            {
                "name": "Nhà hàng"
            }
        ]
    },
    {
        "name": "Mof Japanese",
        "latitude": 10.77759,
        "longitude": 106.70217,
        "address": "Mof Japanese, Đường Lê Thánh Tôn, Phường Bến Nghé, Quận 1, Hồ Chí Minh, Việt Nam",
        "country_code": "VNM",
        "country_name": "Việt Nam",
        "city": "Hồ Chí Minh",
        "district": "Quận 1",
        "ward": "Phường Bến Nghé",
        "street": "Đường Lê Thánh Tôn",
        "postal_code": "71006",
        "categories": [
            {
                "name": "Nhà hàng"
            },
            {
                "name": "Cà Phê/Trà"
            },
            {
                "name": "Hiệu bánh"
            }
        ]
    },
    {
        "name": "Toppers Sài Gòn",
        "latitude": 10.77695,
        "longitude": 106.70292,
        "address": "Toppers Sài Gòn, Đường Công Trường Lam Sơn, Phường Bến Nghé, Quận 1, Hồ Chí Minh, Việt Nam",
        "country_code": "VNM",
        "country_name": "Việt Nam",
        "city": "Hồ Chí Minh",
        "district": "Quận 1",
        "ward": "Phường Bến Nghé",
        "street": "Đường Công Trường Lam Sơn",
        "postal_code": "71006",
        "categories": [
            {
                "name": "Nhà hàng"
            }
        ]
    },
    {
        "name": "Nhà Hàng Nem Vuông",
        "latitude": 10.7777,
        "longitude": 106.70215,
        "address": "Nhà Hàng Nem Vuông, Lê Thánh Tôn, Phường Bến Nghé, Quận 1, Hồ Chí Minh, Việt Nam",
        "country_code": "VNM",
        "country_name": "Việt Nam",
        "city": "Hồ Chí Minh",
        "district": "Quận 1",
        "ward": "Phường Bến Nghé",
        "street": "Lê Thánh Tôn",
        "postal_code": "71006",
        "categories": [
            {
                "name": "Nhà hàng"
            },
            {
                "name": "Quán ăn nhanh"
            }
        ]
    },
    {
        "name": "Nhà Hàng Phước Thành",
        "latitude": 10.77828,
        "longitude": 106.70299,
        "address": "Nhà Hàng Phước Thành, 45 Đường Lê Thánh Tôn, Phường Bến Nghé, Quận 1, Hồ Chí Minh, Việt Nam",
        "country_code": "VNM",
        "country_name": "Việt Nam",
        "city": "Hồ Chí Minh",
        "district": "Quận 1",
        "ward": "Phường Bến Nghé",
        "street": "Đường Lê Thánh Tôn",
        "postal_code": "71006",
        "categories": [
            {
                "name": "Nhà hàng"
            }
        ]
    },
    {
        "name": "Nhà Hàng Fresco Pizza",
        "latitude": 10.77828,
        "longitude": 106.70299,
        "address": "Nhà Hàng Fresco Pizza, 45 Đường Lê Thánh Tôn, Phường Bến Nghé, Quận 1, Hồ Chí Minh, Việt Nam",
        "country_code": "VNM",
        "country_name": "Việt Nam",
        "city": "Hồ Chí Minh",
        "district": "Quận 1",
        "ward": "Phường Bến Nghé",
        "street": "Đường Lê Thánh Tôn",
        "postal_code": "71006",
        "categories": [
            {
                "name": "Nhà hàng"
            }
        ]
    },
    {
        "name": "Bugis Singapore",
        "latitude": 10.77828,
        "longitude": 106.70299,
        "address": "Bugis Singapore, 45 Đường Lê Thánh Tôn, Phường Bến Nghé, Quận 1, Hồ Chí Minh, Việt Nam",
        "country_code": "VNM",
        "country_name": "Việt Nam",
        "city": "Hồ Chí Minh",
        "district": "Quận 1",
        "ward": "Phường Bến Nghé",
        "street": "Đường Lê Thánh Tôn",
        "postal_code": "71006",
        "categories": [
            {
                "name": "Nhà hàng"
            },
            {
                "name": "Đại lý du lịch & Vé"
            }
        ]
    },
    {
        "name": "Nhà Hàng Gói & Cuốn Việt",
        "latitude": 10.77828,
        "longitude": 106.70299,
        "address": "Nhà Hàng Gói & Cuốn Việt, 45 Đường Lê Thánh Tôn, Phường Bến Nghé, Quận 1, Hồ Chí Minh, Việt Nam",
        "country_code": "VNM",
        "country_name": "Việt Nam",
        "city": "Hồ Chí Minh",
        "district": "Quận 1",
        "ward": "Phường Bến Nghé",
        "street": "Đường Lê Thánh Tôn",
        "postal_code": "71006",
        "categories": [
            {
                "name": "Nhà hàng"
            }
        ]
    },
    {
        "name": "Seameo Canteen",
        "latitude": 10.77828,
        "longitude": 106.70299,
        "address": "Seameo Canteen, Đường Lê Thánh Tôn, Phường Bến Nghé, Quận 1, Hồ Chí Minh, Việt Nam",
        "country_code": "VNM",
        "country_name": "Việt Nam",
        "city": "Hồ Chí Minh",
        "district": "Quận 1",
        "ward": "Phường Bến Nghé",
        "street": "Đường Lê Thánh Tôn",
        "postal_code": "71006",
        "categories": [
            {
                "name": "Nhà hàng"
            }
        ]
    },
    {
        "name": "Nhà Hàng Toppers",
        "latitude": 10.77828,
        "longitude": 106.70299,
        "address": "Nhà Hàng Toppers, 45 Đường Lê Thánh Tôn, Phường Bến Nghé, Quận 1, Hồ Chí Minh, Việt Nam",
        "country_code": "VNM",
        "country_name": "Việt Nam",
        "city": "Hồ Chí Minh",
        "district": "Quận 1",
        "ward": "Phường Bến Nghé",
        "street": "Đường Lê Thánh Tôn",
        "postal_code": "71006",
        "categories": [
            {
                "name": "Nhà hàng"
            }
        ]
    },
    {
        "name": "Gangis",
        "latitude": 10.77824,
        "longitude": 106.70314,
        "address": "Gangis, Đường Hai Bà Trưng, Phường Bến Nghé, Quận 1, Hồ Chí Minh, Việt Nam",
        "country_code": "VNM",
        "country_name": "Việt Nam",
        "city": "Hồ Chí Minh",
        "district": "Quận 1",
        "ward": "Phường Bến Nghé",
        "street": "Đường Hai Bà Trưng",
        "postal_code": "71006",
        "categories": [
            {
                "name": "Nhà hàng"
            }
        ]
    },
    {
        "name": "Phở 99 - Unionsquare",
        "latitude": 10.7769,
        "longitude": 106.70249,
        "address": "Phở 99 - Unionsquare, Đường Đồng Khởi, Phường Bến Nghé, Quận 1, Hồ Chí Minh, Việt Nam",
        "country_code": "VNM",
        "country_name": "Việt Nam",
        "city": "Hồ Chí Minh",
        "district": "Quận 1",
        "ward": "Phường Bến Nghé",
        "street": "Đường Đồng Khởi",
        "postal_code": "71006",
        "categories": [
            {
                "name": "Nhà hàng"
            }
        ]
    },
    {
        "name": "Nhà Hàng Yakatabune",
        "latitude": 10.77823,
        "longitude": 106.70321,
        "address": "Nhà Hàng Yakatabune, 74 Đường Hai Bà Trưng, Phường Bến Nghé, Quận 1, Hồ Chí Minh, Việt Nam",
        "country_code": "VNM",
        "country_name": "Việt Nam",
        "city": "Hồ Chí Minh",
        "district": "Quận 1",
        "ward": "Phường Bến Nghé",
        "street": "Đường Hai Bà Trưng",
        "postal_code": "71006",
        "categories": [
            {
                "name": "Nhà hàng"
            }
        ]
    },
    {
        "name": "Annie's Pizza - Hai Bà Trưng",
        "latitude": 10.77823,
        "longitude": 106.70321,
        "address": "Annie's Pizza - Hai Bà Trưng, 74 Đường Hai Bà Trưng, Phường Bến Nghé, Quận 1, Hồ Chí Minh, Việt Nam",
        "country_code": "VNM",
        "country_name": "Việt Nam",
        "city": "Hồ Chí Minh",
        "district": "Quận 1",
        "ward": "Phường Bến Nghé",
        "street": "Đường Hai Bà Trưng",
        "postal_code": "71006",
        "categories": [
            {
                "name": "Nhà hàng"
            }
        ]
    },
    {
        "name": "Hua Túc",
        "latitude": 10.77823,
        "longitude": 106.70321,
        "address": "Hua Túc, 74 Đường Hai Bà Trưng, Phường Bến Nghé, Quận 1, Hồ Chí Minh, Việt Nam",
        "country_code": "VNM",
        "country_name": "Việt Nam",
        "city": "Hồ Chí Minh",
        "district": "Quận 1",
        "ward": "Phường Bến Nghé",
        "street": "Đường Hai Bà Trưng",
        "postal_code": "71006",
        "categories": [
            {
                "name": "Chợ/Gian hàng ẩm thực"
            },
            {
                "name": "Nhà hàng"
            }
        ]
    },
    {
        "name": "Guru Hai Ba Trung 2",
        "latitude": 10.77823,
        "longitude": 106.70321,
        "address": "Guru Hai Ba Trung 2, 74 Đường Hai Bà Trưng, Phường Bến Nghé, Quận 1, Hồ Chí Minh, Việt Nam",
        "country_code": "VNM",
        "country_name": "Việt Nam",
        "city": "Hồ Chí Minh",
        "district": "Quận 1",
        "ward": "Phường Bến Nghé",
        "street": "Đường Hai Bà Trưng",
        "postal_code": "71006",
        "categories": [
            {
                "name": "Nhà hàng"
            }
        ]
    },
    {
        "name": "Phantom Of The Opera",
        "latitude": 10.77823,
        "longitude": 106.70321,
        "address": "Phantom Of The Opera, 74 Đường Hai Bà Trưng, Phường Bến Nghé, Quận 1, Hồ Chí Minh, Việt Nam",
        "country_code": "VNM",
        "country_name": "Việt Nam",
        "city": "Hồ Chí Minh",
        "district": "Quận 1",
        "ward": "Phường Bến Nghé",
        "street": "Đường Hai Bà Trưng",
        "postal_code": "71006",
        "categories": [
            {
                "name": "Nhà hàng"
            }
        ]
    },
    {
        "name": "Nhà Hàng La Camargue",
        "latitude": 10.77823,
        "longitude": 106.70321,
        "address": "Nhà Hàng La Camargue, 74 Đường Hai Bà Trưng, Phường Bến Nghé, Quận 1, Hồ Chí Minh, Việt Nam",
        "country_code": "VNM",
        "country_name": "Việt Nam",
        "city": "Hồ Chí Minh",
        "district": "Quận 1",
        "ward": "Phường Bến Nghé",
        "street": "Đường Hai Bà Trưng",
        "postal_code": "71006",
        "categories": [
            {
                "name": "Nhà hàng"
            }
        ]
    },
    {
        "name": "Vasco's Bar",
        "latitude": 10.77823,
        "longitude": 106.70321,
        "address": "Vasco's Bar, 74 Đường Hai Bà Trưng, Phường Bến Nghé, Quận 1, Hồ Chí Minh, Việt Nam",
        "country_code": "VNM",
        "country_name": "Việt Nam",
        "city": "Hồ Chí Minh",
        "district": "Quận 1",
        "ward": "Phường Bến Nghé",
        "street": "Đường Hai Bà Trưng",
        "postal_code": "71006",
        "categories": [
            {
                "name": "Bar hoặc Quán rượu"
            },
            {
                "name": "Nhà hàng"
            },
            {
                "name": "Quán ăn bình dân"
            },
            {
                "name": "Cà Phê/Trà"
            },
            {
                "name": "Giải trí về đêm"
            },
            {
                "name": "Câu lạc bộ đêm"
            }
        ]
    },
    {
        "name": "Blanchy Street",
        "latitude": 10.77823,
        "longitude": 106.70321,
        "address": "Blanchy Street, 74 Đường Hai Bà Trưng, Phường Bến Nghé, Quận 1, Hồ Chí Minh, Việt Nam",
        "country_code": "VNM",
        "country_name": "Việt Nam",
        "city": "Hồ Chí Minh",
        "district": "Quận 1",
        "ward": "Phường Bến Nghé",
        "street": "Đường Hai Bà Trưng",
        "postal_code": "71006",
        "categories": [
            {
                "name": "Nhà hàng"
            }
        ]
    },
    {
        "name": "Nhà Hàng Ấn Độ Ganges",
        "latitude": 10.77823,
        "longitude": 106.70321,
        "address": "Nhà Hàng Ấn Độ Ganges, 74 Đường Hai Bà Trưng, Phường Bến Nghé, Quận 1, Hồ Chí Minh, Việt Nam",
        "country_code": "VNM",
        "country_name": "Việt Nam",
        "city": "Hồ Chí Minh",
        "district": "Quận 1",
        "ward": "Phường Bến Nghé",
        "street": "Đường Hai Bà Trưng",
        "postal_code": "71006",
        "categories": [
            {
                "name": "Nhà hàng"
            }
        ]
    },
    {
        "name": "Akataiyo Hồ Chí Minh",
        "latitude": 10.77832,
        "longitude": 106.70303,
        "address": "Akataiyo Hồ Chí Minh, Đường Hai Bà Trưng, Phường Bến Nghé, Quận 1, Hồ Chí Minh, Việt Nam",
        "country_code": "VNM",
        "country_name": "Việt Nam",
        "city": "Hồ Chí Minh",
        "district": "Quận 1",
        "ward": "Phường Bến Nghé",
        "street": "Đường Hai Bà Trưng",
        "postal_code": "71006",
        "categories": [
            {
                "name": "Nhà hàng"
            },
            {
                "name": "Quán ăn bình dân"
            }
        ]
    },
    {
        "name": "O'Biren's",
        "latitude": 10.77815,
        "longitude": 106.70337,
        "address": "O'Biren's, 74A2 Đường Hai Bà Trưng, Phường Bến Nghé, Quận 1, Hồ Chí Minh, Việt Nam",
        "country_code": "VNM",
        "country_name": "Việt Nam",
        "city": "Hồ Chí Minh",
        "district": "Quận 1",
        "ward": "Phường Bến Nghé",
        "street": "Đường Hai Bà Trưng",
        "postal_code": "71006",
        "categories": [
            {
                "name": "Nhà hàng"
            }
        ]
    },
    {
        "name": "Lẩu Chú Hiền",
        "latitude": 10.77836,
        "longitude": 106.70299,
        "address": "Lẩu Chú Hiền, 111 Đường Hai Bà Trưng, Phường Bến Nghé, Quận 1, Hồ Chí Minh, Việt Nam",
        "country_code": "VNM",
        "country_name": "Việt Nam",
        "city": "Hồ Chí Minh",
        "district": "Quận 1",
        "ward": "Phường Bến Nghé",
        "street": "Đường Hai Bà Trưng",
        "postal_code": "71006",
        "categories": [
            {
                "name": "Nhà hàng"
            }
        ]
    },
    {
        "name": "Lẩu Bác Hiền",
        "latitude": 10.77836,
        "longitude": 106.70299,
        "address": "Lẩu Bác Hiền, 111 Đường Hai Bà Trưng, Phường Bến Nghé, Quận 1, Hồ Chí Minh, Việt Nam",
        "country_code": "VNM",
        "country_name": "Việt Nam",
        "city": "Hồ Chí Minh",
        "district": "Quận 1",
        "ward": "Phường Bến Nghé",
        "street": "Đường Hai Bà Trưng",
        "postal_code": "71006",
        "categories": [
            {
                "name": "Nhà hàng"
            },
            {
                "name": "Quán ăn bình dân"
            }
        ]
    },
    {
        "name": "Quán Ăn Bác Hiền",
        "latitude": 10.77836,
        "longitude": 106.70299,
        "address": "Quán Ăn Bác Hiền, 111 Đường Hai Bà Trưng, Phường Bến Nghé, Quận 1, Hồ Chí Minh, Việt Nam",
        "country_code": "VNM",
        "country_name": "Việt Nam",
        "city": "Hồ Chí Minh",
        "district": "Quận 1",
        "ward": "Phường Bến Nghé",
        "street": "Đường Hai Bà Trưng",
        "postal_code": "71006",
        "categories": [
            {
                "name": "Nhà hàng"
            }
        ]
    },
    {
        "name": "Bò Ngon",
        "latitude": 10.77825,
        "longitude": 106.70327,
        "address": "Bò Ngon, Đường Hai Bà Trưng, Phường Bến Nghé, Quận 1, Hồ Chí Minh, Việt Nam",
        "country_code": "VNM",
        "country_name": "Việt Nam",
        "city": "Hồ Chí Minh",
        "district": "Quận 1",
        "ward": "Phường Bến Nghé",
        "street": "Đường Hai Bà Trưng",
        "postal_code": "71006",
        "categories": [
            {
                "name": "Nhà hàng"
            }
        ]
    },
    {
        "name": "74",
        "latitude": 10.77825,
        "longitude": 106.70327,
        "address": "74, 74A Đường Hai Bà Trưng, Phường Bến Nghé, Quận 1, Hồ Chí Minh, Việt Nam",
        "country_code": "VNM",
        "country_name": "Việt Nam",
        "city": "Hồ Chí Minh",
        "district": "Quận 1",
        "ward": "Phường Bến Nghé",
        "street": "Đường Hai Bà Trưng",
        "postal_code": "71006",
        "categories": [
            {
                "name": "Quán ăn bình dân"
            },
            {
                "name": "Nhà hàng"
            },
            {
                "name": "Siêu thị"
            }
        ]
    },
    {
        "name": "Trái Cây Tô 78",
        "latitude": 10.77825,
        "longitude": 106.70327,
        "address": "Trái Cây Tô 78, Đường Hai Bà Trưng, Phường Bến Nghé, Quận 1, Hồ Chí Minh, Việt Nam",
        "country_code": "VNM",
        "country_name": "Việt Nam",
        "city": "Hồ Chí Minh",
        "district": "Quận 1",
        "ward": "Phường Bến Nghé",
        "street": "Đường Hai Bà Trưng",
        "postal_code": "71006",
        "categories": [
            {
                "name": "Nhà hàng"
            },
            {
                "name": "Quán cà phê"
            },
            {
                "name": "Đặc sản & Đồ uống"
            },
            {
                "name": "Quầy hàng đặc sản"
            }
        ]
    },
    {
        "name": "Nhân Duyên & Cuộc Sống",
        "latitude": 10.77825,
        "longitude": 106.70327,
        "address": "Nhân Duyên & Cuộc Sống, Đường Hai Bà Trưng, Phường Bến Nghé, Quận 1, Hồ Chí Minh, Việt Nam",
        "country_code": "VNM",
        "country_name": "Việt Nam",
        "city": "Hồ Chí Minh",
        "district": "Quận 1",
        "ward": "Phường Bến Nghé",
        "street": "Đường Hai Bà Trưng",
        "postal_code": "71006",
        "categories": [
            {
                "name": "Nhà hàng"
            }
        ]
    },
    {
        "name": "Manila Fiesta Filipino Food",
        "latitude": 10.77768,
        "longitude": 106.70199,
        "address": "Manila Fiesta Filipino Food, Lê Thánh Tôn, Phường Bến Nghé, Quận 1, Hồ Chí Minh, Việt Nam",
        "country_code": "VNM",
        "country_name": "Việt Nam",
        "city": "Hồ Chí Minh",
        "district": "Quận 1",
        "ward": "Phường Bến Nghé",
        "street": "Lê Thánh Tôn",
        "postal_code": "71006",
        "categories": [
            {
                "name": "Nhà hàng"
            }
        ]
    },
    {
        "name": "Paik's Noodle 홍콩반점",
        "latitude": 10.77768,
        "longitude": 106.70199,
        "address": "Paik's Noodle 홍콩반점, Lê Thánh Tôn, Phường Bến Nghé, Quận 1, Hồ Chí Minh, Việt Nam",
        "country_code": "VNM",
        "country_name": "Việt Nam",
        "city": "Hồ Chí Minh",
        "district": "Quận 1",
        "ward": "Phường Bến Nghé",
        "street": "Lê Thánh Tôn",
        "postal_code": "71006",
        "categories": [
            {
                "name": "Nhà hàng"
            }
        ]
    },
    {
        "name": "Chấm Đỏ",
        "latitude": 10.77768,
        "longitude": 106.70199,
        "address": "Chấm Đỏ, Lê Thánh Tôn, Phường Bến Nghé, Quận 1, Hồ Chí Minh, Việt Nam",
        "country_code": "VNM",
        "country_name": "Việt Nam",
        "city": "Hồ Chí Minh",
        "district": "Quận 1",
        "ward": "Phường Bến Nghé",
        "street": "Lê Thánh Tôn",
        "postal_code": "71006",
        "categories": [
            {
                "name": "Nhà hàng"
            }
        ]
    },
    {
        "name": "K Café",
        "latitude": 10.77806,
        "longitude": 106.70348,
        "address": "K Café, 74A4 Đường Hai Bà Trưng, Phường Bến Nghé, Quận 1, Hồ Chí Minh, Việt Nam",
        "country_code": "VNM",
        "country_name": "Việt Nam",
        "city": "Hồ Chí Minh",
        "district": "Quận 1",
        "ward": "Phường Bến Nghé",
        "street": "Đường Hai Bà Trưng",
        "postal_code": "71006",
        "categories": [
            {
                "name": "Nhà hàng"
            },
            {
                "name": "Quán ăn bình dân"
            },
            {
                "name": "Quán ăn nhanh"
            },
            {
                "name": "Cà Phê/Trà"
            },
            {
                "name": "Quán cà phê"
            }
        ]
    },
    {
        "name": "Nhật Bản Mặt Trời Đỏ",
        "latitude": 10.77829,
        "longitude": 106.70322,
        "address": "Nhật Bản Mặt Trời Đỏ, 74B Đường Hai Bà Trưng, Phường Bến Nghé, Quận 1, Hồ Chí Minh, Việt Nam",
        "country_code": "VNM",
        "country_name": "Việt Nam",
        "city": "Hồ Chí Minh",
        "district": "Quận 1",
        "ward": "Phường Bến Nghé",
        "street": "Đường Hai Bà Trưng",
        "postal_code": "71006",
        "categories": [
            {
                "name": "Nhà hàng"
            }
        ]
    },
    {
        "name": "Nhà Hàng Basta Hiro",
        "latitude": 10.77829,
        "longitude": 106.70322,
        "address": "Nhà Hàng Basta Hiro, 74B Đường Hai Bà Trưng, Phường Bến Nghé, Quận 1, Hồ Chí Minh, Việt Nam",
        "country_code": "VNM",
        "country_name": "Việt Nam",
        "city": "Hồ Chí Minh",
        "district": "Quận 1",
        "ward": "Phường Bến Nghé",
        "street": "Đường Hai Bà Trưng",
        "postal_code": "71006",
        "categories": [
            {
                "name": "Cafeteria"
            },
            {
                "name": "Nhà hàng"
            },
            {
                "name": "Quán ăn bình dân"
            },
            {
                "name": "Bar hoặc Quán rượu"
            }
        ]
    },
    {
        "name": "Nhà Hàng Nam Phan",
        "latitude": 10.7784,
        "longitude": 106.70279,
        "address": "Nhà Hàng Nam Phan, 64 Đường Lê Thánh Tôn, Phường Bến Nghé, Quận 1, Hồ Chí Minh, Việt Nam",
        "country_code": "VNM",
        "country_name": "Việt Nam",
        "city": "Hồ Chí Minh",
        "district": "Quận 1",
        "ward": "Phường Bến Nghé",
        "street": "Đường Lê Thánh Tôn",
        "postal_code": "71006",
        "categories": [
            {
                "name": "Nhà hàng"
            }
        ]
    },
    {
        "name": "Fly Cupcake",
        "latitude": 10.7784,
        "longitude": 106.70279,
        "address": "Fly Cupcake, Đường Lê Thánh Tôn, Phường Bến Nghé, Quận 1, Hồ Chí Minh, Việt Nam",
        "country_code": "VNM",
        "country_name": "Việt Nam",
        "city": "Hồ Chí Minh",
        "district": "Quận 1",
        "ward": "Phường Bến Nghé",
        "street": "Đường Lê Thánh Tôn",
        "postal_code": "71006",
        "categories": [
            {
                "name": "Nhà hàng"
            }
        ]
    },
    {
        "name": "Nhà Hàng Thaiexpress",
        "latitude": 10.77679,
        "longitude": 106.70304,
        "address": "Nhà Hàng Thaiexpress, Công Trường Lam Sơn, Phường Bến Nghé, Quận 1, Hồ Chí Minh, Việt Nam",
        "country_code": "VNM",
        "country_name": "Việt Nam",
        "city": "Hồ Chí Minh",
        "district": "Quận 1",
        "ward": "Phường Bến Nghé",
        "street": "Công Trường Lam Sơn",
        "postal_code": "71006",
        "categories": [
            {
                "name": "Nhà hàng"
            },
            {
                "name": "Cà Phê/Trà"
            }
        ]
    },
    {
        "name": "Wrap & Roll - Nét Riêng Cuốn Việt",
        "latitude": 10.77769,
        "longitude": 106.70197,
        "address": "Wrap & Roll - Nét Riêng Cuốn Việt, Lê Thánh Tôn, Phường Bến Nghé, Quận 1, Hồ Chí Minh, Việt Nam",
        "country_code": "VNM",
        "country_name": "Việt Nam",
        "city": "Hồ Chí Minh",
        "district": "Quận 1",
        "ward": "Phường Bến Nghé",
        "street": "Lê Thánh Tôn",
        "postal_code": "71006",
        "categories": [
            {
                "name": "Nhà hàng"
            },
            {
                "name": "Quán ăn nhanh"
            }
        ]
    },
    {
        "name": "Bookcafe Pnc",
        "latitude": 10.77809,
        "longitude": 106.70214,
        "address": "Bookcafe Pnc, 72 Đường Lê Thánh Tôn, Phường Bến Nghé, Quận 1, Hồ Chí Minh, Việt Nam",
        "country_code": "VNM",
        "country_name": "Việt Nam",
        "city": "Hồ Chí Minh",
        "district": "Quận 1",
        "ward": "Phường Bến Nghé",
        "street": "Đường Lê Thánh Tôn",
        "postal_code": "71006",
        "categories": [
            {
                "name": "Nhà hàng"
            },
            {
                "name": "Siêu thị"
            }
        ]
    },
    {
        "name": "Viet Street Vincom Center Đồng Khởi",
        "latitude": 10.77809,
        "longitude": 106.70214,
        "address": "Viet Street Vincom Center Đồng Khởi, 72 Đường Lê Thánh Tôn, Phường Bến Nghé, Quận 1, Hồ Chí Minh, Việt Nam",
        "country_code": "VNM",
        "country_name": "Việt Nam",
        "city": "Hồ Chí Minh",
        "district": "Quận 1",
        "ward": "Phường Bến Nghé",
        "street": "Đường Lê Thánh Tôn",
        "postal_code": "71006",
        "categories": [
            {
                "name": "Nhà hàng"
            }
        ]
    },
    {
        "name": "Bánh Canh Giò Heo",
        "latitude": 10.77809,
        "longitude": 106.70214,
        "address": "Bánh Canh Giò Heo, 72 Đường Lê Thánh Tôn, Phường Bến Nghé, Quận 1, Hồ Chí Minh, Việt Nam",
        "country_code": "VNM",
        "country_name": "Việt Nam",
        "city": "Hồ Chí Minh",
        "district": "Quận 1",
        "ward": "Phường Bến Nghé",
        "street": "Đường Lê Thánh Tôn",
        "postal_code": "71006",
        "categories": [
            {
                "name": "Nhà hàng"
            },
            {
                "name": "Chợ/Gian hàng ẩm thực"
            }
        ]
    },
    {
        "name": "Siam Sugar",
        "latitude": 10.77809,
        "longitude": 106.70214,
        "address": "Siam Sugar, Đường Lê Thánh Tôn, Phường Bến Nghé, Quận 1, Hồ Chí Minh, Việt Nam",
        "country_code": "VNM",
        "country_name": "Việt Nam",
        "city": "Hồ Chí Minh",
        "district": "Quận 1",
        "ward": "Phường Bến Nghé",
        "street": "Đường Lê Thánh Tôn",
        "postal_code": "71006",
        "categories": [
            {
                "name": "Nhà hàng"
            }
        ]
    },
    {
        "name": "Bulgogi",
        "latitude": 10.77809,
        "longitude": 106.70214,
        "address": "Bulgogi, Đường Lê Thánh Tôn, Phường Bến Nghé, Quận 1, Hồ Chí Minh, Việt Nam",
        "country_code": "VNM",
        "country_name": "Việt Nam",
        "city": "Hồ Chí Minh",
        "district": "Quận 1",
        "ward": "Phường Bến Nghé",
        "street": "Đường Lê Thánh Tôn",
        "postal_code": "71006",
        "categories": [
            {
                "name": "Nhà hàng"
            }
        ]
    },
    {
        "name": "Chang Kang Kung",
        "latitude": 10.77809,
        "longitude": 106.70214,
        "address": "Chang Kang Kung, 72 Đường Lê Thánh Tôn, Phường Bến Nghé, Quận 1, Hồ Chí Minh, Việt Nam",
        "country_code": "VNM",
        "country_name": "Việt Nam",
        "city": "Hồ Chí Minh",
        "district": "Quận 1",
        "ward": "Phường Bến Nghé",
        "street": "Đường Lê Thánh Tôn",
        "postal_code": "71006",
        "categories": [
            {
                "name": "Nhà hàng"
            }
        ]
    },
    {
        "name": "Maneki Neko",
        "latitude": 10.77809,
        "longitude": 106.70214,
        "address": "Maneki Neko, Đường Lê Thánh Tôn, Phường Bến Nghé, Quận 1, Hồ Chí Minh, Việt Nam",
        "country_code": "VNM",
        "country_name": "Việt Nam",
        "city": "Hồ Chí Minh",
        "district": "Quận 1",
        "ward": "Phường Bến Nghé",
        "street": "Đường Lê Thánh Tôn",
        "postal_code": "71006",
        "categories": [
            {
                "name": "Nhà hàng"
            }
        ]
    },
    {
        "name": "Hachiban",
        "latitude": 10.77809,
        "longitude": 106.70214,
        "address": "Hachiban, 72 Đường Lê Thánh Tôn, Phường Bến Nghé, Quận 1, Hồ Chí Minh, Việt Nam",
        "country_code": "VNM",
        "country_name": "Việt Nam",
        "city": "Hồ Chí Minh",
        "district": "Quận 1",
        "ward": "Phường Bến Nghé",
        "street": "Đường Lê Thánh Tôn",
        "postal_code": "71006",
        "categories": [
            {
                "name": "Nhà hàng"
            }
        ]
    },
    {
        "name": "Park Jong Won's Kitchen",
        "latitude": 10.77809,
        "longitude": 106.70214,
        "address": "Park Jong Won's Kitchen, Đường Lê Thánh Tôn, Phường Bến Nghé, Quận 1, Hồ Chí Minh, Việt Nam",
        "country_code": "VNM",
        "country_name": "Việt Nam",
        "city": "Hồ Chí Minh",
        "district": "Quận 1",
        "ward": "Phường Bến Nghé",
        "street": "Đường Lê Thánh Tôn",
        "postal_code": "71006",
        "categories": [
            {
                "name": "Nhà hàng"
            }
        ]
    },
    {
        "name": "Kyo Hannari",
        "latitude": 10.77809,
        "longitude": 106.70214,
        "address": "Kyo Hannari, Đường Lê Thánh Tôn, Phường Bến Nghé, Quận 1, Hồ Chí Minh, Việt Nam",
        "country_code": "VNM",
        "country_name": "Việt Nam",
        "city": "Hồ Chí Minh",
        "district": "Quận 1",
        "ward": "Phường Bến Nghé",
        "street": "Đường Lê Thánh Tôn",
        "postal_code": "71006",
        "categories": [
            {
                "name": "Nhà hàng"
            }
        ]
    },
    {
        "name": "Kichi Kichi Lẩu Băng Chuyền",
        "latitude": 10.77809,
        "longitude": 106.70214,
        "address": "Kichi Kichi Lẩu Băng Chuyền, 72 Đường Lê Thánh Tôn, Phường Bến Nghé, Quận 1, Hồ Chí Minh, Việt Nam",
        "country_code": "VNM",
        "country_name": "Việt Nam",
        "city": "Hồ Chí Minh",
        "district": "Quận 1",
        "ward": "Phường Bến Nghé",
        "street": "Đường Lê Thánh Tôn",
        "postal_code": "71006",
        "categories": [
            {
                "name": "Nhà hàng"
            },
            {
                "name": "Quán ăn bình dân"
            }
        ]
    },
    {
        "name": "Gyu Jin 牛陣 Shabushabu & Sukiyaki",
        "latitude": 10.77809,
        "longitude": 106.70214,
        "address": "Gyu Jin 牛陣 Shabushabu & Sukiyaki, 72 Đường Lê Thánh Tôn, Phường Bến Nghé, Quận 1, Hồ Chí Minh, Việt Nam",
        "country_code": "VNM",
        "country_name": "Việt Nam",
        "city": "Hồ Chí Minh",
        "district": "Quận 1",
        "ward": "Phường Bến Nghé",
        "street": "Đường Lê Thánh Tôn",
        "postal_code": "71006",
        "categories": [
            {
                "name": "Nhà hàng"
            }
        ]
    },
    {
        "name": "Nhà Hàng Carl's Charbroiled Burgers",
        "latitude": 10.77809,
        "longitude": 106.70214,
        "address": "Nhà Hàng Carl's Charbroiled Burgers, 72 Đường Lê Thánh Tôn, Phường Bến Nghé, Quận 1, Hồ Chí Minh, Việt Nam",
        "country_code": "VNM",
        "country_name": "Việt Nam",
        "city": "Hồ Chí Minh",
        "district": "Quận 1",
        "ward": "Phường Bến Nghé",
        "street": "Đường Lê Thánh Tôn",
        "postal_code": "71006",
        "categories": [
            {
                "name": "Nhà hàng"
            }
        ]
    },
    {
        "name": "Juice Farm",
        "latitude": 10.77809,
        "longitude": 106.70214,
        "address": "Juice Farm, Đường Lê Thánh Tôn, Phường Bến Nghé, Quận 1, Hồ Chí Minh, Việt Nam",
        "country_code": "VNM",
        "country_name": "Việt Nam",
        "city": "Hồ Chí Minh",
        "district": "Quận 1",
        "ward": "Phường Bến Nghé",
        "street": "Đường Lê Thánh Tôn",
        "postal_code": "71006",
        "categories": [
            {
                "name": "Nhà hàng"
            },
            {
                "name": "Quán cà phê"
            }
        ]
    },
    {
        "name": "Sumobbq",
        "latitude": 10.77809,
        "longitude": 106.70214,
        "address": "Sumobbq, 72 Đường Lê Thánh Tôn, Phường Bến Nghé, Quận 1, Hồ Chí Minh, Việt Nam",
        "country_code": "VNM",
        "country_name": "Việt Nam",
        "city": "Hồ Chí Minh",
        "district": "Quận 1",
        "ward": "Phường Bến Nghé",
        "street": "Đường Lê Thánh Tôn",
        "postal_code": "71006",
        "categories": [
            {
                "name": "Nhà hàng"
            }
        ]
    },
    {
        "name": "Koba Drinks & Desserts",
        "latitude": 10.77809,
        "longitude": 106.70214,
        "address": "Koba Drinks & Desserts, Đường Lê Thánh Tôn, Phường Bến Nghé, Quận 1, Hồ Chí Minh, Việt Nam",
        "country_code": "VNM",
        "country_name": "Việt Nam",
        "city": "Hồ Chí Minh",
        "district": "Quận 1",
        "ward": "Phường Bến Nghé",
        "street": "Đường Lê Thánh Tôn",
        "postal_code": "71006",
        "categories": [
            {
                "name": "Nhà hàng"
            },
            {
                "name": "Quán cà phê"
            }
        ]
    },
    {
        "name": "Bún Chả Tô",
        "latitude": 10.77809,
        "longitude": 106.70214,
        "address": "Bún Chả Tô, 72 Đường Lê Thánh Tôn, Phường Bến Nghé, Quận 1, Hồ Chí Minh, Việt Nam",
        "country_code": "VNM",
        "country_name": "Việt Nam",
        "city": "Hồ Chí Minh",
        "district": "Quận 1",
        "ward": "Phường Bến Nghé",
        "street": "Đường Lê Thánh Tôn",
        "postal_code": "71006",
        "categories": [
            {
                "name": "Nhà hàng"
            }
        ]
    },
    {
        "name": "Nhà Hàng Sushi Club - Vincom Center",
        "latitude": 10.77809,
        "longitude": 106.70214,
        "address": "Nhà Hàng Sushi Club - Vincom Center, 72 Đường Lê Thánh Tôn, Phường Bến Nghé, Quận 1, Hồ Chí Minh, Việt Nam",
        "country_code": "VNM",
        "country_name": "Việt Nam",
        "city": "Hồ Chí Minh",
        "district": "Quận 1",
        "ward": "Phường Bến Nghé",
        "street": "Đường Lê Thánh Tôn",
        "postal_code": "71006",
        "categories": [
            {
                "name": "Nhà hàng"
            }
        ]
    },
    {
        "name": "Nhà Hàng Lẩu Gà Thiên Nhiên Collagen",
        "latitude": 10.77841,
        "longitude": 106.70288,
        "address": "Nhà Hàng Lẩu Gà Thiên Nhiên Collagen, Đường Hai Bà Trưng, Phường Bến Nghé, Quận 1, Hồ Chí Minh, Việt Nam",
        "country_code": "VNM",
        "country_name": "Việt Nam",
        "city": "Hồ Chí Minh",
        "district": "Quận 1",
        "ward": "Phường Bến Nghé",
        "street": "Đường Hai Bà Trưng",
        "postal_code": "71006",
        "categories": [
            {
                "name": "Nhà hàng"
            }
        ]
    },
    {
        "name": "Pau Hanna",
        "latitude": 10.77841,
        "longitude": 106.70288,
        "address": "Pau Hanna, Đường Hai Bà Trưng, Phường Bến Nghé, Quận 1, Hồ Chí Minh, Việt Nam",
        "country_code": "VNM",
        "country_name": "Việt Nam",
        "city": "Hồ Chí Minh",
        "district": "Quận 1",
        "ward": "Phường Bến Nghé",
        "street": "Đường Hai Bà Trưng",
        "postal_code": "71006",
        "categories": [
            {
                "name": "Nhà hàng"
            }
        ]
    },
    {
        "name": "Tomidaya Ramen",
        "latitude": 10.77841,
        "longitude": 106.70288,
        "address": "Tomidaya Ramen, Đường Hai Bà Trưng, Phường Bến Nghé, Quận 1, Hồ Chí Minh, Việt Nam",
        "country_code": "VNM",
        "country_name": "Việt Nam",
        "city": "Hồ Chí Minh",
        "district": "Quận 1",
        "ward": "Phường Bến Nghé",
        "street": "Đường Hai Bà Trưng",
        "postal_code": "71006",
        "categories": [
            {
                "name": "Nhà hàng"
            }
        ]
    },
    {
        "name": "Lamie",
        "latitude": 10.77841,
        "longitude": 106.70288,
        "address": "Lamie, Đường Hai Bà Trưng, Phường Bến Nghé, Quận 1, Hồ Chí Minh, Việt Nam",
        "country_code": "VNM",
        "country_name": "Việt Nam",
        "city": "Hồ Chí Minh",
        "district": "Quận 1",
        "ward": "Phường Bến Nghé",
        "street": "Đường Hai Bà Trưng",
        "postal_code": "71006",
        "categories": [
            {
                "name": "Nhà hàng"
            }
        ]
    },
    {
        "name": "Wrapvàroll",
        "latitude": 10.77767,
        "longitude": 106.70196,
        "address": "Wrapvàroll, Đường Lê Thánh Tôn, Phường Bến Nghé, Quận 1, Hồ Chí Minh, Việt Nam",
        "country_code": "VNM",
        "country_name": "Việt Nam",
        "city": "Hồ Chí Minh",
        "district": "Quận 1",
        "ward": "Phường Bến Nghé",
        "street": "Đường Lê Thánh Tôn",
        "postal_code": "71006",
        "categories": [
            {
                "name": "Nhà hàng"
            }
        ]
    },
    {
        "name": "Argentinian Steakhouse",
        "latitude": 10.77805,
        "longitude": 106.70352,
        "address": "Argentinian Steakhouse, Đường Hai Bà Trưng, Phường Bến Nghé, Quận 1, Hồ Chí Minh, Việt Nam",
        "country_code": "VNM",
        "country_name": "Việt Nam",
        "city": "Hồ Chí Minh",
        "district": "Quận 1",
        "ward": "Phường Bến Nghé",
        "street": "Đường Hai Bà Trưng",
        "postal_code": "71006",
        "categories": [
            {
                "name": "Nhà hàng"
            }
        ]
    },
    {
        "name": "Nhà Hàng Le Bourgeois",
        "latitude": 10.77684,
        "longitude": 106.7024,
        "address": "Nhà Hàng Le Bourgeois, 132-134 Đường Đồng Khởi, Phường Bến Nghé, Quận 1, Hồ Chí Minh, Việt Nam",
        "country_code": "VNM",
        "country_name": "Việt Nam",
        "city": "Hồ Chí Minh",
        "district": "Quận 1",
        "ward": "Phường Bến Nghé",
        "street": "Đường Đồng Khởi",
        "postal_code": "71006",
        "categories": [
            {
                "name": "Nhà hàng"
            },
            {
                "name": "Quán ăn bình dân"
            }
        ]
    },
    {
        "name": "Lafayette Restaurant",
        "latitude": 10.77684,
        "longitude": 106.7024,
        "address": "Lafayette Restaurant, 132-134 Đường Đồng Khởi, Phường Bến Nghé, Quận 1, Hồ Chí Minh, Việt Nam",
        "country_code": "VNM",
        "country_name": "Việt Nam",
        "city": "Hồ Chí Minh",
        "district": "Quận 1",
        "ward": "Phường Bến Nghé",
        "street": "Đường Đồng Khởi",
        "postal_code": "71006",
        "categories": [
            {
                "name": "Nhà hàng"
            }
        ]
    },
    {
        "name": "Blanchy Street",
        "latitude": 10.77759,
        "longitude": 106.70367,
        "address": "Blanchy Street, Công Trường Lam Sơn, Phường Bến Nghé, Quận 1, Hồ Chí Minh, Việt Nam",
        "country_code": "VNM",
        "country_name": "Việt Nam",
        "city": "Hồ Chí Minh",
        "district": "Quận 1",
        "ward": "Phường Bến Nghé",
        "street": "Công Trường Lam Sơn",
        "postal_code": "71006",
        "categories": [
            {
                "name": "Quán ăn bình dân"
            },
            {
                "name": "Nhà hàng"
            }
        ]
    },
    {
        "name": "San Fu Lou Vincom",
        "latitude": 10.77786,
        "longitude": 106.70199,
        "address": "San Fu Lou Vincom, Lê Thánh Tôn, Phường Bến Nghé, Quận 1, Hồ Chí Minh, Việt Nam",
        "country_code": "VNM",
        "country_name": "Việt Nam",
        "city": "Hồ Chí Minh",
        "district": "Quận 1",
        "ward": "Phường Bến Nghé",
        "street": "Lê Thánh Tôn",
        "postal_code": "71006",
        "categories": [
            {
                "name": "Nhà hàng"
            }
        ]
    },
    {
        "name": "Flavour Of India",
        "latitude": 10.77786,
        "longitude": 106.70198,
        "address": "Flavour Of India, Lê Thánh Tôn, Phường Bến Nghé, Quận 1, Hồ Chí Minh, Việt Nam",
        "country_code": "VNM",
        "country_name": "Việt Nam",
        "city": "Hồ Chí Minh",
        "district": "Quận 1",
        "ward": "Phường Bến Nghé",
        "street": "Lê Thánh Tôn",
        "postal_code": "71006",
        "categories": [
            {
                "name": "Nhà hàng"
            }
        ]
    },
    {
        "name": "Bún Bò Huế 3A3 - Lêthánh Tôn",
        "latitude": 10.77726,
        "longitude": 106.70199,
        "address": "Bún Bò Huế 3A3 - Lêthánh Tôn, Đường Đồng Khởi, Phường Bến Nghé, Quận 1, Hồ Chí Minh, Việt Nam",
        "country_code": "VNM",
        "country_name": "Việt Nam",
        "city": "Hồ Chí Minh",
        "district": "Quận 1",
        "ward": "Phường Bến Nghé",
        "street": "Đường Đồng Khởi",
        "postal_code": "71006",
        "categories": [
            {
                "name": "Chợ/Gian hàng ẩm thực"
            },
            {
                "name": "Nhà hàng"
            }
        ]
    },
    {
        "name": "Pho Ngoon",
        "latitude": 10.77726,
        "longitude": 106.70199,
        "address": "Pho Ngoon, Đường Đồng Khởi, Phường Bến Nghé, Quận 1, Hồ Chí Minh, Việt Nam",
        "country_code": "VNM",
        "country_name": "Việt Nam",
        "city": "Hồ Chí Minh",
        "district": "Quận 1",
        "ward": "Phường Bến Nghé",
        "street": "Đường Đồng Khởi",
        "postal_code": "71006",
        "categories": [
            {
                "name": "Nhà hàng"
            }
        ]
    }
]
