[
    {
        "name": "Municipal Theatre",
        "latitude": 10.77664,
        "longitude": 106.70367,
        "address": "Municipal Theatre, Đường Công Trường Lam Sơn, Phường Bến Nghé, Quận 1, Hồ Chí Minh, Việt Nam",
        "country_code": "VNM",
        "country_name": "Việt Nam",
        "city": "Hồ Chí Minh",
        "district": "Quận 1",
        "ward": "Phường Bến Nghé",
        "street": "Đường Công Trường Lam Sơn",
        "postal_code": "71006",
        "categories": [
            {
                "name": "Nhà hát, Âm nhạc & Văn hóa"
            },
            {
                "name": "Giải trí hoặc âm nhạc sống"
            },
            {
                "name": "Rạp chiếu phim"
            }
        ]
    },
    {
        "name": "Grand Théâtre De L'Opéra De HCMV",
        "latitude": 10.77598,
        "longitude": 106.70287,
        "address": "Grand Théâtre De L'Opéra De HCMV, Đường Lê Lợi, Phường Bến Nghé, Quận 1, Hồ Chí Minh, Việt Nam",
        "country_code": "VNM",
        "country_name": "Việt Nam",
        "city": "Hồ Chí Minh",
        "district": "Quận 1",
        "ward": "Phường Bến Nghé",
        "street": "Đường Lê Lợi",
        "postal_code": "71006",
        "categories": [
            {
                "name": "Nhà hát, Âm nhạc & Văn hóa"
            }
        ]
    },
    {
        "name": "Mpu Showcase July 2013",
        "latitude": 10.7763,
        "longitude": 106.70165,
        "address": "Mpu Showcase July 2013, Đường Nguyễn Huệ, Phường Bến Nghé, Quận 1, Hồ Chí Minh, Việt Nam",
        "country_code": "VNM",
        "country_name": "Việt Nam",
        "city": "Hồ Chí Minh",
        "district": "Quận 1",
        "ward": "Phường Bến Nghé",
        "street": "Đường Nguyễn Huệ",
        "postal_code": "71006",
        "categories": [
            {
                "name": "Nhà hát, Âm nhạc & Văn hóa"
            }
        ]
    },
    {
        "name": "Aria Collectives",
        "latitude": 10.77576,
        "longitude": 106.70324,
        "address": "Aria Collectives, Đường Đồng Khởi, Phường Bến Nghé, Quận 1, Hồ Chí Minh, Việt Nam",
        "country_code": "VNM",
        "country_name": "Việt Nam",
        "city": "Hồ Chí Minh",
        "district": "Quận 1",
        "ward": "Phường Bến Nghé",
        "street": "Đường Đồng Khởi",
        "postal_code": "71006",
        "categories": [
            {
                "name": "Nhà hát, Âm nhạc & Văn hóa"
            }
        ]
    },
    {
        "name": "Sân Khấu Điện Ảnh Idecaf",
        "latitude": 10.77972,
        "longitude": 106.70387,
        "address": "Sân Khấu Điện Ảnh Idecaf, 28 Đường Lê Thánh Tôn, Phường Bến Nghé, Quận 1, Hồ Chí Minh, Việt Nam",
        "country_code": "VNM",
        "country_name": "Việt Nam",
        "city": "Hồ Chí Minh",
        "district": "Quận 1",
        "ward": "Phường Bến Nghé",
        "street": "Đường Lê Thánh Tôn",
        "postal_code": "71006",
        "categories": [
            {
                "name": "Trung tâm biểu diễn nghệ thuật"
            },
            {
                "name": "Giải trí về đêm"
            },
            {
                "name": "Rạp chiếu phim"
            },
            {
                "name": "Nhà hát, Âm nhạc & Văn hóa"
            }
        ]
    },
    {
        "name": "Observatory",
        "latitude": 10.77543,
        "longitude": 106.70149,
        "address": "Observatory, Đường Lê Lợi, Phường Bến Nghé, Quận 1, Hồ Chí Minh, Việt Nam",
        "country_code": "VNM",
        "country_name": "Việt Nam",
        "city": "Hồ Chí Minh",
        "district": "Quận 1",
        "ward": "Phường Bến Nghé",
        "street": "Đường Lê Lợi",
        "postal_code": "71006",
        "categories": [
            {
                "name": "Nhà hát, Âm nhạc & Văn hóa"
            },
            {
                "name": "Nhà hàng"
            },
            {
                "name": "Câu lạc bộ đêm"
            }
        ]
    },
    {
        "name": "Lala Land Acoustic Cafe",
        "latitude": 10.78101,
        "longitude": 106.70537,
        "address": "Lala Land Acoustic Cafe, 8 Đường Lê Thánh Tôn, Phường Bến Nghé, Quận 1, Hồ Chí Minh, Việt Nam",
        "country_code": "VNM",
        "country_name": "Việt Nam",
        "city": "Hồ Chí Minh",
        "district": "Quận 1",
        "ward": "Phường Bến Nghé",
        "street": "Đường Lê Thánh Tôn",
        "postal_code": "71006",
        "categories": [
            {
                "name": "Nhà hát, Âm nhạc & Văn hóa"
            }
        ]
    },
    {
        "name": "Studio Of Hcmc Conservatory Of Music",
        "latitude": 10.773,
        "longitude": 106.70303,
        "address": "Studio Of Hcmc Conservatory Of Music, Đường Huỳnh Thúc Kháng, Phường Bến Nghé, Quận 1, Hồ Chí Minh, Việt Nam",
        "country_code": "VNM",
        "country_name": "Việt Nam",
        "city": "Hồ Chí Minh",
        "district": "Quận 1",
        "ward": "Phường Bến Nghé",
        "street": "Đường Huỳnh Thúc Kháng",
        "postal_code": "71006",
        "categories": [
            {
                "name": "Nhà hát, Âm nhạc & Văn hóa"
            }
        ]
    },
    {
        "name": "Khoa Tại Chức - Nhạc Viện TPHCM",
        "latitude": 10.77462,
        "longitude": 106.69805,
        "address": "Khoa Tại Chức - Nhạc Viện TPHCM, Đường Lý Tự Trọng, Phường Bến Thành, Quận 1, Hồ Chí Minh, Việt Nam",
        "country_code": "VNM",
        "country_name": "Việt Nam",
        "city": "Hồ Chí Minh",
        "district": "Quận 1",
        "ward": "Phường Bến Thành",
        "street": "Đường Lý Tự Trọng",
        "postal_code": "71009",
        "categories": [
            {
                "name": "Nhà hát, Âm nhạc & Văn hóa"
            }
        ]
    },
    {
        "name": "Napoly Lounge",
        "latitude": 10.77179,
        "longitude": 106.70061,
        "address": "Napoly Lounge, Đường Nam Kỳ Khởi Nghĩa, Phường Bến Thành, Quận 1, Hồ Chí Minh, Việt Nam",
        "country_code": "VNM",
        "country_name": "Việt Nam",
        "city": "Hồ Chí Minh",
        "district": "Quận 1",
        "ward": "Phường Bến Thành",
        "street": "Đường Nam Kỳ Khởi Nghĩa",
        "postal_code": "71009",
        "categories": [
            {
                "name": "Nhà hát, Âm nhạc & Văn hóa"
            }
        ]
    },
    {
        "name": "The Touch Of Masters' Hands: The Vietnamese Authentic Cultural Show",
        "latitude": 10.78454,
        "longitude": 106.70078,
        "address": "The Touch Of Masters' Hands: The Vietnamese Authentic Cultural Show, 11 Hẻm 17 Nguyễn Thị Minh Khai, Phường Bến Nghé, Quận 1, Hồ Chí Minh, Việt Nam",
        "country_code": "VNM",
        "country_name": "Việt Nam",
        "city": "Hồ Chí Minh",
        "district": "Quận 1",
        "ward": "Phường Bến Nghé",
        "street": "Hẻm 17 Nguyễn Thị Minh Khai",
        "postal_code": "71006",
        "categories": [
            {
                "name": "Nhà hát, Âm nhạc & Văn hóa"
            }
        ]
    },
    {
        "name": "Nhà Hát Ca Múa Nhạc Dân Tộc Bông Sen",
        "latitude": 10.78321,
        "longitude": 106.69786,
        "address": "Nhà Hát Ca Múa Nhạc Dân Tộc Bông Sen, Đường Hai Bà Trưng, Phường Đa Kao, Quận 1, Hồ Chí Minh, Việt Nam",
        "country_code": "VNM",
        "country_name": "Việt Nam",
        "city": "Hồ Chí Minh",
        "district": "Quận 1",
        "ward": "Phường Đa Kao",
        "street": "Đường Hai Bà Trưng",
        "postal_code": "71007",
        "categories": [
            {
                "name": "Nhà hát, Âm nhạc & Văn hóa"
            },
            {
                "name": "Trung tâm biểu diễn nghệ thuật"
            }
        ]
    },
    {
        "name": "Rạp Kim Châu",
        "latitude": 10.77013,
        "longitude": 106.70086,
        "address": "Rạp Kim Châu, Đường Nguyễn Thái Bình, Phường Nguyễn Thái Bình, Quận 1, Hồ Chí Minh, Việt Nam",
        "country_code": "VNM",
        "country_name": "Việt Nam",
        "city": "Hồ Chí Minh",
        "district": "Quận 1",
        "ward": "Phường Nguyễn Thái Bình",
        "street": "Đường Nguyễn Thái Bình",
        "postal_code": "71010",
        "categories": [
            {
                "name": "Nhà hát, Âm nhạc & Văn hóa"
            },
            {
                "name": "Giải trí về đêm"
            }
        ]
    },
    {
        "name": "Restaurant Water Puppet",
        "latitude": 10.77666,
        "longitude": 106.69468,
        "address": "Restaurant Water Puppet, Đường Huyền Trân Công Chúa, Phường Bến Thành, Quận 1, Hồ Chí Minh, Việt Nam",
        "country_code": "VNM",
        "country_name": "Việt Nam",
        "city": "Hồ Chí Minh",
        "district": "Quận 1",
        "ward": "Phường Bến Thành",
        "street": "Đường Huyền Trân Công Chúa",
        "postal_code": "71009",
        "categories": [
            {
                "name": "Nhà hát, Âm nhạc & Văn hóa"
            }
        ]
    },
    {
        "name": "Saigon Stereo",
        "latitude": 10.78342,
        "longitude": 106.69697,
        "address": "Saigon Stereo, Đường Hai Bà Trưng, Phường Võ Thị Sáu, Quận 3, Hồ Chí Minh, Việt Nam",
        "country_code": "VNM",
        "country_name": "Việt Nam",
        "city": "Hồ Chí Minh",
        "district": "Quận 3",
        "ward": "Phường Võ Thị Sáu",
        "street": "Đường Hai Bà Trưng",
        "postal_code": "72415",
        "categories": [
            {
                "name": "Nhà hát, Âm nhạc & Văn hóa"
            }
        ]
    },
    {
        "name": "Sân Khấu Số 7 Trần Cao Vân",
        "latitude": 10.78494,
        "longitude": 106.69818,
        "address": "Sân Khấu Số 7 Trần Cao Vân, 7 Đường Trần Cao Vân, Phường Đa Kao, Quận 1, Hồ Chí Minh, Việt Nam",
        "country_code": "VNM",
        "country_name": "Việt Nam",
        "city": "Hồ Chí Minh",
        "district": "Quận 1",
        "ward": "Phường Đa Kao",
        "street": "Đường Trần Cao Vân",
        "postal_code": "71007",
        "categories": [
            {
                "name": "Nhà hát, Âm nhạc & Văn hóa"
            },
            {
                "name": "Rạp chiếu phim"
            },
            {
                "name": "Trung tâm biểu diễn nghệ thuật"
            }
        ]
    },
    {
        "name": "Thay Lời Muốn Nói @Đài Truyền Hình HTV",
        "latitude": 10.7863,
        "longitude": 106.70201,
        "address": "Thay Lời Muốn Nói @Đài Truyền Hình HTV, 14 Đường Đinh Tiên Hoàng, Phường Bến Nghé, Quận 1, Hồ Chí Minh, Việt Nam",
        "country_code": "VNM",
        "country_name": "Việt Nam",
        "city": "Hồ Chí Minh",
        "district": "Quận 1",
        "ward": "Phường Bến Nghé",
        "street": "Đường Đinh Tiên Hoàng",
        "postal_code": "71006",
        "categories": [
            {
                "name": "Nhà hát, Âm nhạc & Văn hóa"
            }
        ]
    },
    {
        "name": "Mộc Show Saigon",
        "latitude": 10.78631,
        "longitude": 106.70156,
        "address": "Mộc Show Saigon, Đường Nguyễn Thị Minh Khai, Phường Đa Kao, Quận 1, Hồ Chí Minh, Việt Nam",
        "country_code": "VNM",
        "country_name": "Việt Nam",
        "city": "Hồ Chí Minh",
        "district": "Quận 1",
        "ward": "Phường Đa Kao",
        "street": "Đường Nguyễn Thị Minh Khai",
        "postal_code": "71007",
        "categories": [
            {
                "name": "Nhà hát, Âm nhạc & Văn hóa"
            }
        ]
    },
    {
        "name": "Hà Nội Và Tôi",
        "latitude": 10.78357,
        "longitude": 106.69615,
        "address": "Hà Nội Và Tôi, Hẻm 28-32 Trần Cao Vân, Phường Võ Thị Sáu, Quận 3, Hồ Chí Minh, Việt Nam",
        "country_code": "VNM",
        "country_name": "Việt Nam",
        "city": "Hồ Chí Minh",
        "district": "Quận 3",
        "ward": "Phường Võ Thị Sáu",
        "street": "Hẻm 28-32 Trần Cao Vân",
        "postal_code": "72415",
        "categories": [
            {
                "name": "Nhà hát, Âm nhạc & Văn hóa"
            }
        ]
    },
    {
        "name": "Sân Khấu Kịch 5B",
        "latitude": 10.78079,
        "longitude": 106.6943,
        "address": "Sân Khấu Kịch 5B, 5 Đường Võ Văn Tần, Phường Võ Thị Sáu, Quận 3, Hồ Chí Minh, Việt Nam",
        "country_code": "VNM",
        "country_name": "Việt Nam",
        "city": "Hồ Chí Minh",
        "district": "Quận 3",
        "ward": "Phường Võ Thị Sáu",
        "street": "Đường Võ Văn Tần",
        "postal_code": "72415",
        "categories": [
            {
                "name": "Trung tâm biểu diễn nghệ thuật"
            },
            {
                "name": "Giải trí về đêm"
            },
            {
                "name": "Giải trí hoặc âm nhạc sống"
            },
            {
                "name": "Rạp chiếu phim"
            },
            {
                "name": "Nhà hát, Âm nhạc & Văn hóa"
            }
        ]
    },
    {
        "name": "Shi Karaoke",
        "latitude": 10.76849,
        "longitude": 106.70064,
        "address": "Shi Karaoke, Đường Phó Đức Chính, Phường Nguyễn Thái Bình, Quận 1, Hồ Chí Minh, Việt Nam",
        "country_code": "VNM",
        "country_name": "Việt Nam",
        "city": "Hồ Chí Minh",
        "district": "Quận 1",
        "ward": "Phường Nguyễn Thái Bình",
        "street": "Đường Phó Đức Chính",
        "postal_code": "71010",
        "categories": [
            {
                "name": "Nhà hát, Âm nhạc & Văn hóa"
            },
            {
                "name": "Giải trí về đêm"
            }
        ]
    },
    {
        "name": "Thị Fi Cafe",
        "latitude": 10.76942,
        "longitude": 106.6979,
        "address": "Thị Fi Cafe, Đường Lê Thị Hồng Gấm, Phường Nguyễn Thái Bình, Quận 1, Hồ Chí Minh, Việt Nam",
        "country_code": "VNM",
        "country_name": "Việt Nam",
        "city": "Hồ Chí Minh",
        "district": "Quận 1",
        "ward": "Phường Nguyễn Thái Bình",
        "street": "Đường Lê Thị Hồng Gấm",
        "postal_code": "71010",
        "categories": [
            {
                "name": "Nhà hát, Âm nhạc & Văn hóa"
            }
        ]
    },
    {
        "name": "Hội Trường A116 ĐH Kinh Tế",
        "latitude": 10.78314,
        "longitude": 106.69482,
        "address": "Hội Trường A116 ĐH Kinh Tế, Đường Nguyễn Đình Chiểu, Phường Võ Thị Sáu, Quận 3, Hồ Chí Minh, Việt Nam",
        "country_code": "VNM",
        "country_name": "Việt Nam",
        "city": "Hồ Chí Minh",
        "district": "Quận 3",
        "ward": "Phường Võ Thị Sáu",
        "street": "Đường Nguyễn Đình Chiểu",
        "postal_code": "72415",
        "categories": [
            {
                "name": "Nhà hát, Âm nhạc & Văn hóa"
            }
        ]
    },
    {
        "name": "Trạm Xe Bus Bến Thành",
        "latitude": 10.7748,
        "longitude": 106.69337,
        "address": "Trạm Xe Bus Bến Thành, Đường Trương Định, Phường Bến Thành, Quận 1, Hồ Chí Minh, Việt Nam",
        "country_code": "VNM",
        "country_name": "Việt Nam",
        "city": "Hồ Chí Minh",
        "district": "Quận 1",
        "ward": "Phường Bến Thành",
        "street": "Đường Trương Định",
        "postal_code": "71009",
        "categories": [
            {
                "name": "Nhà hát, Âm nhạc & Văn hóa"
            }
        ]
    },
    {
        "name": "Nhạc Viện Thành Phố",
        "latitude": 10.77537,
        "longitude": 106.6927,
        "address": "Nhạc Viện Thành Phố, Đường Trương Định, Phường Bến Thành, Quận 1, Hồ Chí Minh, Việt Nam",
        "country_code": "VNM",
        "country_name": "Việt Nam",
        "city": "Hồ Chí Minh",
        "district": "Quận 1",
        "ward": "Phường Bến Thành",
        "street": "Đường Trương Định",
        "postal_code": "71009",
        "categories": [
            {
                "name": "Nhà hát, Âm nhạc & Văn hóa"
            }
        ]
    },
    {
        "name": "Saigon Water Puppet Theatre",
        "latitude": 10.78765,
        "longitude": 106.70454,
        "address": "Saigon Water Puppet Theatre, Đường Nguyễn Bỉnh Khiêm, Phường Bến Nghé, Quận 1, Hồ Chí Minh, Việt Nam",
        "country_code": "VNM",
        "country_name": "Việt Nam",
        "city": "Hồ Chí Minh",
        "district": "Quận 1",
        "ward": "Phường Bến Nghé",
        "street": "Đường Nguyễn Bỉnh Khiêm",
        "postal_code": "71006",
        "categories": [
            {
                "name": "Nhà hát, Âm nhạc & Văn hóa"
            }
        ]
    },
    {
        "name": "Nhà Hát Múa Rối Nước Rồng Vàng",
        "latitude": 10.77677,
        "longitude": 106.69242,
        "address": "Nhà Hát Múa Rối Nước Rồng Vàng, 55B Đường Nguyễn Thị Minh Khai, Phường Bến Thành, Quận 1, Hồ Chí Minh, Việt Nam",
        "country_code": "VNM",
        "country_name": "Việt Nam",
        "city": "Hồ Chí Minh",
        "district": "Quận 1",
        "ward": "Phường Bến Thành",
        "street": "Đường Nguyễn Thị Minh Khai",
        "postal_code": "71009",
        "categories": [
            {
                "name": "Trung tâm biểu diễn nghệ thuật"
            },
            {
                "name": "Nhà hàng"
            },
            {
                "name": "Giải trí về đêm"
            },
            {
                "name": "Nhà hát, Âm nhạc & Văn hóa"
            }
        ]
    },
    {
        "name": "Vietnamese Water Puppet Show",
        "latitude": 10.78775,
        "longitude": 106.70433,
        "address": "Vietnamese Water Puppet Show, Đường Nguyễn Bỉnh Khiêm, Phường Bến Nghé, Quận 1, Hồ Chí Minh, Việt Nam",
        "country_code": "VNM",
        "country_name": "Việt Nam",
        "city": "Hồ Chí Minh",
        "district": "Quận 1",
        "ward": "Phường Bến Nghé",
        "street": "Đường Nguyễn Bỉnh Khiêm",
        "postal_code": "71006",
        "categories": [
            {
                "name": "Nhà hát, Âm nhạc & Văn hóa"
            }
        ]
    },
    {
        "name": "Water Puppet Show at Thao Dien Village",
        "latitude": 10.77624,
        "longitude": 106.69238,
        "address": "Water Puppet Show at Thao Dien Village, Đường Nguyễn Thị Minh Khai, Phường Bến Thành, Quận 1, Hồ Chí Minh, Việt Nam",
        "country_code": "VNM",
        "country_name": "Việt Nam",
        "city": "Hồ Chí Minh",
        "district": "Quận 1",
        "ward": "Phường Bến Thành",
        "street": "Đường Nguyễn Thị Minh Khai",
        "postal_code": "71009",
        "categories": [
            {
                "name": "Nhà hát, Âm nhạc & Văn hóa"
            }
        ]
    },
    {
        "name": "Nhà Hát Múa Rối Nước Rồng Việt",
        "latitude": 10.77642,
        "longitude": 106.69223,
        "address": "Nhà Hát Múa Rối Nước Rồng Việt, Đường Nguyễn Thị Minh Khai, Phường Bến Thành, Quận 1, Hồ Chí Minh, Việt Nam",
        "country_code": "VNM",
        "country_name": "Việt Nam",
        "city": "Hồ Chí Minh",
        "district": "Quận 1",
        "ward": "Phường Bến Thành",
        "street": "Đường Nguyễn Thị Minh Khai",
        "postal_code": "71009",
        "categories": [
            {
                "name": "Nhà hát, Âm nhạc & Văn hóa"
            }
        ]
    },
    {
        "name": "Amway - Forever And A Day Meeting",
        "latitude": 10.78092,
        "longitude": 106.69237,
        "address": "Amway - Forever And A Day Meeting, Đường Nguyễn Đình Chiểu, Phường Võ Thị Sáu, Quận 3, Hồ Chí Minh, Việt Nam",
        "country_code": "VNM",
        "country_name": "Việt Nam",
        "city": "Hồ Chí Minh",
        "district": "Quận 3",
        "ward": "Phường Võ Thị Sáu",
        "street": "Đường Nguyễn Đình Chiểu",
        "postal_code": "72415",
        "categories": [
            {
                "name": "Nhà hát, Âm nhạc & Văn hóa"
            }
        ]
    },
    {
        "name": "Music Training Studio",
        "latitude": 10.78838,
        "longitude": 106.70298,
        "address": "Music Training Studio, Hẻm 10 Nguyễn Thị Minh Khai, Phường Đa Kao, Quận 1, Hồ Chí Minh, Việt Nam",
        "country_code": "VNM",
        "country_name": "Việt Nam",
        "city": "Hồ Chí Minh",
        "district": "Quận 1",
        "ward": "Phường Đa Kao",
        "street": "Hẻm 10 Nguyễn Thị Minh Khai",
        "postal_code": "71007",
        "categories": [
            {
                "name": "Nhà hát, Âm nhạc & Văn hóa"
            }
        ]
    },
    {
        "name": "Mua Roi Nuoc",
        "latitude": 10.78855,
        "longitude": 106.70337,
        "address": "Mua Roi Nuoc, Đường Nguyễn Bỉnh Khiêm, Phường Đa Kao, Quận 1, Hồ Chí Minh, Việt Nam",
        "country_code": "VNM",
        "country_name": "Việt Nam",
        "city": "Hồ Chí Minh",
        "district": "Quận 1",
        "ward": "Phường Đa Kao",
        "street": "Đường Nguyễn Bỉnh Khiêm",
        "postal_code": "71007",
        "categories": [
            {
                "name": "Nhà hát, Âm nhạc & Văn hóa"
            }
        ]
    },
    {
        "name": "Random Concert Hall",
        "latitude": 10.77035,
        "longitude": 106.69425,
        "address": "Random Concert Hall, Đường Lê Lai, Phường Bến Thành, Quận 1, Hồ Chí Minh, Việt Nam",
        "country_code": "VNM",
        "country_name": "Việt Nam",
        "city": "Hồ Chí Minh",
        "district": "Quận 1",
        "ward": "Phường Bến Thành",
        "street": "Đường Lê Lai",
        "postal_code": "71009",
        "categories": [
            {
                "name": "Nhà hát, Âm nhạc & Văn hóa"
            }
        ]
    },
    {
        "name": "Random Music",
        "latitude": 10.77042,
        "longitude": 106.69415,
        "address": "Random Music, Đường Lê Lai, Phường Bến Thành, Quận 1, Hồ Chí Minh, Việt Nam",
        "country_code": "VNM",
        "country_name": "Việt Nam",
        "city": "Hồ Chí Minh",
        "district": "Quận 1",
        "ward": "Phường Bến Thành",
        "street": "Đường Lê Lai",
        "postal_code": "71009",
        "categories": [
            {
                "name": "Nhà hát, Âm nhạc & Văn hóa"
            }
        ]
    },
    {
        "name": "Tigi Backstage Dfs",
        "latitude": 10.77267,
        "longitude": 106.69215,
        "address": "Tigi Backstage Dfs, Đường Cách Mạng Tháng 8, Phường Bến Thành, Quận 1, Hồ Chí Minh, Việt Nam",
        "country_code": "VNM",
        "country_name": "Việt Nam",
        "city": "Hồ Chí Minh",
        "district": "Quận 1",
        "ward": "Phường Bến Thành",
        "street": "Đường Cách Mạng Tháng 8",
        "postal_code": "71009",
        "categories": [
            {
                "name": "Nhà hát, Âm nhạc & Văn hóa"
            }
        ]
    },
    {
        "name": "Sân Khấu Ca Nhạc Trống Đồng",
        "latitude": 10.7722,
        "longitude": 106.69232,
        "address": "Sân Khấu Ca Nhạc Trống Đồng, 12B Đường Cách Mạng Tháng 8, Phường Bến Thành, Quận 1, Hồ Chí Minh, Việt Nam",
        "country_code": "VNM",
        "country_name": "Việt Nam",
        "city": "Hồ Chí Minh",
        "district": "Quận 1",
        "ward": "Phường Bến Thành",
        "street": "Đường Cách Mạng Tháng 8",
        "postal_code": "71009",
        "categories": [
            {
                "name": "Trung tâm biểu diễn nghệ thuật"
            },
            {
                "name": "Giải trí về đêm"
            },
            {
                "name": "Giải trí hoặc âm nhạc sống"
            },
            {
                "name": "Rạp chiếu phim"
            },
            {
                "name": "Nhà hát, Âm nhạc & Văn hóa"
            }
        ]
    },
    {
        "name": "Thư Viện Sách Nói Dành Cho Người Mù",
        "latitude": 10.78883,
        "longitude": 106.69924,
        "address": "Thư Viện Sách Nói Dành Cho Người Mù, Hẻm 24 Đinh Tiên Hoàng, Phường Đa Kao, Quận 1, Hồ Chí Minh, Việt Nam",
        "country_code": "VNM",
        "country_name": "Việt Nam",
        "city": "Hồ Chí Minh",
        "district": "Quận 1",
        "ward": "Phường Đa Kao",
        "street": "Hẻm 24 Đinh Tiên Hoàng",
        "postal_code": "71007",
        "categories": [
            {
                "name": "Nhà hát, Âm nhạc & Văn hóa"
            }
        ]
    },
    {
        "name": "Liên Hiệp Các Hội VH NT TP.HCM",
        "latitude": 10.77925,
        "longitude": 106.69071,
        "address": "Liên Hiệp Các Hội VH NT TP.HCM, 6 Đường Trần Quốc Thảo, Phường Võ Thị Sáu, Quận 3, Hồ Chí Minh, Việt Nam",
        "country_code": "VNM",
        "country_name": "Việt Nam",
        "city": "Hồ Chí Minh",
        "district": "Quận 3",
        "ward": "Phường Võ Thị Sáu",
        "street": "Đường Trần Quốc Thảo",
        "postal_code": "72415",
        "categories": [
            {
                "name": "Nhà hát, Âm nhạc & Văn hóa"
            }
        ]
    },
    {
        "name": "Mr. Siro",
        "latitude": 10.76821,
        "longitude": 106.69451,
        "address": "Mr. Siro, Hẻm 28 Đường Bùi Viện, Phường Phạm Ngũ Lão, Quận 1, Hồ Chí Minh, Việt Nam",
        "country_code": "VNM",
        "country_name": "Việt Nam",
        "city": "Hồ Chí Minh",
        "district": "Quận 1",
        "ward": "Phường Phạm Ngũ Lão",
        "street": "Hẻm 28 Đường Bùi Viện",
        "postal_code": "71012",
        "categories": [
            {
                "name": "Nhà hát, Âm nhạc & Văn hóa"
            }
        ]
    },
    {
        "name": "Trịnh Thăng Bình - Story Of Emotion",
        "latitude": 10.76817,
        "longitude": 106.69432,
        "address": "Trịnh Thăng Bình - Story Of Emotion, Hẻm 28 Đường Bùi Viện, Phường Phạm Ngũ Lão, Quận 1, Hồ Chí Minh, Việt Nam",
        "country_code": "VNM",
        "country_name": "Việt Nam",
        "city": "Hồ Chí Minh",
        "district": "Quận 1",
        "ward": "Phường Phạm Ngũ Lão",
        "street": "Hẻm 28 Đường Bùi Viện",
        "postal_code": "71012",
        "categories": [
            {
                "name": "Nhà hát, Âm nhạc & Văn hóa"
            }
        ]
    },
    {
        "name": "Unicharm Vietnam",
        "latitude": 10.77092,
        "longitude": 106.69177,
        "address": "Unicharm Vietnam, Đường Nguyễn Văn Tráng, Phường Bến Thành, Quận 1, Hồ Chí Minh, Việt Nam",
        "country_code": "VNM",
        "country_name": "Việt Nam",
        "city": "Hồ Chí Minh",
        "district": "Quận 1",
        "ward": "Phường Bến Thành",
        "street": "Đường Nguyễn Văn Tráng",
        "postal_code": "71009",
        "categories": [
            {
                "name": "Nhà hát, Âm nhạc & Văn hóa"
            }
        ]
    },
    {
        "name": "Water Puppetry",
        "latitude": 10.76967,
        "longitude": 106.69261,
        "address": "Water Puppetry, 1 Đường Nguyễn Văn Tráng, Phường Bến Thành, Quận 1, Hồ Chí Minh, Việt Nam",
        "country_code": "VNM",
        "country_name": "Việt Nam",
        "city": "Hồ Chí Minh",
        "district": "Quận 1",
        "ward": "Phường Bến Thành",
        "street": "Đường Nguyễn Văn Tráng",
        "postal_code": "71009",
        "categories": [
            {
                "name": "Nhà hát, Âm nhạc & Văn hóa"
            }
        ]
    },
    {
        "name": "Lớp Thanh Nhac Raise Your Voice Up",
        "latitude": 10.77151,
        "longitude": 106.69128,
        "address": "Lớp Thanh Nhac Raise Your Voice Up, 74/2 Đường Lê Thị Riêng, Phường Bến Thành, Quận 1, Hồ Chí Minh, Việt Nam",
        "country_code": "VNM",
        "country_name": "Việt Nam",
        "city": "Hồ Chí Minh",
        "district": "Quận 1",
        "ward": "Phường Bến Thành",
        "street": "Đường Lê Thị Riêng",
        "postal_code": "71009",
        "categories": [
            {
                "name": "Nhà hát, Âm nhạc & Văn hóa"
            },
            {
                "name": "Cơ sở giáo dục"
            }
        ]
    },
    {
        "name": "Anh Văn Hội Việt Mỹ",
        "latitude": 10.78925,
        "longitude": 106.69693,
        "address": "Anh Văn Hội Việt Mỹ, Đường Nguyễn Thành Ý, Phường Đa Kao, Quận 1, Hồ Chí Minh, Việt Nam",
        "country_code": "VNM",
        "country_name": "Việt Nam",
        "city": "Hồ Chí Minh",
        "district": "Quận 1",
        "ward": "Phường Đa Kao",
        "street": "Đường Nguyễn Thành Ý",
        "postal_code": "71007",
        "categories": [
            {
                "name": "Nhà hát, Âm nhạc & Văn hóa"
            }
        ]
    },
    {
        "name": "Rạp Công Nhân Trần Hưng Đạo Quận 1",
        "latitude": 10.76733,
        "longitude": 106.69459,
        "address": "Rạp Công Nhân Trần Hưng Đạo Quận 1, 30 Đường Trần Hưng Đạo, Phường Phạm Ngũ Lão, Quận 1, Hồ Chí Minh, Việt Nam",
        "country_code": "VNM",
        "country_name": "Việt Nam",
        "city": "Hồ Chí Minh",
        "district": "Quận 1",
        "ward": "Phường Phạm Ngũ Lão",
        "street": "Đường Trần Hưng Đạo",
        "postal_code": "71012",
        "categories": [
            {
                "name": "Nhà hát, Âm nhạc & Văn hóa"
            },
            {
                "name": "Giải trí hoặc âm nhạc sống"
            },
            {
                "name": "Rạp chiếu phim"
            }
        ]
    },
    {
        "name": "Nhà Hát Kịch Thành Phố",
        "latitude": 10.76733,
        "longitude": 106.69459,
        "address": "Nhà Hát Kịch Thành Phố, 30 Đường Trần Hưng Đạo, Phường Phạm Ngũ Lão, Quận 1, Hồ Chí Minh, Việt Nam",
        "country_code": "VNM",
        "country_name": "Việt Nam",
        "city": "Hồ Chí Minh",
        "district": "Quận 1",
        "ward": "Phường Phạm Ngũ Lão",
        "street": "Đường Trần Hưng Đạo",
        "postal_code": "71012",
        "categories": [
            {
                "name": "Trung tâm biểu diễn nghệ thuật"
            },
            {
                "name": "Giải trí về đêm"
            },
            {
                "name": "Giải trí hoặc âm nhạc sống"
            },
            {
                "name": "Rạp chiếu phim"
            },
            {
                "name": "Nhà hát, Âm nhạc & Văn hóa"
            }
        ]
    },
    {
        "name": "Blue Wave Karaoke",
        "latitude": 10.77682,
        "longitude": 106.6894,
        "address": "Blue Wave Karaoke, Đường Nguyễn Thị Diệu, Phường Võ Thị Sáu, Quận 3, Hồ Chí Minh, Việt Nam",
        "country_code": "VNM",
        "country_name": "Việt Nam",
        "city": "Hồ Chí Minh",
        "district": "Quận 3",
        "ward": "Phường Võ Thị Sáu",
        "street": "Đường Nguyễn Thị Diệu",
        "postal_code": "72415",
        "categories": [
            {
                "name": "Nhà hát, Âm nhạc & Văn hóa"
            }
        ]
    },
    {
        "name": "Trung Tam Van Hoa Thanh Pho",
        "latitude": 10.77292,
        "longitude": 106.69019,
        "address": "Trung Tam Van Hoa Thanh Pho, Đường Sương Nguyệt Anh, Phường Bến Thành, Quận 1, Hồ Chí Minh, Việt Nam",
        "country_code": "VNM",
        "country_name": "Việt Nam",
        "city": "Hồ Chí Minh",
        "district": "Quận 1",
        "ward": "Phường Bến Thành",
        "street": "Đường Sương Nguyệt Anh",
        "postal_code": "71009",
        "categories": [
            {
                "name": "Nhà hát, Âm nhạc & Văn hóa"
            }
        ]
    },
    {
        "name": "Việt Nhạc Music Center",
        "latitude": 10.7897,
        "longitude": 106.69659,
        "address": "Việt Nhạc Music Center, 112 Đường Điện Biên Phủ, Phường Đa Kao, Quận 1, Hồ Chí Minh, Việt Nam",
        "country_code": "VNM",
        "country_name": "Việt Nam",
        "city": "Hồ Chí Minh",
        "district": "Quận 1",
        "ward": "Phường Đa Kao",
        "street": "Đường Điện Biên Phủ",
        "postal_code": "71007",
        "categories": [
            {
                "name": "Nhà hát, Âm nhạc & Văn hóa"
            },
            {
                "name": "Bán Vinyl, CD và Video"
            },
            {
                "name": "Cơ sở giáo dục"
            }
        ]
    },
    {
        "name": "Fb Studio",
        "latitude": 10.79135,
        "longitude": 106.70459,
        "address": "Fb Studio, Đường Nguyễn Đình Chiểu, Phường Đa Kao, Quận 1, Hồ Chí Minh, Việt Nam",
        "country_code": "VNM",
        "country_name": "Việt Nam",
        "city": "Hồ Chí Minh",
        "district": "Quận 1",
        "ward": "Phường Đa Kao",
        "street": "Đường Nguyễn Đình Chiểu",
        "postal_code": "71007",
        "categories": [
            {
                "name": "Nhà hát, Âm nhạc & Văn hóa"
            }
        ]
    },
    {
        "name": "Sân Khấu Kịch Minh Nhí",
        "latitude": 10.79145,
        "longitude": 106.70158,
        "address": "Sân Khấu Kịch Minh Nhí, Hẻm 26 Nguyễn Bỉnh Khiêm, Phường Đa Kao, Quận 1, Hồ Chí Minh, Việt Nam",
        "country_code": "VNM",
        "country_name": "Việt Nam",
        "city": "Hồ Chí Minh",
        "district": "Quận 1",
        "ward": "Phường Đa Kao",
        "street": "Hẻm 26 Nguyễn Bỉnh Khiêm",
        "postal_code": "71007",
        "categories": [
            {
                "name": "Nhà hát, Âm nhạc & Văn hóa"
            },
            {
                "name": "Giải trí hoặc âm nhạc sống"
            }
        ]
    },
    {
        "name": "Happyland",
        "latitude": 10.77303,
        "longitude": 106.68919,
        "address": "Happyland, 67 Đường Nguyễn Thị Minh Khai, Phường Bến Thành, Quận 1, Hồ Chí Minh, Việt Nam",
        "country_code": "VNM",
        "country_name": "Việt Nam",
        "city": "Hồ Chí Minh",
        "district": "Quận 1",
        "ward": "Phường Bến Thành",
        "street": "Đường Nguyễn Thị Minh Khai",
        "postal_code": "71009",
        "categories": [
            {
                "name": "Nhà hát, Âm nhạc & Văn hóa"
            },
            {
                "name": "Dịch vụ cho thuê căn hộ"
            }
        ]
    },
    {
        "name": "Gem Center",
        "latitude": 10.79162,
        "longitude": 106.70042,
        "address": "Gem Center, Đường Nguyễn Bỉnh Khiêm, Phường Đa Kao, Quận 1, Hồ Chí Minh, Việt Nam",
        "country_code": "VNM",
        "country_name": "Việt Nam",
        "city": "Hồ Chí Minh",
        "district": "Quận 1",
        "ward": "Phường Đa Kao",
        "street": "Đường Nguyễn Bỉnh Khiêm",
        "postal_code": "71007",
        "categories": [
            {
                "name": "Nhà hát, Âm nhạc & Văn hóa"
            },
            {
                "name": "Nhà hàng"
            }
        ]
    },
    {
        "name": "M & Tôi",
        "latitude": 10.78697,
        "longitude": 106.69158,
        "address": "M & Tôi, 28 Đường Phạm Ngọc Thạch, Phường Võ Thị Sáu, Quận 3, Hồ Chí Minh, Việt Nam",
        "country_code": "VNM",
        "country_name": "Việt Nam",
        "city": "Hồ Chí Minh",
        "district": "Quận 3",
        "ward": "Phường Võ Thị Sáu",
        "street": "Đường Phạm Ngọc Thạch",
        "postal_code": "72415",
        "categories": [
            {
                "name": "Nhà hát, Âm nhạc & Văn hóa"
            },
            {
                "name": "Giải trí về đêm"
            }
        ]
    },
    {
        "name": "Ngày Hội Du Lịch 2013",
        "latitude": 10.7691,
        "longitude": 106.69065,
        "address": "Ngày Hội Du Lịch 2013, Đường Lê Lai, Phường Bến Thành, Quận 1, Hồ Chí Minh, Việt Nam",
        "country_code": "VNM",
        "country_name": "Việt Nam",
        "city": "Hồ Chí Minh",
        "district": "Quận 1",
        "ward": "Phường Bến Thành",
        "street": "Đường Lê Lai",
        "postal_code": "71009",
        "categories": [
            {
                "name": "Nhà hát, Âm nhạc & Văn hóa"
            }
        ]
    },
    {
        "name": "Dạ Tiệc Âm Nhạc",
        "latitude": 10.77418,
        "longitude": 106.68825,
        "address": "Dạ Tiệc Âm Nhạc, Đường Cách Mạng Tháng 8, Phường 5, Quận 3, Hồ Chí Minh, Việt Nam",
        "country_code": "VNM",
        "country_name": "Việt Nam",
        "city": "Hồ Chí Minh",
        "district": "Quận 3",
        "ward": "Phường 5",
        "street": "Đường Cách Mạng Tháng 8",
        "postal_code": "72406",
        "categories": [
            {
                "name": "Nhà hát, Âm nhạc & Văn hóa"
            }
        ]
    },
    {
        "name": "Music Doctor Studio 2",
        "latitude": 10.76916,
        "longitude": 106.6903,
        "address": "Music Doctor Studio 2, 139D Đường Nguyễn Trãi, Phường Bến Thành, Quận 1, Hồ Chí Minh, Việt Nam",
        "country_code": "VNM",
        "country_name": "Việt Nam",
        "city": "Hồ Chí Minh",
        "district": "Quận 1",
        "ward": "Phường Bến Thành",
        "street": "Đường Nguyễn Trãi",
        "postal_code": "71009",
        "categories": [
            {
                "name": "Nhà hát, Âm nhạc & Văn hóa"
            }
        ]
    },
    {
        "name": "Giáo Dục Anh Văn Hội Việt Mỹ",
        "latitude": 10.78909,
        "longitude": 106.69308,
        "address": "Giáo Dục Anh Văn Hội Việt Mỹ, 72BIS Đường Võ Thị Sáu, Phường Tân Định, Quận 1, Hồ Chí Minh, Việt Nam",
        "country_code": "VNM",
        "country_name": "Việt Nam",
        "city": "Hồ Chí Minh",
        "district": "Quận 1",
        "ward": "Phường Tân Định",
        "street": "Đường Võ Thị Sáu",
        "postal_code": "71008",
        "categories": [
            {
                "name": "Nhà hát, Âm nhạc & Văn hóa"
            }
        ]
    },
    {
        "name": "Mây Saigon Live Stage",
        "latitude": 10.77205,
        "longitude": 106.68824,
        "address": "Mây Saigon Live Stage, 99 Hẻm 382 Nguyễn Thị Minh Khai, Phường Bến Thành, Quận 1, Hồ Chí Minh, Việt Nam",
        "country_code": "VNM",
        "country_name": "Việt Nam",
        "city": "Hồ Chí Minh",
        "district": "Quận 1",
        "ward": "Phường Bến Thành",
        "street": "Hẻm 382 Nguyễn Thị Minh Khai",
        "postal_code": "71009",
        "categories": [
            {
                "name": "Nhà hát, Âm nhạc & Văn hóa"
            },
            {
                "name": "Giải trí về đêm"
            }
        ]
    },
    {
        "name": "Trucmai Music House",
        "latitude": 10.79004,
        "longitude": 106.71217,
        "address": "Trucmai Music House, 104 Hẻm 2/18 Đường Phạm Viết Chánh, Phường 19, Quận Bình Thạnh, Hồ Chí Minh, Việt Nam",
        "country_code": "VNM",
        "country_name": "Việt Nam",
        "city": "Hồ Chí Minh",
        "district": "Quận Bình Thạnh",
        "ward": "Phường 19",
        "street": "Hẻm 2/18 Đường Phạm Viết Chánh",
        "postal_code": "72323",
        "categories": [
            {
                "name": "Nhà hát, Âm nhạc & Văn hóa"
            },
            {
                "name": "Vui chơi & Giải trí"
            }
        ]
    },
    {
        "name": "Sân Khấu Kịch Hoàng Thái Thanh",
        "latitude": 10.78359,
        "longitude": 106.68819,
        "address": "Sân Khấu Kịch Hoàng Thái Thanh, Đường Lê Quý Đôn, Phường Võ Thị Sáu, Quận 3, Hồ Chí Minh, Việt Nam",
        "country_code": "VNM",
        "country_name": "Việt Nam",
        "city": "Hồ Chí Minh",
        "district": "Quận 3",
        "ward": "Phường Võ Thị Sáu",
        "street": "Đường Lê Quý Đôn",
        "postal_code": "72415",
        "categories": [
            {
                "name": "Trung tâm biểu diễn nghệ thuật"
            },
            {
                "name": "Nhà hát, Âm nhạc & Văn hóa"
            }
        ]
    },
    {
        "name": "Nhà Hát Cải Lương Trần Hữu Trang",
        "latitude": 10.76508,
        "longitude": 106.69251,
        "address": "Nhà Hát Cải Lương Trần Hữu Trang, 136 Hẻm 120/3 Đường Trần Hưng Đạo, Phường Phạm Ngũ Lão, Quận 1, Hồ Chí Minh, Việt Nam",
        "country_code": "VNM",
        "country_name": "Việt Nam",
        "city": "Hồ Chí Minh",
        "district": "Quận 1",
        "ward": "Phường Phạm Ngũ Lão",
        "street": "Hẻm 120/3 Đường Trần Hưng Đạo",
        "postal_code": "71012",
        "categories": [
            {
                "name": "Nhà hát, Âm nhạc & Văn hóa"
            },
            {
                "name": "Giải trí về đêm"
            },
            {
                "name": "Trung tâm biểu diễn nghệ thuật"
            }
        ]
    },
    {
        "name": "Guitar Class: >",
        "latitude": 10.79053,
        "longitude": 106.69264,
        "address": "Guitar Class: >, Đường Thạch Thị Thanh, Phường Tân Định, Quận 1, Hồ Chí Minh, Việt Nam",
        "country_code": "VNM",
        "country_name": "Việt Nam",
        "city": "Hồ Chí Minh",
        "district": "Quận 1",
        "ward": "Phường Tân Định",
        "street": "Đường Thạch Thị Thanh",
        "postal_code": "71008",
        "categories": [
            {
                "name": "Nhà hát, Âm nhạc & Văn hóa"
            }
        ]
    },
    {
        "name": "Anh Văn Hội Việt Mỹ",
        "latitude": 10.77161,
        "longitude": 106.68723,
        "address": "Anh Văn Hội Việt Mỹ, Đường Nguyễn Thị Minh Khai, Phường 5, Quận 3, Hồ Chí Minh, Việt Nam",
        "country_code": "VNM",
        "country_name": "Việt Nam",
        "city": "Hồ Chí Minh",
        "district": "Quận 3",
        "ward": "Phường 5",
        "street": "Đường Nguyễn Thị Minh Khai",
        "postal_code": "72406",
        "categories": [
            {
                "name": "Nhà hát, Âm nhạc & Văn hóa"
            }
        ]
    },
    {
        "name": "Smartpro It Training Center",
        "latitude": 10.78082,
        "longitude": 106.68597,
        "address": "Smartpro It Training Center, 123 Đường Trương Định, Phường Võ Thị Sáu, Quận 3, Hồ Chí Minh, Việt Nam",
        "country_code": "VNM",
        "country_name": "Việt Nam",
        "city": "Hồ Chí Minh",
        "district": "Quận 3",
        "ward": "Phường Võ Thị Sáu",
        "street": "Đường Trương Định",
        "postal_code": "72415",
        "categories": [
            {
                "name": "Nhà hát, Âm nhạc & Văn hóa"
            }
        ]
    },
    {
        "name": "Nhà Truyền Thống Sân Khấu",
        "latitude": 10.76338,
        "longitude": 106.69315,
        "address": "Nhà Truyền Thống Sân Khấu, 133 Đường Cô Bắc, Phường Cô Giang, Quận 1, Hồ Chí Minh, Việt Nam",
        "country_code": "VNM",
        "country_name": "Việt Nam",
        "city": "Hồ Chí Minh",
        "district": "Quận 1",
        "ward": "Phường Cô Giang",
        "street": "Đường Cô Bắc",
        "postal_code": "71013",
        "categories": [
            {
                "name": "Nhà hát, Âm nhạc & Văn hóa"
            }
        ]
    },
    {
        "name": "Phòng Trà Ân NAM52 Trương Định TP. Hồ Chí Minh",
        "latitude": 10.78122,
        "longitude": 106.6857,
        "address": "Phòng Trà Ân NAM52 Trương Định TP. Hồ Chí Minh, 52 Đường Trương Định, Phường Võ Thị Sáu, Quận 3, Hồ Chí Minh, Việt Nam",
        "country_code": "VNM",
        "country_name": "Việt Nam",
        "city": "Hồ Chí Minh",
        "district": "Quận 3",
        "ward": "Phường Võ Thị Sáu",
        "street": "Đường Trương Định",
        "postal_code": "72415",
        "categories": [
            {
                "name": "Nhà hát, Âm nhạc & Văn hóa"
            },
            {
                "name": "Câu lạc bộ jazz"
            }
        ]
    },
    {
        "name": "Phòng Vé Nhà Hát Thế Giới Trẻ",
        "latitude": 10.76587,
        "longitude": 106.68967,
        "address": "Phòng Vé Nhà Hát Thế Giới Trẻ, 125 Đường Cống Quỳnh, Phường Nguyễn Cư Trinh, Quận 1, Hồ Chí Minh, Việt Nam",
        "country_code": "VNM",
        "country_name": "Việt Nam",
        "city": "Hồ Chí Minh",
        "district": "Quận 1",
        "ward": "Phường Nguyễn Cư Trinh",
        "street": "Đường Cống Quỳnh",
        "postal_code": "71014",
        "categories": [
            {
                "name": "Giải trí về đêm"
            },
            {
                "name": "Giải trí hoặc âm nhạc sống"
            },
            {
                "name": "Rạp chiếu phim"
            },
            {
                "name": "Nhà hát, Âm nhạc & Văn hóa"
            },
            {
                "name": "Trung tâm biểu diễn nghệ thuật"
            }
        ]
    },
    {
        "name": "Truong Ngoai Ngu Hubis",
        "latitude": 10.76939,
        "longitude": 106.68704,
        "address": "Truong Ngoai Ngu Hubis, Đường Lương Hữu Khánh, Phường Phạm Ngũ Lão, Quận 1, Hồ Chí Minh, Việt Nam",
        "country_code": "VNM",
        "country_name": "Việt Nam",
        "city": "Hồ Chí Minh",
        "district": "Quận 1",
        "ward": "Phường Phạm Ngũ Lão",
        "street": "Đường Lương Hữu Khánh",
        "postal_code": "71012",
        "categories": [
            {
                "name": "Nhà hát, Âm nhạc & Văn hóa"
            }
        ]
    },
    {
        "name": "The Culturist Hub",
        "latitude": 10.79084,
        "longitude": 106.71494,
        "address": "The Culturist Hub, Đường Ngô Tất Tố, Phường 22, Quận Bình Thạnh, Hồ Chí Minh, Việt Nam",
        "country_code": "VNM",
        "country_name": "Việt Nam",
        "city": "Hồ Chí Minh",
        "district": "Quận Bình Thạnh",
        "ward": "Phường 22",
        "street": "Đường Ngô Tất Tố",
        "postal_code": "72324",
        "categories": [
            {
                "name": "Nhà hát, Âm nhạc & Văn hóa"
            }
        ]
    },
    {
        "name": "Shbi Training Center",
        "latitude": 10.77781,
        "longitude": 106.68459,
        "address": "Shbi Training Center, Đường Nguyễn Thông, Phường Võ Thị Sáu, Quận 3, Hồ Chí Minh, Việt Nam",
        "country_code": "VNM",
        "country_name": "Việt Nam",
        "city": "Hồ Chí Minh",
        "district": "Quận 3",
        "ward": "Phường Võ Thị Sáu",
        "street": "Đường Nguyễn Thông",
        "postal_code": "72415",
        "categories": [
            {
                "name": "Nhà hát, Âm nhạc & Văn hóa"
            }
        ]
    },
    {
        "name": "Petroland Tower",
        "latitude": 10.77185,
        "longitude": 106.72028,
        "address": "Petroland Tower, Đường Mai Chí Thọ, Phường Thủ Thiêm, Thủ Đức, Hồ Chí Minh, Việt Nam",
        "country_code": "VNM",
        "country_name": "Việt Nam",
        "city": "Hồ Chí Minh",
        "district": "Thủ Đức",
        "ward": "Phường Thủ Thiêm",
        "street": "Đường Mai Chí Thọ",
        "postal_code": "71110",
        "categories": [
            {
                "name": "Nhà hát, Âm nhạc & Văn hóa"
            }
        ]
    },
    {
        "name": "Truong Quay S8 - Vtv",
        "latitude": 10.78303,
        "longitude": 106.68512,
        "address": "Truong Quay S8 - Vtv, Hẻm 232 Võ Thị Sáu, Phường Võ Thị Sáu, Quận 3, Hồ Chí Minh, Việt Nam",
        "country_code": "VNM",
        "country_name": "Việt Nam",
        "city": "Hồ Chí Minh",
        "district": "Quận 3",
        "ward": "Phường Võ Thị Sáu",
        "street": "Hẻm 232 Võ Thị Sáu",
        "postal_code": "72415",
        "categories": [
            {
                "name": "Nhà hát, Âm nhạc & Văn hóa"
            }
        ]
    },
    {
        "name": "Bach Piano Class",
        "latitude": 10.78404,
        "longitude": 106.68518,
        "address": "Bach Piano Class, 123 Đường Trần Quốc Thảo, Phường Võ Thị Sáu, Quận 3, Hồ Chí Minh, Việt Nam",
        "country_code": "VNM",
        "country_name": "Việt Nam",
        "city": "Hồ Chí Minh",
        "district": "Quận 3",
        "ward": "Phường Võ Thị Sáu",
        "street": "Đường Trần Quốc Thảo",
        "postal_code": "72415",
        "categories": [
            {
                "name": "Nhà hát, Âm nhạc & Văn hóa"
            }
        ]
    },
    {
        "name": "Lio Club - Tú Xương - BAR/PUB/CLUB - Lozi.VN",
        "latitude": 10.77824,
        "longitude": 106.68389,
        "address": "Lio Club - Tú Xương - BAR/PUB/CLUB - Lozi.VN, 51 Đường Tú Xương, Phường Võ Thị Sáu, Quận 3, Hồ Chí Minh, Việt Nam",
        "country_code": "VNM",
        "country_name": "Việt Nam",
        "city": "Hồ Chí Minh",
        "district": "Quận 3",
        "ward": "Phường Võ Thị Sáu",
        "street": "Đường Tú Xương",
        "postal_code": "72415",
        "categories": [
            {
                "name": "Nhà hát, Âm nhạc & Văn hóa"
            },
            {
                "name": "Bar hoặc Quán rượu"
            }
        ]
    },
    {
        "name": "Rainbow Boys",
        "latitude": 10.79578,
        "longitude": 106.70768,
        "address": "Rainbow Boys, 18 Đường Nguyễn Cửu Vân, Phường 17, Quận Bình Thạnh, Hồ Chí Minh, Việt Nam",
        "country_code": "VNM",
        "country_name": "Việt Nam",
        "city": "Hồ Chí Minh",
        "district": "Quận Bình Thạnh",
        "ward": "Phường 17",
        "street": "Đường Nguyễn Cửu Vân",
        "postal_code": "72321",
        "categories": [
            {
                "name": "Nhà hát, Âm nhạc & Văn hóa"
            }
        ]
    },
    {
        "name": "Sunny Days Music And Arts",
        "latitude": 10.79263,
        "longitude": 106.69074,
        "address": "Sunny Days Music And Arts, Hẻm 7 Đặng Dung, Phường Tân Định, Quận 1, Hồ Chí Minh, Việt Nam",
        "country_code": "VNM",
        "country_name": "Việt Nam",
        "city": "Hồ Chí Minh",
        "district": "Quận 1",
        "ward": "Phường Tân Định",
        "street": "Hẻm 7 Đặng Dung",
        "postal_code": "71008",
        "categories": [
            {
                "name": "Nhà hát, Âm nhạc & Văn hóa"
            },
            {
                "name": "Đào tạo & Phát triển"
            }
        ]
    },
    {
        "name": "Tkd Entertaiment",
        "latitude": 10.79254,
        "longitude": 106.69025,
        "address": "Tkd Entertaiment, Đường Đặng Dung, Phường Tân Định, Quận 1, Hồ Chí Minh, Việt Nam",
        "country_code": "VNM",
        "country_name": "Việt Nam",
        "city": "Hồ Chí Minh",
        "district": "Quận 1",
        "ward": "Phường Tân Định",
        "street": "Đường Đặng Dung",
        "postal_code": "71008",
        "categories": [
            {
                "name": "Nhà hát, Âm nhạc & Văn hóa"
            }
        ]
    },
    {
        "name": "Hat Cung Nhau 126",
        "latitude": 10.77902,
        "longitude": 106.68271,
        "address": "Hat Cung Nhau 126, Đường Nguyễn Thông, Phường Võ Thị Sáu, Quận 3, Hồ Chí Minh, Việt Nam",
        "country_code": "VNM",
        "country_name": "Việt Nam",
        "city": "Hồ Chí Minh",
        "district": "Quận 3",
        "ward": "Phường Võ Thị Sáu",
        "street": "Đường Nguyễn Thông",
        "postal_code": "72415",
        "categories": [
            {
                "name": "Nhà hát, Âm nhạc & Văn hóa"
            }
        ]
    },
    {
        "name": "Karaoke Làn Sóng Xanh",
        "latitude": 10.78279,
        "longitude": 106.68315,
        "address": "Karaoke Làn Sóng Xanh, Đường Trương Định, Phường 9, Quận 3, Hồ Chí Minh, Việt Nam",
        "country_code": "VNM",
        "country_name": "Việt Nam",
        "city": "Hồ Chí Minh",
        "district": "Quận 3",
        "ward": "Phường 9",
        "street": "Đường Trương Định",
        "postal_code": "72414",
        "categories": [
            {
                "name": "Nhà hát, Âm nhạc & Văn hóa"
            },
            {
                "name": "Giải trí về đêm"
            }
        ]
    },
    {
        "name": "The Voice Kid 2013",
        "latitude": 10.78037,
        "longitude": 106.68254,
        "address": "The Voice Kid 2013, 212 Đường Lý Chính Thắng, Phường Võ Thị Sáu, Quận 3, Hồ Chí Minh, Việt Nam",
        "country_code": "VNM",
        "country_name": "Việt Nam",
        "city": "Hồ Chí Minh",
        "district": "Quận 3",
        "ward": "Phường Võ Thị Sáu",
        "street": "Đường Lý Chính Thắng",
        "postal_code": "72415",
        "categories": [
            {
                "name": "Nhà hát, Âm nhạc & Văn hóa"
            }
        ]
    },
    {
        "name": "Nhat Hat Quan Doi",
        "latitude": 10.79715,
        "longitude": 106.70801,
        "address": "Nhat Hat Quan Doi, Hẻm 236/43 Điện Biên Phủ, Phường 17, Quận Bình Thạnh, Hồ Chí Minh, Việt Nam",
        "country_code": "VNM",
        "country_name": "Việt Nam",
        "city": "Hồ Chí Minh",
        "district": "Quận Bình Thạnh",
        "ward": "Phường 17",
        "street": "Hẻm 236/43 Điện Biên Phủ",
        "postal_code": "72321",
        "categories": [
            {
                "name": "Nhà hát, Âm nhạc & Văn hóa"
            }
        ]
    },
    {
        "name": "Rmit Academic Building 2 Auditorium",
        "latitude": 10.75708,
        "longitude": 106.70332,
        "address": "Rmit Academic Building 2 Auditorium, Đường Số 19, Phường 4, Quận 4, Hồ Chí Minh, Việt Nam",
        "country_code": "VNM",
        "country_name": "Việt Nam",
        "city": "Hồ Chí Minh",
        "district": "Quận 4",
        "ward": "Phường 4",
        "street": "Đường Số 19",
        "postal_code": "72813",
        "categories": [
            {
                "name": "Nhà hát, Âm nhạc & Văn hóa"
            }
        ]
    },
    {
        "name": "88 Lounge",
        "latitude": 10.79046,
        "longitude": 106.6864,
        "address": "88 Lounge, Đường Lý Chính Thắng, Phường Võ Thị Sáu, Quận 3, Hồ Chí Minh, Việt Nam",
        "country_code": "VNM",
        "country_name": "Việt Nam",
        "city": "Hồ Chí Minh",
        "district": "Quận 3",
        "ward": "Phường Võ Thị Sáu",
        "street": "Đường Lý Chính Thắng",
        "postal_code": "72415",
        "categories": [
            {
                "name": "Nhà hát, Âm nhạc & Văn hóa"
            }
        ]
    },
    {
        "name": "Ha Noi Va Toi",
        "latitude": 10.77866,
        "longitude": 106.68178,
        "address": "Ha Noi Va Toi, Đường Lý Chính Thắng, Phường Võ Thị Sáu, Quận 3, Hồ Chí Minh, Việt Nam",
        "country_code": "VNM",
        "country_name": "Việt Nam",
        "city": "Hồ Chí Minh",
        "district": "Quận 3",
        "ward": "Phường Võ Thị Sáu",
        "street": "Đường Lý Chính Thắng",
        "postal_code": "72415",
        "categories": [
            {
                "name": "Nhà hát, Âm nhạc & Văn hóa"
            }
        ]
    },
    {
        "name": "PHIMTRUONG91A.Com",
        "latitude": 10.79726,
        "longitude": 106.69571,
        "address": "PHIMTRUONG91A.Com, Hẻm 91 Đinh Tiên Hoàng, Phường 3, Quận Bình Thạnh, Hồ Chí Minh, Việt Nam",
        "country_code": "VNM",
        "country_name": "Việt Nam",
        "city": "Hồ Chí Minh",
        "district": "Quận Bình Thạnh",
        "ward": "Phường 3",
        "street": "Hẻm 91 Đinh Tiên Hoàng",
        "postal_code": "72317",
        "categories": [
            {
                "name": "Nhà hát, Âm nhạc & Văn hóa"
            }
        ]
    },
    {
        "name": "Paloma Lounge & Karaoke",
        "latitude": 10.76506,
        "longitude": 106.68571,
        "address": "Paloma Lounge & Karaoke, Hẻm 212B Nguyễn Trãi, Phường Nguyễn Cư Trinh, Quận 1, Hồ Chí Minh, Việt Nam",
        "country_code": "VNM",
        "country_name": "Việt Nam",
        "city": "Hồ Chí Minh",
        "district": "Quận 1",
        "ward": "Phường Nguyễn Cư Trinh",
        "street": "Hẻm 212B Nguyễn Trãi",
        "postal_code": "71014",
        "categories": [
            {
                "name": "Nhà hát, Âm nhạc & Văn hóa"
            }
        ]
    },
    {
        "name": "Cathay Life Office",
        "latitude": 10.76706,
        "longitude": 106.68433,
        "address": "Cathay Life Office, Đường Phạm Viết Chánh, Phường Nguyễn Cư Trinh, Quận 1, Hồ Chí Minh, Việt Nam",
        "country_code": "VNM",
        "country_name": "Việt Nam",
        "city": "Hồ Chí Minh",
        "district": "Quận 1",
        "ward": "Phường Nguyễn Cư Trinh",
        "street": "Đường Phạm Viết Chánh",
        "postal_code": "71014",
        "categories": [
            {
                "name": "Nhà hát, Âm nhạc & Văn hóa"
            }
        ]
    },
    {
        "name": "À Ố Theater",
        "latitude": 10.75584,
        "longitude": 106.70476,
        "address": "À Ố Theater, Hẻm 118 Vĩnh Hội, Phường 4, Quận 4, Hồ Chí Minh, Việt Nam",
        "country_code": "VNM",
        "country_name": "Việt Nam",
        "city": "Hồ Chí Minh",
        "district": "Quận 4",
        "ward": "Phường 4",
        "street": "Hẻm 118 Vĩnh Hội",
        "postal_code": "72813",
        "categories": [
            {
                "name": "Nhà hát, Âm nhạc & Văn hóa"
            }
        ]
    }
]
