[
    {
        "name": "CGV Parkson Đồng Khởi",
        "latitude": 10.77809,
        "longitude": 106.70214,
        "address": "CGV Parkson Đồng Khởi, 72 Đường Lê Thánh Tôn, Phường Bến Nghé, Quận 1, Hồ Chí Minh, Việt Nam",
        "country_code": "VNM",
        "country_name": "Việt Nam",
        "city": "Hồ Chí Minh",
        "district": "Quận 1",
        "ward": "Phường Bến Nghé",
        "street": "Đường Lê Thánh Tôn",
        "postal_code": "71006",
        "categories": [
            {
                "name": "Rạp chiếu phim"
            },
            {
                "name": "Giải trí về đêm"
            },
            {
                "name": "Thắng cảnh hoặc điểm du lịch"
            }
        ]
    },
    {
        "name": "Sân Khấu Kịch Nụ Cười Mới",
        "latitude": 10.77687,
        "longitude": 106.70217,
        "address": "Sân Khấu Kịch Nụ Cười Mới, 193 Đường Đồng Khởi, Phường Bến Nghé, Quận 1, Hồ Chí Minh, Việt Nam",
        "country_code": "VNM",
        "country_name": "Việt Nam",
        "city": "Hồ Chí Minh",
        "district": "Quận 1",
        "ward": "Phường Bến Nghé",
        "street": "Đường Đồng Khởi",
        "postal_code": "71006",
        "categories": [
            {
                "name": "Rạp chiếu phim"
            }
        ]
    },
    {
        "name": "Cvg Premium & Cozy, Gold Class",
        "latitude": 10.77856,
        "longitude": 106.7024,
        "address": "Cvg Premium & Cozy, Gold Class, Đường Hai Bà Trưng, Phường Bến Nghé, Quận 1, Hồ Chí Minh, Việt Nam",
        "country_code": "VNM",
        "country_name": "Việt Nam",
        "city": "Hồ Chí Minh",
        "district": "Quận 1",
        "ward": "Phường Bến Nghé",
        "street": "Đường Hai Bà Trưng",
        "postal_code": "71006",
        "categories": [
            {
                "name": "Rạp chiếu phim"
            }
        ]
    },
    {
        "name": "Exit Through The Gift Shop",
        "latitude": 10.77769,
        "longitude": 106.70116,
        "address": "Exit Through The Gift Shop, Đường Đồng Khởi, Phường Bến Nghé, Quận 1, Hồ Chí Minh, Việt Nam",
        "country_code": "VNM",
        "country_name": "Việt Nam",
        "city": "Hồ Chí Minh",
        "district": "Quận 1",
        "ward": "Phường Bến Nghé",
        "street": "Đường Đồng Khởi",
        "postal_code": "71006",
        "categories": [
            {
                "name": "Rạp chiếu phim"
            }
        ]
    },
    {
        "name": "Sân Khấu Điện Ảnh Idecaf",
        "latitude": 10.77972,
        "longitude": 106.70387,
        "address": "Sân Khấu Điện Ảnh Idecaf, 28 Đường Lê Thánh Tôn, Phường Bến Nghé, Quận 1, Hồ Chí Minh, Việt Nam",
        "country_code": "VNM",
        "country_name": "Việt Nam",
        "city": "Hồ Chí Minh",
        "district": "Quận 1",
        "ward": "Phường Bến Nghé",
        "street": "Đường Lê Thánh Tôn",
        "postal_code": "71006",
        "categories": [
            {
                "name": "Trung tâm biểu diễn nghệ thuật"
            },
            {
                "name": "Giải trí về đêm"
            },
            {
                "name": "Rạp chiếu phim"
            },
            {
                "name": "Nhà hát, Âm nhạc & Văn hóa"
            }
        ]
    },
    {
        "name": "The Palace On Wheels",
        "latitude": 10.77537,
        "longitude": 106.70501,
        "address": "The Palace On Wheels, Đường Phan Văn Đạt, Phường Bến Nghé, Quận 1, Hồ Chí Minh, Việt Nam",
        "country_code": "VNM",
        "country_name": "Việt Nam",
        "city": "Hồ Chí Minh",
        "district": "Quận 1",
        "ward": "Phường Bến Nghé",
        "street": "Đường Phan Văn Đạt",
        "postal_code": "71006",
        "categories": [
            {
                "name": "Rạp chiếu phim"
            }
        ]
    },
    {
        "name": "Ngõ Nhỏ Cafe & Fafilm Cinema",
        "latitude": 10.77917,
        "longitude": 106.70562,
        "address": "Ngõ Nhỏ Cafe & Fafilm Cinema, Đường Nguyễn Siêu, Phường Bến Nghé, Quận 1, Hồ Chí Minh, Việt Nam",
        "country_code": "VNM",
        "country_name": "Việt Nam",
        "city": "Hồ Chí Minh",
        "district": "Quận 1",
        "ward": "Phường Bến Nghé",
        "street": "Đường Nguyễn Siêu",
        "postal_code": "71006",
        "categories": [
            {
                "name": "Rạp chiếu phim"
            },
            {
                "name": "Nhà hàng"
            },
            {
                "name": "Cà Phê/Trà"
            }
        ]
    },
    {
        "name": "Fafim Hcmc",
        "latitude": 10.77893,
        "longitude": 106.70577,
        "address": "Fafim Hcmc, Đường Nguyễn Siêu, Phường Bến Nghé, Quận 1, Hồ Chí Minh, Việt Nam",
        "country_code": "VNM",
        "country_name": "Việt Nam",
        "city": "Hồ Chí Minh",
        "district": "Quận 1",
        "ward": "Phường Bến Nghé",
        "street": "Đường Nguyễn Siêu",
        "postal_code": "71006",
        "categories": [
            {
                "name": "Rạp chiếu phim"
            }
        ]
    },
    {
        "name": "Rạp Chiếu Phim Fafilm",
        "latitude": 10.77818,
        "longitude": 106.70611,
        "address": "Rạp Chiếu Phim Fafilm, 6 Đường Thái Văn Lung, Phường Bến Nghé, Quận 1, Hồ Chí Minh, Việt Nam",
        "country_code": "VNM",
        "country_name": "Việt Nam",
        "city": "Hồ Chí Minh",
        "district": "Quận 1",
        "ward": "Phường Bến Nghé",
        "street": "Đường Thái Văn Lung",
        "postal_code": "71006",
        "categories": [
            {
                "name": "Rạp chiếu phim"
            }
        ]
    },
    {
        "name": "CGV Liberty Citypoint",
        "latitude": 10.7746,
        "longitude": 106.70081,
        "address": "CGV Liberty Citypoint, Đường Pasteur, Phường Bến Nghé, Quận 1, Hồ Chí Minh, Việt Nam",
        "country_code": "VNM",
        "country_name": "Việt Nam",
        "city": "Hồ Chí Minh",
        "district": "Quận 1",
        "ward": "Phường Bến Nghé",
        "street": "Đường Pasteur",
        "postal_code": "71006",
        "categories": [
            {
                "name": "Rạp chiếu phim"
            }
        ]
    },
    {
        "name": "Cinema 2 Munich",
        "latitude": 10.77293,
        "longitude": 106.70344,
        "address": "Cinema 2 Munich, Đường Hồ Tùng Mậu, Phường Bến Nghé, Quận 1, Hồ Chí Minh, Việt Nam",
        "country_code": "VNM",
        "country_name": "Việt Nam",
        "city": "Hồ Chí Minh",
        "district": "Quận 1",
        "ward": "Phường Bến Nghé",
        "street": "Đường Hồ Tùng Mậu",
        "postal_code": "71006",
        "categories": [
            {
                "name": "Rạp chiếu phim"
            }
        ]
    },
    {
        "name": "Don Chicken Lotte",
        "latitude": 10.78075,
        "longitude": 106.69872,
        "address": "Don Chicken Lotte, Đường Lê Duẩn, Phường Bến Nghé, Quận 1, Hồ Chí Minh, Việt Nam",
        "country_code": "VNM",
        "country_name": "Việt Nam",
        "city": "Hồ Chí Minh",
        "district": "Quận 1",
        "ward": "Phường Bến Nghé",
        "street": "Đường Lê Duẩn",
        "postal_code": "71006",
        "categories": [
            {
                "name": "Rạp chiếu phim"
            },
            {
                "name": "Nhà hàng"
            }
        ]
    },
    {
        "name": "Trung Tâm Văn Hóa Quận 1 - Phòng Chiếu Phim 3D",
        "latitude": 10.78276,
        "longitude": 106.70161,
        "address": "Trung Tâm Văn Hóa Quận 1 - Phòng Chiếu Phim 3D, Đường Mạc Đĩnh Chi, Phường Bến Nghé, Quận 1, Hồ Chí Minh, Việt Nam",
        "country_code": "VNM",
        "country_name": "Việt Nam",
        "city": "Hồ Chí Minh",
        "district": "Quận 1",
        "ward": "Phường Bến Nghé",
        "street": "Đường Mạc Đĩnh Chi",
        "postal_code": "71006",
        "categories": [
            {
                "name": "Rạp chiếu phim"
            }
        ]
    },
    {
        "name": "Bhd Bitexco",
        "latitude": 10.77221,
        "longitude": 106.70422,
        "address": "Bhd Bitexco, Đường Ngô Đức Kế, Phường Bến Nghé, Quận 1, Hồ Chí Minh, Việt Nam",
        "country_code": "VNM",
        "country_name": "Việt Nam",
        "city": "Hồ Chí Minh",
        "district": "Quận 1",
        "ward": "Phường Bến Nghé",
        "street": "Đường Ngô Đức Kế",
        "postal_code": "71006",
        "categories": [
            {
                "name": "Rạp chiếu phim"
            }
        ]
    },
    {
        "name": "Lê Lợi",
        "latitude": 10.77385,
        "longitude": 106.69863,
        "address": "Lê Lợi, 112 Đường Lê Thánh Tôn, Phường Bến Thành, Quận 1, Hồ Chí Minh, Việt Nam",
        "country_code": "VNM",
        "country_name": "Việt Nam",
        "city": "Hồ Chí Minh",
        "district": "Quận 1",
        "ward": "Phường Bến Thành",
        "street": "Đường Lê Thánh Tôn",
        "postal_code": "71009",
        "categories": [
            {
                "name": "Rạp chiếu phim"
            }
        ]
    },
    {
        "name": "Rạp Chiếu Phim Vinh Quang",
        "latitude": 10.77203,
        "longitude": 106.70194,
        "address": "Rạp Chiếu Phim Vinh Quang, Đường Pasteur, Phường Bến Nghé, Quận 1, Hồ Chí Minh, Việt Nam",
        "country_code": "VNM",
        "country_name": "Việt Nam",
        "city": "Hồ Chí Minh",
        "district": "Quận 1",
        "ward": "Phường Bến Nghé",
        "street": "Đường Pasteur",
        "postal_code": "71006",
        "categories": [
            {
                "name": "Rạp chiếu phim"
            },
            {
                "name": "Quần áo nam"
            }
        ]
    },
    {
        "name": "Minh Thuy Media-Film Co. Ltd",
        "latitude": 10.78087,
        "longitude": 106.69785,
        "address": "Minh Thuy Media-Film Co. Ltd, Đường Phạm Ngọc Thạch, Phường Bến Nghé, Quận 1, Hồ Chí Minh, Việt Nam",
        "country_code": "VNM",
        "country_name": "Việt Nam",
        "city": "Hồ Chí Minh",
        "district": "Quận 1",
        "ward": "Phường Bến Nghé",
        "street": "Đường Phạm Ngọc Thạch",
        "postal_code": "71006",
        "categories": [
            {
                "name": "Rạp chiếu phim"
            }
        ]
    },
    {
        "name": "Bê Đee Star Cinema",
        "latitude": 10.77182,
        "longitude": 106.70466,
        "address": "Bê Đee Star Cinema, Đường Hải Triều, Phường Bến Nghé, Quận 1, Hồ Chí Minh, Việt Nam",
        "country_code": "VNM",
        "country_name": "Việt Nam",
        "city": "Hồ Chí Minh",
        "district": "Quận 1",
        "ward": "Phường Bến Nghé",
        "street": "Đường Hải Triều",
        "postal_code": "71006",
        "categories": [
            {
                "name": "Rạp chiếu phim"
            }
        ]
    },
    {
        "name": "Cineplex Bhdvn-Bitexco",
        "latitude": 10.77183,
        "longitude": 106.70475,
        "address": "Cineplex Bhdvn-Bitexco, 3 Đường Hải Triều, Phường Bến Nghé, Quận 1, Hồ Chí Minh, Việt Nam",
        "country_code": "VNM",
        "country_name": "Việt Nam",
        "city": "Hồ Chí Minh",
        "district": "Quận 1",
        "ward": "Phường Bến Nghé",
        "street": "Đường Hải Triều",
        "postal_code": "71006",
        "categories": [
            {
                "name": "Rạp chiếu phim"
            }
        ]
    },
    {
        "name": "Phòng Chiếu Phim Nhà Văn Hóa Thanh Niên",
        "latitude": 10.78116,
        "longitude": 106.69746,
        "address": "Phòng Chiếu Phim Nhà Văn Hóa Thanh Niên, Đường Phạm Ngọc Thạch, Phường Bến Nghé, Quận 1, Hồ Chí Minh, Việt Nam",
        "country_code": "VNM",
        "country_name": "Việt Nam",
        "city": "Hồ Chí Minh",
        "district": "Quận 1",
        "ward": "Phường Bến Nghé",
        "street": "Đường Phạm Ngọc Thạch",
        "postal_code": "71006",
        "categories": [
            {
                "name": "Rạp chiếu phim"
            }
        ]
    },
    {
        "name": "Dcine",
        "latitude": 10.78382,
        "longitude": 106.70063,
        "address": "Dcine, 6 Đường Mạc Đĩnh Chi, Phường Bến Nghé, Quận 1, Hồ Chí Minh, Việt Nam",
        "country_code": "VNM",
        "country_name": "Việt Nam",
        "city": "Hồ Chí Minh",
        "district": "Quận 1",
        "ward": "Phường Bến Nghé",
        "street": "Đường Mạc Đĩnh Chi",
        "postal_code": "71006",
        "categories": [
            {
                "name": "Rạp chiếu phim"
            }
        ]
    },
    {
        "name": "Cinestar Hai Bà Trưng",
        "latitude": 10.78266,
        "longitude": 106.69816,
        "address": "Cinestar Hai Bà Trưng, 135 Đường Hai Bà Trưng, Phường Bến Nghé, Quận 1, Hồ Chí Minh, Việt Nam",
        "country_code": "VNM",
        "country_name": "Việt Nam",
        "city": "Hồ Chí Minh",
        "district": "Quận 1",
        "ward": "Phường Bến Nghé",
        "street": "Đường Hai Bà Trưng",
        "postal_code": "71006",
        "categories": [
            {
                "name": "Rạp chiếu phim"
            },
            {
                "name": "Nhà hàng"
            },
            {
                "name": "Cafeteria"
            },
            {
                "name": "Quán cà phê"
            }
        ]
    },
    {
        "name": "Star Cinema - Movie Release - Entertainment Joint Stock Co",
        "latitude": 10.78266,
        "longitude": 106.69816,
        "address": "Star Cinema - Movie Release - Entertainment Joint Stock Co, 135 Đường Hai Bà Trưng, Phường Bến Nghé, Quận 1, Hồ Chí Minh, Việt Nam",
        "country_code": "VNM",
        "country_name": "Việt Nam",
        "city": "Hồ Chí Minh",
        "district": "Quận 1",
        "ward": "Phường Bến Nghé",
        "street": "Đường Hai Bà Trưng",
        "postal_code": "71006",
        "categories": [
            {
                "name": "Rạp chiếu phim"
            }
        ]
    },
    {
        "name": "Rạp Chiếu Phim Cinestar",
        "latitude": 10.78301,
        "longitude": 106.69808,
        "address": "Rạp Chiếu Phim Cinestar, Đường Hai Bà Trưng, Phường Đa Kao, Quận 1, Hồ Chí Minh, Việt Nam",
        "country_code": "VNM",
        "country_name": "Việt Nam",
        "city": "Hồ Chí Minh",
        "district": "Quận 1",
        "ward": "Phường Đa Kao",
        "street": "Đường Hai Bà Trưng",
        "postal_code": "71007",
        "categories": [
            {
                "name": "Rạp chiếu phim"
            }
        ]
    },
    {
        "name": "Cineb Saigon",
        "latitude": 10.77033,
        "longitude": 106.70081,
        "address": "Cineb Saigon, 1 Đường Lê Công Kiều, Phường Nguyễn Thái Bình, Quận 1, Hồ Chí Minh, Việt Nam",
        "country_code": "VNM",
        "country_name": "Việt Nam",
        "city": "Hồ Chí Minh",
        "district": "Quận 1",
        "ward": "Phường Nguyễn Thái Bình",
        "street": "Đường Lê Công Kiều",
        "postal_code": "71010",
        "categories": [
            {
                "name": "Rạp chiếu phim"
            }
        ]
    },
    {
        "name": "Rạp Chiếu Phim Idecaf Thanh Niên",
        "latitude": 10.78494,
        "longitude": 106.69818,
        "address": "Rạp Chiếu Phim Idecaf Thanh Niên, 7 Đường Trần Cao Vân, Phường Đa Kao, Quận 1, Hồ Chí Minh, Việt Nam",
        "country_code": "VNM",
        "country_name": "Việt Nam",
        "city": "Hồ Chí Minh",
        "district": "Quận 1",
        "ward": "Phường Đa Kao",
        "street": "Đường Trần Cao Vân",
        "postal_code": "71007",
        "categories": [
            {
                "name": "Rạp chiếu phim"
            }
        ]
    },
    {
        "name": "M Studio",
        "latitude": 10.77188,
        "longitude": 106.69513,
        "address": "M Studio, Đường Lê Anh Xuân, Phường Bến Thành, Quận 1, Hồ Chí Minh, Việt Nam",
        "country_code": "VNM",
        "country_name": "Việt Nam",
        "city": "Hồ Chí Minh",
        "district": "Quận 1",
        "ward": "Phường Bến Thành",
        "street": "Đường Lê Anh Xuân",
        "postal_code": "71009",
        "categories": [
            {
                "name": "Rạp chiếu phim"
            }
        ]
    },
    {
        "name": "Rong Yang Theater",
        "latitude": 10.77624,
        "longitude": 106.69238,
        "address": "Rong Yang Theater, Đường Nguyễn Thị Minh Khai, Phường Bến Thành, Quận 1, Hồ Chí Minh, Việt Nam",
        "country_code": "VNM",
        "country_name": "Việt Nam",
        "city": "Hồ Chí Minh",
        "district": "Quận 1",
        "ward": "Phường Bến Thành",
        "street": "Đường Nguyễn Thị Minh Khai",
        "postal_code": "71009",
        "categories": [
            {
                "name": "Rạp chiếu phim"
            }
        ]
    },
    {
        "name": "Fatman Films Vietnam",
        "latitude": 10.78862,
        "longitude": 106.70176,
        "address": "Fatman Films Vietnam, Hẻm 12 Nguyễn Thị Minh Khai, Phường Đa Kao, Quận 1, Hồ Chí Minh, Việt Nam",
        "country_code": "VNM",
        "country_name": "Việt Nam",
        "city": "Hồ Chí Minh",
        "district": "Quận 1",
        "ward": "Phường Đa Kao",
        "street": "Hẻm 12 Nguyễn Thị Minh Khai",
        "postal_code": "71007",
        "categories": [
            {
                "name": "Rạp chiếu phim"
            }
        ]
    },
    {
        "name": "Múa Rối Nước Rồng Vàng",
        "latitude": 10.77212,
        "longitude": 106.69274,
        "address": "Múa Rối Nước Rồng Vàng, Đường Nguyễn Du, Phường Bến Thành, Quận 1, Hồ Chí Minh, Việt Nam",
        "country_code": "VNM",
        "country_name": "Việt Nam",
        "city": "Hồ Chí Minh",
        "district": "Quận 1",
        "ward": "Phường Bến Thành",
        "street": "Đường Nguyễn Du",
        "postal_code": "71009",
        "categories": [
            {
                "name": "Rạp chiếu phim"
            }
        ]
    },
    {
        "name": "Galaxy Cinema",
        "latitude": 10.77742,
        "longitude": 106.6912,
        "address": "Galaxy Cinema, 63 Đường Võ Văn Tần, Phường Võ Thị Sáu, Quận 3, Hồ Chí Minh, Việt Nam",
        "country_code": "VNM",
        "country_name": "Việt Nam",
        "city": "Hồ Chí Minh",
        "district": "Quận 3",
        "ward": "Phường Võ Thị Sáu",
        "street": "Đường Võ Văn Tần",
        "postal_code": "72415",
        "categories": [
            {
                "name": "Rạp chiếu phim"
            },
            {
                "name": "Doanh nghiệp"
            }
        ]
    },
    {
        "name": "Rạp Phim Tư Liệu",
        "latitude": 10.78953,
        "longitude": 106.69953,
        "address": "Rạp Phim Tư Liệu, Đường Phan Kế Bính, Phường Đa Kao, Quận 1, Hồ Chí Minh, Việt Nam",
        "country_code": "VNM",
        "country_name": "Việt Nam",
        "city": "Hồ Chí Minh",
        "district": "Quận 1",
        "ward": "Phường Đa Kao",
        "street": "Đường Phan Kế Bính",
        "postal_code": "71007",
        "categories": [
            {
                "name": "Rạp chiếu phim"
            }
        ]
    },
    {
        "name": "Sân Khấu Nghệ Thuật Thái Dương",
        "latitude": 10.77477,
        "longitude": 106.69004,
        "address": "Sân Khấu Nghệ Thuật Thái Dương, Đường Nguyễn Thị Minh Khai, Phường Võ Thị Sáu, Quận 3, Hồ Chí Minh, Việt Nam",
        "country_code": "VNM",
        "country_name": "Việt Nam",
        "city": "Hồ Chí Minh",
        "district": "Quận 3",
        "ward": "Phường Võ Thị Sáu",
        "street": "Đường Nguyễn Thị Minh Khai",
        "postal_code": "72415",
        "categories": [
            {
                "name": "Rạp chiếu phim"
            }
        ]
    },
    {
        "name": "Bobby Brewers At Ila",
        "latitude": 10.77458,
        "longitude": 106.68987,
        "address": "Bobby Brewers At Ila, Đường Nguyễn Thị Minh Khai, Phường Võ Thị Sáu, Quận 3, Hồ Chí Minh, Việt Nam",
        "country_code": "VNM",
        "country_name": "Việt Nam",
        "city": "Hồ Chí Minh",
        "district": "Quận 3",
        "ward": "Phường Võ Thị Sáu",
        "street": "Đường Nguyễn Thị Minh Khai",
        "postal_code": "72415",
        "categories": [
            {
                "name": "Rạp chiếu phim"
            }
        ]
    },
    {
        "name": "Rạp Đại Quang",
        "latitude": 10.77418,
        "longitude": 106.68825,
        "address": "Rạp Đại Quang, Đường Cách Mạng Tháng 8, Phường 5, Quận 3, Hồ Chí Minh, Việt Nam",
        "country_code": "VNM",
        "country_name": "Việt Nam",
        "city": "Hồ Chí Minh",
        "district": "Quận 3",
        "ward": "Phường 5",
        "street": "Đường Cách Mạng Tháng 8",
        "postal_code": "72406",
        "categories": [
            {
                "name": "Rạp chiếu phim"
            }
        ]
    },
    {
        "name": "The Sofa",
        "latitude": 10.79099,
        "longitude": 106.69548,
        "address": "The Sofa, Đường Võ Thị Sáu, Phường Tân Định, Quận 1, Hồ Chí Minh, Việt Nam",
        "country_code": "VNM",
        "country_name": "Việt Nam",
        "city": "Hồ Chí Minh",
        "district": "Quận 1",
        "ward": "Phường Tân Định",
        "street": "Đường Võ Thị Sáu",
        "postal_code": "71008",
        "categories": [
            {
                "name": "Rạp chiếu phim"
            }
        ]
    },
    {
        "name": "Cinema Cầu Bông",
        "latitude": 10.79214,
        "longitude": 106.69587,
        "address": "Cinema Cầu Bông, 207 Đường Đinh Tiên Hoàng, Phường Tân Định, Quận 1, Hồ Chí Minh, Việt Nam",
        "country_code": "VNM",
        "country_name": "Việt Nam",
        "city": "Hồ Chí Minh",
        "district": "Quận 1",
        "ward": "Phường Tân Định",
        "street": "Đường Đinh Tiên Hoàng",
        "postal_code": "71008",
        "categories": [
            {
                "name": "Rạp chiếu phim"
            }
        ]
    },
    {
        "name": "Nhà Hát Hưng Đạo",
        "latitude": 10.7649,
        "longitude": 106.69259,
        "address": "Nhà Hát Hưng Đạo, Đường Trần Hưng Đạo, Phường Nguyễn Cư Trinh, Quận 1, Hồ Chí Minh, Việt Nam",
        "country_code": "VNM",
        "country_name": "Việt Nam",
        "city": "Hồ Chí Minh",
        "district": "Quận 1",
        "ward": "Phường Nguyễn Cư Trinh",
        "street": "Đường Trần Hưng Đạo",
        "postal_code": "71014",
        "categories": [
            {
                "name": "Rạp chiếu phim"
            }
        ]
    },
    {
        "name": "Cinema Văn Hoa",
        "latitude": 10.79281,
        "longitude": 106.6946,
        "address": "Cinema Văn Hoa, 62 Đường Trần Quang Khải, Phường Tân Định, Quận 1, Hồ Chí Minh, Việt Nam",
        "country_code": "VNM",
        "country_name": "Việt Nam",
        "city": "Hồ Chí Minh",
        "district": "Quận 1",
        "ward": "Phường Tân Định",
        "street": "Đường Trần Quang Khải",
        "postal_code": "71008",
        "categories": [
            {
                "name": "Rạp chiếu phim"
            }
        ]
    },
    {
        "name": "Phòng Vé Nhà Hát Thế Giới Trẻ",
        "latitude": 10.76587,
        "longitude": 106.68967,
        "address": "Phòng Vé Nhà Hát Thế Giới Trẻ, 125 Đường Cống Quỳnh, Phường Nguyễn Cư Trinh, Quận 1, Hồ Chí Minh, Việt Nam",
        "country_code": "VNM",
        "country_name": "Việt Nam",
        "city": "Hồ Chí Minh",
        "district": "Quận 1",
        "ward": "Phường Nguyễn Cư Trinh",
        "street": "Đường Cống Quỳnh",
        "postal_code": "71014",
        "categories": [
            {
                "name": "Giải trí về đêm"
            },
            {
                "name": "Giải trí hoặc âm nhạc sống"
            },
            {
                "name": "Rạp chiếu phim"
            },
            {
                "name": "Nhà hát, Âm nhạc & Văn hóa"
            },
            {
                "name": "Trung tâm biểu diễn nghệ thuật"
            }
        ]
    },
    {
        "name": "Thang Long Cinema",
        "latitude": 10.78666,
        "longitude": 106.68714,
        "address": "Thang Long Cinema, Đường Nam Kỳ Khởi Nghĩa, Phường Võ Thị Sáu, Quận 3, Hồ Chí Minh, Việt Nam",
        "country_code": "VNM",
        "country_name": "Việt Nam",
        "city": "Hồ Chí Minh",
        "district": "Quận 3",
        "ward": "Phường Võ Thị Sáu",
        "street": "Đường Nam Kỳ Khởi Nghĩa",
        "postal_code": "72415",
        "categories": [
            {
                "name": "Rạp chiếu phim"
            }
        ]
    },
    {
        "name": "CGV Imc Trần Quang Khải",
        "latitude": 10.79252,
        "longitude": 106.69163,
        "address": "CGV Imc Trần Quang Khải, Đường Trần Khắc Chân, Phường Tân Định, Quận 1, Hồ Chí Minh, Việt Nam",
        "country_code": "VNM",
        "country_name": "Việt Nam",
        "city": "Hồ Chí Minh",
        "district": "Quận 1",
        "ward": "Phường Tân Định",
        "street": "Đường Trần Khắc Chân",
        "postal_code": "71008",
        "categories": [
            {
                "name": "Rạp chiếu phim"
            },
            {
                "name": "Đào tạo & Phát triển"
            }
        ]
    },
    {
        "name": "Rạp Cinebox 212",
        "latitude": 10.78585,
        "longitude": 106.68459,
        "address": "Rạp Cinebox 212, Đường Lý Chính Thắng, Phường Võ Thị Sáu, Quận 3, Hồ Chí Minh, Việt Nam",
        "country_code": "VNM",
        "country_name": "Việt Nam",
        "city": "Hồ Chí Minh",
        "district": "Quận 3",
        "ward": "Phường Võ Thị Sáu",
        "street": "Đường Lý Chính Thắng",
        "postal_code": "72415",
        "categories": [
            {
                "name": "Rạp chiếu phim"
            }
        ]
    },
    {
        "name": "Rạp Galaxy Cinema",
        "latitude": 10.7648,
        "longitude": 106.68738,
        "address": "Rạp Galaxy Cinema, Đường Nguyễn Trãi, Phường Nguyễn Cư Trinh, Quận 1, Hồ Chí Minh, Việt Nam",
        "country_code": "VNM",
        "country_name": "Việt Nam",
        "city": "Hồ Chí Minh",
        "district": "Quận 1",
        "ward": "Phường Nguyễn Cư Trinh",
        "street": "Đường Nguyễn Trãi",
        "postal_code": "71014",
        "categories": [
            {
                "name": "Rạp chiếu phim"
            },
            {
                "name": "Nhà hàng"
            },
            {
                "name": "Giải trí về đêm"
            },
            {
                "name": "Ngoài trời/Giải trí"
            }
        ]
    },
    {
        "name": "Hảng Phim Giải Phóng",
        "latitude": 10.78037,
        "longitude": 106.68254,
        "address": "Hảng Phim Giải Phóng, 212 Đường Lý Chính Thắng, Phường Võ Thị Sáu, Quận 3, Hồ Chí Minh, Việt Nam",
        "country_code": "VNM",
        "country_name": "Việt Nam",
        "city": "Hồ Chí Minh",
        "district": "Quận 3",
        "ward": "Phường Võ Thị Sáu",
        "street": "Đường Lý Chính Thắng",
        "postal_code": "72415",
        "categories": [
            {
                "name": "Rạp chiếu phim"
            },
            {
                "name": "Quà tặng, đồ cổ và tác phẩm nghệ thuật"
            },
            {
                "name": "Doanh nghiệp"
            }
        ]
    },
    {
        "name": "R&B Cinebox 212 Lý Chính Thắng",
        "latitude": 10.78037,
        "longitude": 106.68254,
        "address": "R&B Cinebox 212 Lý Chính Thắng, 212 Đường Lý Chính Thắng, Phường Võ Thị Sáu, Quận 3, Hồ Chí Minh, Việt Nam",
        "country_code": "VNM",
        "country_name": "Việt Nam",
        "city": "Hồ Chí Minh",
        "district": "Quận 3",
        "ward": "Phường Võ Thị Sáu",
        "street": "Đường Lý Chính Thắng",
        "postal_code": "72415",
        "categories": [
            {
                "name": "Rạp chiếu phim"
            },
            {
                "name": "Cà Phê/Trà"
            },
            {
                "name": "Quán cà phê"
            }
        ]
    },
    {
        "name": "Rạp Phim Giải Phóng",
        "latitude": 10.77969,
        "longitude": 106.68223,
        "address": "Rạp Phim Giải Phóng, Đường Lý Chính Thắng, Phường Võ Thị Sáu, Quận 3, Hồ Chí Minh, Việt Nam",
        "country_code": "VNM",
        "country_name": "Việt Nam",
        "city": "Hồ Chí Minh",
        "district": "Quận 3",
        "ward": "Phường Võ Thị Sáu",
        "street": "Đường Lý Chính Thắng",
        "postal_code": "72415",
        "categories": [
            {
                "name": "Rạp chiếu phim"
            }
        ]
    },
    {
        "name": "Cinestar - Nguyễn Trãi",
        "latitude": 10.76388,
        "longitude": 106.68728,
        "address": "Cinestar - Nguyễn Trãi, 271 Nguyễn Trãi, Phường Nguyễn Cư Trinh, Quận 1, Hồ Chí Minh, Việt Nam",
        "country_code": "VNM",
        "country_name": "Việt Nam",
        "city": "Hồ Chí Minh",
        "district": "Quận 1",
        "ward": "Phường Nguyễn Cư Trinh",
        "street": "Nguyễn Trãi",
        "postal_code": "71014",
        "categories": [
            {
                "name": "Rạp chiếu phim"
            },
            {
                "name": "Nhà hàng"
            }
        ]
    },
    {
        "name": "Cinestar Quốc Thanh",
        "latitude": 10.76388,
        "longitude": 106.68728,
        "address": "Cinestar Quốc Thanh, 271 Nguyễn Trãi, Phường Nguyễn Cư Trinh, Quận 1, Hồ Chí Minh, Việt Nam",
        "country_code": "VNM",
        "country_name": "Việt Nam",
        "city": "Hồ Chí Minh",
        "district": "Quận 1",
        "ward": "Phường Nguyễn Cư Trinh",
        "street": "Nguyễn Trãi",
        "postal_code": "71014",
        "categories": [
            {
                "name": "Rạp chiếu phim"
            },
            {
                "name": "Nhà hàng"
            },
            {
                "name": "Quán ăn nhanh"
            }
        ]
    },
    {
        "name": "CGV Cinemas - Lý Chính Thắng",
        "latitude": 10.78935,
        "longitude": 106.68566,
        "address": "CGV Cinemas - Lý Chính Thắng, 83 Đường Lý Chính Thắng, Phường Võ Thị Sáu, Quận 3, Hồ Chí Minh, Việt Nam",
        "country_code": "VNM",
        "country_name": "Việt Nam",
        "city": "Hồ Chí Minh",
        "district": "Quận 3",
        "ward": "Phường Võ Thị Sáu",
        "street": "Đường Lý Chính Thắng",
        "postal_code": "72415",
        "categories": [
            {
                "name": "Rạp chiếu phim"
            }
        ]
    },
    {
        "name": "Hang Phim Son An",
        "latitude": 10.79677,
        "longitude": 106.69511,
        "address": "Hang Phim Son An, Hẻm 87 Lê Văn Duyệt, Phường 3, Quận Bình Thạnh, Hồ Chí Minh, Việt Nam",
        "country_code": "VNM",
        "country_name": "Việt Nam",
        "city": "Hồ Chí Minh",
        "district": "Quận Bình Thạnh",
        "ward": "Phường 3",
        "street": "Hẻm 87 Lê Văn Duyệt",
        "postal_code": "72317",
        "categories": [
            {
                "name": "Rạp chiếu phim"
            }
        ]
    },
    {
        "name": "Cineland Cafe 53/9 Trần Khánh Dư, Q1",
        "latitude": 10.79437,
        "longitude": 106.69058,
        "address": "Cineland Cafe 53/9 Trần Khánh Dư, Q1, 9 Hẻm 53 Đường Trần Khánh Dư, Phường Tân Định, Quận 1, Hồ Chí Minh, Việt Nam",
        "country_code": "VNM",
        "country_name": "Việt Nam",
        "city": "Hồ Chí Minh",
        "district": "Quận 1",
        "ward": "Phường Tân Định",
        "street": "Hẻm 53 Đường Trần Khánh Dư",
        "postal_code": "71008",
        "categories": [
            {
                "name": "Rạp chiếu phim"
            },
            {
                "name": "Quán ăn bình dân"
            },
            {
                "name": "Quán cà phê"
            }
        ]
    },
    {
        "name": "Sunshine's Megastar",
        "latitude": 10.79257,
        "longitude": 106.71791,
        "address": "Sunshine's Megastar, Đường Nguyễn Hữu Cảnh, Phường 22, Quận Bình Thạnh, Hồ Chí Minh, Việt Nam",
        "country_code": "VNM",
        "country_name": "Việt Nam",
        "city": "Hồ Chí Minh",
        "district": "Quận Bình Thạnh",
        "ward": "Phường 22",
        "street": "Đường Nguyễn Hữu Cảnh",
        "postal_code": "72324",
        "categories": [
            {
                "name": "Rạp chiếu phim"
            }
        ]
    },
    {
        "name": "Mega GS Cao Thắng",
        "latitude": 10.76915,
        "longitude": 106.68309,
        "address": "Mega GS Cao Thắng, 19 Hẻm 32 Cao Thắng, Phường 5, Quận 3, Hồ Chí Minh, Việt Nam",
        "country_code": "VNM",
        "country_name": "Việt Nam",
        "city": "Hồ Chí Minh",
        "district": "Quận 3",
        "ward": "Phường 5",
        "street": "Hẻm 32 Cao Thắng",
        "postal_code": "72406",
        "categories": [
            {
                "name": "Rạp chiếu phim"
            }
        ]
    },
    {
        "name": "Rạp Thăng Long",
        "latitude": 10.76915,
        "longitude": 106.68309,
        "address": "Rạp Thăng Long, 19 Hẻm 32 Cao Thắng, Phường 5, Quận 3, Hồ Chí Minh, Việt Nam",
        "country_code": "VNM",
        "country_name": "Việt Nam",
        "city": "Hồ Chí Minh",
        "district": "Quận 3",
        "ward": "Phường 5",
        "street": "Hẻm 32 Cao Thắng",
        "postal_code": "72406",
        "categories": [
            {
                "name": "Rạp chiếu phim"
            }
        ]
    },
    {
        "name": "Megags - Cao Thắng",
        "latitude": 10.76915,
        "longitude": 106.68309,
        "address": "Megags - Cao Thắng, 19 Hẻm 32 Cao Thắng, Phường 5, Quận 3, Hồ Chí Minh, Việt Nam",
        "country_code": "VNM",
        "country_name": "Việt Nam",
        "city": "Hồ Chí Minh",
        "district": "Quận 3",
        "ward": "Phường 5",
        "street": "Hẻm 32 Cao Thắng",
        "postal_code": "72406",
        "categories": [
            {
                "name": "Rạp chiếu phim"
            }
        ]
    },
    {
        "name": "Rạp Hòa Bình",
        "latitude": 10.77771,
        "longitude": 106.68117,
        "address": "Rạp Hòa Bình, Đường 3 Tháng 2, Phường 12, Quận 10, Hồ Chí Minh, Việt Nam",
        "country_code": "VNM",
        "country_name": "Việt Nam",
        "city": "Hồ Chí Minh",
        "district": "Quận 10",
        "ward": "Phường 12",
        "street": "Đường 3 Tháng 2",
        "postal_code": "72510",
        "categories": [
            {
                "name": "Rạp chiếu phim"
            }
        ]
    },
    {
        "name": "Rạp BHD Star Cinema",
        "latitude": 10.77665,
        "longitude": 106.68059,
        "address": "Rạp BHD Star Cinema, Đường 3 Tháng 2, Phường 12, Quận 10, Hồ Chí Minh, Việt Nam",
        "country_code": "VNM",
        "country_name": "Việt Nam",
        "city": "Hồ Chí Minh",
        "district": "Quận 10",
        "ward": "Phường 12",
        "street": "Đường 3 Tháng 2",
        "postal_code": "72510",
        "categories": [
            {
                "name": "Rạp chiếu phim"
            }
        ]
    },
    {
        "name": "Cineland.Vn",
        "latitude": 10.79379,
        "longitude": 106.68786,
        "address": "Cineland.Vn, 53 Hẻm 34 Đường Trần Khánh Dư, Phường Tân Định, Quận 1, Hồ Chí Minh, Việt Nam",
        "country_code": "VNM",
        "country_name": "Việt Nam",
        "city": "Hồ Chí Minh",
        "district": "Quận 1",
        "ward": "Phường Tân Định",
        "street": "Hẻm 34 Đường Trần Khánh Dư",
        "postal_code": "71008",
        "categories": [
            {
                "name": "Rạp chiếu phim"
            }
        ]
    },
    {
        "name": "Hbo Hd",
        "latitude": 10.79928,
        "longitude": 106.69928,
        "address": "Hbo Hd, Đường Bùi Hữu Nghĩa, Phường 1, Quận Bình Thạnh, Hồ Chí Minh, Việt Nam",
        "country_code": "VNM",
        "country_name": "Việt Nam",
        "city": "Hồ Chí Minh",
        "district": "Quận Bình Thạnh",
        "ward": "Phường 1",
        "street": "Đường Bùi Hữu Nghĩa",
        "postal_code": "72318",
        "categories": [
            {
                "name": "Rạp chiếu phim"
            }
        ]
    },
    {
        "name": "Starmovies Hd",
        "latitude": 10.79936,
        "longitude": 106.69928,
        "address": "Starmovies Hd, Đường Bùi Hữu Nghĩa, Phường 1, Quận Bình Thạnh, Hồ Chí Minh, Việt Nam",
        "country_code": "VNM",
        "country_name": "Việt Nam",
        "city": "Hồ Chí Minh",
        "district": "Quận Bình Thạnh",
        "ward": "Phường 1",
        "street": "Đường Bùi Hữu Nghĩa",
        "postal_code": "72318",
        "categories": [
            {
                "name": "Rạp chiếu phim"
            }
        ]
    },
    {
        "name": "BHD Cinema",
        "latitude": 10.77602,
        "longitude": 106.68025,
        "address": "BHD Cinema, Đường 3 Tháng 2, Phường 12, Quận 10, Hồ Chí Minh, Việt Nam",
        "country_code": "VNM",
        "country_name": "Việt Nam",
        "city": "Hồ Chí Minh",
        "district": "Quận 10",
        "ward": "Phường 12",
        "street": "Đường 3 Tháng 2",
        "postal_code": "72510",
        "categories": [
            {
                "name": "Rạp chiếu phim"
            }
        ]
    },
    {
        "name": "Nj's Tv",
        "latitude": 10.79972,
        "longitude": 106.70084,
        "address": "Nj's Tv, Hẻm 280/29 Bùi Hữu Nghĩa, Phường 2, Quận Bình Thạnh, Hồ Chí Minh, Việt Nam",
        "country_code": "VNM",
        "country_name": "Việt Nam",
        "city": "Hồ Chí Minh",
        "district": "Quận Bình Thạnh",
        "ward": "Phường 2",
        "street": "Hẻm 280/29 Bùi Hữu Nghĩa",
        "postal_code": "72319",
        "categories": [
            {
                "name": "Rạp chiếu phim"
            }
        ]
    },
    {
        "name": "LOTTE CINEMA",
        "latitude": 10.75691,
        "longitude": 106.69159,
        "address": "LOTTE CINEMA, Đường Bến Vân Đồn, Phường 1, Quận 4, Hồ Chí Minh, Việt Nam",
        "country_code": "VNM",
        "country_name": "Việt Nam",
        "city": "Hồ Chí Minh",
        "district": "Quận 4",
        "ward": "Phường 1",
        "street": "Đường Bến Vân Đồn",
        "postal_code": "72811",
        "categories": [
            {
                "name": "Rạp chiếu phim"
            }
        ]
    },
    {
        "name": "World Rider 5d",
        "latitude": 10.79916,
        "longitude": 106.71236,
        "address": "World Rider 5d, Hẻm 220/9 Xô Viết Nghệ Tĩnh, Phường 21, Quận Bình Thạnh, Hồ Chí Minh, Việt Nam",
        "country_code": "VNM",
        "country_name": "Việt Nam",
        "city": "Hồ Chí Minh",
        "district": "Quận Bình Thạnh",
        "ward": "Phường 21",
        "street": "Hẻm 220/9 Xô Viết Nghệ Tĩnh",
        "postal_code": "72322",
        "categories": [
            {
                "name": "Rạp chiếu phim"
            }
        ]
    },
    {
        "name": "CGV Vincom Center Landmark 81",
        "latitude": 10.79387,
        "longitude": 106.72032,
        "address": "CGV Vincom Center Landmark 81, 208 Nguyễn Hữu Cảnh, Phường 22, Quận Bình Thạnh, Hồ Chí Minh, Việt Nam",
        "country_code": "VNM",
        "country_name": "Việt Nam",
        "city": "Hồ Chí Minh",
        "district": "Quận Bình Thạnh",
        "ward": "Phường 22",
        "street": "Nguyễn Hữu Cảnh",
        "postal_code": "72324",
        "categories": [
            {
                "name": "Rạp chiếu phim"
            }
        ]
    },
    {
        "name": "5d World Rider",
        "latitude": 10.77448,
        "longitude": 106.67859,
        "address": "5d World Rider, Đường 3 Tháng 2, Phường 12, Quận 10, Hồ Chí Minh, Việt Nam",
        "country_code": "VNM",
        "country_name": "Việt Nam",
        "city": "Hồ Chí Minh",
        "district": "Quận 10",
        "ward": "Phường 12",
        "street": "Đường 3 Tháng 2",
        "postal_code": "72510",
        "categories": [
            {
                "name": "Rạp chiếu phim"
            }
        ]
    },
    {
        "name": "Rạp Chiếu Phim 5F Nowzone",
        "latitude": 10.76339,
        "longitude": 106.68232,
        "address": "Rạp Chiếu Phim 5F Nowzone, Đường Nguyễn Văn Cừ, Phường 4, Quận 5, Hồ Chí Minh, Việt Nam",
        "country_code": "VNM",
        "country_name": "Việt Nam",
        "city": "Hồ Chí Minh",
        "district": "Quận 5",
        "ward": "Phường 4",
        "street": "Đường Nguyễn Văn Cừ",
        "postal_code": "72711",
        "categories": [
            {
                "name": "Rạp chiếu phim"
            }
        ]
    },
    {
        "name": "Cgv Vincom Landmark 81",
        "latitude": 10.79467,
        "longitude": 106.72208,
        "address": "Cgv Vincom Landmark 81, 772 Điện Biên Phủ, Phường 22, Quận Bình Thạnh, Hồ Chí Minh, Việt Nam",
        "country_code": "VNM",
        "country_name": "Việt Nam",
        "city": "Hồ Chí Minh",
        "district": "Quận Bình Thạnh",
        "ward": "Phường 22",
        "street": "Điện Biên Phủ",
        "postal_code": "72324",
        "categories": [
            {
                "name": "Rạp chiếu phim"
            }
        ]
    },
    {
        "name": "Lotte Cinema",
        "latitude": 10.7641,
        "longitude": 106.68015,
        "address": "Lotte Cinema, Đường Trần Phú, Phường 4, Quận 5, Hồ Chí Minh, Việt Nam",
        "country_code": "VNM",
        "country_name": "Việt Nam",
        "city": "Hồ Chí Minh",
        "district": "Quận 5",
        "ward": "Phường 4",
        "street": "Đường Trần Phú",
        "postal_code": "72711",
        "categories": [
            {
                "name": "Rạp chiếu phim"
            }
        ]
    },
    {
        "name": "Cm Cinema",
        "latitude": 10.75927,
        "longitude": 106.68383,
        "address": "Cm Cinema, Đường Nguyễn Trãi, Phường 3, Quận 5, Hồ Chí Minh, Việt Nam",
        "country_code": "VNM",
        "country_name": "Việt Nam",
        "city": "Hồ Chí Minh",
        "district": "Quận 5",
        "ward": "Phường 3",
        "street": "Đường Nguyễn Trãi",
        "postal_code": "72710",
        "categories": [
            {
                "name": "Rạp chiếu phim"
            }
        ]
    },
    {
        "name": "Taro's Relaxing Room",
        "latitude": 10.75166,
        "longitude": 106.70882,
        "address": "Taro's Relaxing Room, 421 Đường Trần Xuân Soạn, Phường Tân Kiểng, Quận 7, Hồ Chí Minh, Việt Nam",
        "country_code": "VNM",
        "country_name": "Việt Nam",
        "city": "Hồ Chí Minh",
        "district": "Quận 7",
        "ward": "Phường Tân Kiểng",
        "street": "Đường Trần Xuân Soạn",
        "postal_code": "72911",
        "categories": [
            {
                "name": "Rạp chiếu phim"
            }
        ]
    },
    {
        "name": "CGV Pearl Plaza 561A Điện Biên Phủ Phường 25 Quận Bình Thạnh TP.Hồ Chí Minh",
        "latitude": 10.79974,
        "longitude": 106.71828,
        "address": "CGV Pearl Plaza 561A Điện Biên Phủ Phường 25 Quận Bình Thạnh TP.Hồ Chí Minh, Đường Điện Biên Phủ, Phường 25, Quận Bình Thạnh, Hồ Chí Minh, Việt Nam",
        "country_code": "VNM",
        "country_name": "Việt Nam",
        "city": "Hồ Chí Minh",
        "district": "Quận Bình Thạnh",
        "ward": "Phường 25",
        "street": "Đường Điện Biên Phủ",
        "postal_code": "72308",
        "categories": [
            {
                "name": "Rạp chiếu phim"
            }
        ]
    },
    {
        "name": "Hokkaido Square @ Pearl Plaza",
        "latitude": 10.80003,
        "longitude": 106.71802,
        "address": "Hokkaido Square @ Pearl Plaza, Đường Nguyễn Văn Thương, Phường 25, Quận Bình Thạnh, Hồ Chí Minh, Việt Nam",
        "country_code": "VNM",
        "country_name": "Việt Nam",
        "city": "Hồ Chí Minh",
        "district": "Quận Bình Thạnh",
        "ward": "Phường 25",
        "street": "Đường Nguyễn Văn Thương",
        "postal_code": "72308",
        "categories": [
            {
                "name": "Rạp chiếu phim"
            }
        ]
    },
    {
        "name": "Quán Cà Phê HD Reda",
        "latitude": 10.7578,
        "longitude": 106.68405,
        "address": "Quán Cà Phê HD Reda, 14 Hẻm 18 Đường Phan Văn Trị, Phường 2, Quận 5, Hồ Chí Minh, Việt Nam",
        "country_code": "VNM",
        "country_name": "Việt Nam",
        "city": "Hồ Chí Minh",
        "district": "Quận 5",
        "ward": "Phường 2",
        "street": "Hẻm 18 Đường Phan Văn Trị",
        "postal_code": "72709",
        "categories": [
            {
                "name": "Rạp chiếu phim"
            },
            {
                "name": "Cafeteria"
            },
            {
                "name": "Cà Phê/Trà"
            },
            {
                "name": "Quán cà phê"
            },
            {
                "name": "Doanh nghiệp"
            }
        ]
    },
    {
        "name": "Ấn Tượng",
        "latitude": 10.75793,
        "longitude": 106.6839,
        "address": "Ấn Tượng, 18/6 Đường Phan Văn Trị, Phường 2, Quận 5, Hồ Chí Minh, Việt Nam",
        "country_code": "VNM",
        "country_name": "Việt Nam",
        "city": "Hồ Chí Minh",
        "district": "Quận 5",
        "ward": "Phường 2",
        "street": "Đường Phan Văn Trị",
        "postal_code": "72709",
        "categories": [
            {
                "name": "Rạp chiếu phim"
            }
        ]
    },
    {
        "name": "Rạng Đông",
        "latitude": 10.77206,
        "longitude": 106.67521,
        "address": "Rạng Đông, Hẻm 181 Đường 3/2, Phường 12, Quận 10, Hồ Chí Minh, Việt Nam",
        "country_code": "VNM",
        "country_name": "Việt Nam",
        "city": "Hồ Chí Minh",
        "district": "Quận 10",
        "ward": "Phường 12",
        "street": "Hẻm 181 Đường 3/2",
        "postal_code": "72510",
        "categories": [
            {
                "name": "Rạp chiếu phim"
            },
            {
                "name": "Quần áo nam"
            },
            {
                "name": "Hàng tiêu dùng"
            },
            {
                "name": "Xây dựng"
            },
            {
                "name": "Doanh nghiệp"
            },
            {
                "name": "Dịch vụ kinh doanh"
            }
        ]
    },
    {
        "name": "Cenix Cinema",
        "latitude": 10.79577,
        "longitude": 106.68046,
        "address": "Cenix Cinema, Hẻm 50 Duy Tân, Phường 15, Quận Phú Nhuận, Hồ Chí Minh, Việt Nam",
        "country_code": "VNM",
        "country_name": "Việt Nam",
        "city": "Hồ Chí Minh",
        "district": "Quận Phú Nhuận",
        "ward": "Phường 15",
        "street": "Hẻm 50 Duy Tân",
        "postal_code": "72209",
        "categories": [
            {
                "name": "Rạp chiếu phim"
            }
        ]
    },
    {
        "name": "Rạp Chiếu Bóng Minh Châu",
        "latitude": 10.78896,
        "longitude": 106.67586,
        "address": "Rạp Chiếu Bóng Minh Châu, Hẻm 407 Lê Văn Sỹ, Phường 12, Quận 3, Hồ Chí Minh, Việt Nam",
        "country_code": "VNM",
        "country_name": "Việt Nam",
        "city": "Hồ Chí Minh",
        "district": "Quận 3",
        "ward": "Phường 12",
        "street": "Hẻm 407 Lê Văn Sỹ",
        "postal_code": "72410",
        "categories": [
            {
                "name": "Rạp chiếu phim"
            }
        ]
    },
    {
        "name": "Cặp Đôi Hạnh Phúc",
        "latitude": 10.79089,
        "longitude": 106.67516,
        "address": "Cặp Đôi Hạnh Phúc, Hẻm 279 Đường Huỳnh Văn Bánh, Phường 11, Quận Phú Nhuận, Hồ Chí Minh, Việt Nam",
        "country_code": "VNM",
        "country_name": "Việt Nam",
        "city": "Hồ Chí Minh",
        "district": "Quận Phú Nhuận",
        "ward": "Phường 11",
        "street": "Hẻm 279 Đường Huỳnh Văn Bánh",
        "postal_code": "72206",
        "categories": [
            {
                "name": "Rạp chiếu phim"
            }
        ]
    },
    {
        "name": "Rạp Vườn Lài",
        "latitude": 10.7654,
        "longitude": 106.67442,
        "address": "Rạp Vườn Lài, 22 Đường Vĩnh Viễn, Phường 2, Quận 10, Hồ Chí Minh, Việt Nam",
        "country_code": "VNM",
        "country_name": "Việt Nam",
        "city": "Hồ Chí Minh",
        "district": "Quận 10",
        "ward": "Phường 2",
        "street": "Đường Vĩnh Viễn",
        "postal_code": "72519",
        "categories": [
            {
                "name": "Trung tâm biểu diễn nghệ thuật"
            },
            {
                "name": "Giải trí về đêm"
            },
            {
                "name": "Rạp chiếu phim"
            }
        ]
    },
    {
        "name": "Rạp Chiếu Phim Megastar-Hùng Vương",
        "latitude": 10.76202,
        "longitude": 106.67599,
        "address": "Rạp Chiếu Phim Megastar-Hùng Vương, 126 Hùng Vương, Phường 2, Quận 10, Hồ Chí Minh, Việt Nam",
        "country_code": "VNM",
        "country_name": "Việt Nam",
        "city": "Hồ Chí Minh",
        "district": "Quận 10",
        "ward": "Phường 2",
        "street": "Hùng Vương",
        "postal_code": "72519",
        "categories": [
            {
                "name": "Rạp chiếu phim"
            },
            {
                "name": "Nhà hàng"
            },
            {
                "name": "Cà Phê/Trà"
            }
        ]
    },
    {
        "name": "Trường Quay VTV9",
        "latitude": 10.79201,
        "longitude": 106.73073,
        "address": "Trường Quay VTV9, Đường Trần Não, Phường An Khánh, Thủ Đức, Hồ Chí Minh, Việt Nam",
        "country_code": "VNM",
        "country_name": "Việt Nam",
        "city": "Hồ Chí Minh",
        "district": "Thủ Đức",
        "ward": "Phường An Khánh",
        "street": "Đường Trần Não",
        "postal_code": "71109",
        "categories": [
            {
                "name": "Rạp chiếu phim"
            }
        ]
    },
    {
        "name": "Tivi",
        "latitude": 10.80778,
        "longitude": 106.69381,
        "address": "Tivi, Đường Nơ Trang Long, Phường 7, Quận Bình Thạnh, Hồ Chí Minh, Việt Nam",
        "country_code": "VNM",
        "country_name": "Việt Nam",
        "city": "Hồ Chí Minh",
        "district": "Quận Bình Thạnh",
        "ward": "Phường 7",
        "street": "Đường Nơ Trang Long",
        "postal_code": "72316",
        "categories": [
            {
                "name": "Rạp chiếu phim"
            }
        ]
    },
    {
        "name": "Sân Khấu Kịch Phú Nhuận",
        "latitude": 10.79544,
        "longitude": 106.67626,
        "address": "Sân Khấu Kịch Phú Nhuận, 70-72 Đường Nguyễn Văn Trỗi, Phường 11, Quận Phú Nhuận, Hồ Chí Minh, Việt Nam",
        "country_code": "VNM",
        "country_name": "Việt Nam",
        "city": "Hồ Chí Minh",
        "district": "Quận Phú Nhuận",
        "ward": "Phường 11",
        "street": "Đường Nguyễn Văn Trỗi",
        "postal_code": "72206",
        "categories": [
            {
                "name": "Trung tâm biểu diễn nghệ thuật"
            },
            {
                "name": "Giải trí về đêm"
            },
            {
                "name": "Giải trí hoặc âm nhạc sống"
            },
            {
                "name": "Rạp chiếu phim"
            },
            {
                "name": "Nhà hát, Âm nhạc & Văn hóa"
            }
        ]
    },
    {
        "name": "Z7movietheater",
        "latitude": 10.78321,
        "longitude": 106.67034,
        "address": "Z7movietheater, Hẻm 571 Đường Cách Mạng Tháng 8, Phường 15, Quận 10, Hồ Chí Minh, Việt Nam",
        "country_code": "VNM",
        "country_name": "Việt Nam",
        "city": "Hồ Chí Minh",
        "district": "Quận 10",
        "ward": "Phường 15",
        "street": "Hẻm 571 Đường Cách Mạng Tháng 8",
        "postal_code": "72512",
        "categories": [
            {
                "name": "Rạp chiếu phim"
            }
        ]
    },
    {
        "name": "Couple Cafe Cinema",
        "latitude": 10.7688,
        "longitude": 106.67085,
        "address": "Couple Cafe Cinema, Đường Sư Vạn Hạnh, Phường 10, Quận 10, Hồ Chí Minh, Việt Nam",
        "country_code": "VNM",
        "country_name": "Việt Nam",
        "city": "Hồ Chí Minh",
        "district": "Quận 10",
        "ward": "Phường 10",
        "street": "Đường Sư Vạn Hạnh",
        "postal_code": "72508",
        "categories": [
            {
                "name": "Rạp chiếu phim"
            }
        ]
    },
    {
        "name": "My Cinema Room",
        "latitude": 10.81032,
        "longitude": 106.70403,
        "address": "My Cinema Room, Đường Chu Văn An, Phường 12, Quận Bình Thạnh, Hồ Chí Minh, Việt Nam",
        "country_code": "VNM",
        "country_name": "Việt Nam",
        "city": "Hồ Chí Minh",
        "district": "Quận Bình Thạnh",
        "ward": "Phường 12",
        "street": "Đường Chu Văn An",
        "postal_code": "72312",
        "categories": [
            {
                "name": "Rạp chiếu phim"
            }
        ]
    },
    {
        "name": "Phim Ttt",
        "latitude": 10.76979,
        "longitude": 106.66991,
        "address": "Phim Ttt, Hẻm 355 Sư Vạn Hạnh, Phường 12, Quận 10, Hồ Chí Minh, Việt Nam",
        "country_code": "VNM",
        "country_name": "Việt Nam",
        "city": "Hồ Chí Minh",
        "district": "Quận 10",
        "ward": "Phường 12",
        "street": "Hẻm 355 Sư Vạn Hạnh",
        "postal_code": "72510",
        "categories": [
            {
                "name": "Rạp chiếu phim"
            }
        ]
    },
    {
        "name": "CGV Sư Vạn Hạnh",
        "latitude": 10.7707,
        "longitude": 106.6697,
        "address": "CGV Sư Vạn Hạnh, Đường Sư Vạn Hạnh, Phường 12, Quận 10, Hồ Chí Minh, Việt Nam",
        "country_code": "VNM",
        "country_name": "Việt Nam",
        "city": "Hồ Chí Minh",
        "district": "Quận 10",
        "ward": "Phường 12",
        "street": "Đường Sư Vạn Hạnh",
        "postal_code": "72510",
        "categories": [
            {
                "name": "Rạp chiếu phim"
            },
            {
                "name": "Giải trí về đêm"
            }
        ]
    },
    {
        "name": "Rạp Phim Lotte Cinema",
        "latitude": 10.80929,
        "longitude": 106.71328,
        "address": "Rạp Phim Lotte Cinema, 26 Đường Ung Văn Khiêm, Phường 25, Quận Bình Thạnh, Hồ Chí Minh, Việt Nam",
        "country_code": "VNM",
        "country_name": "Việt Nam",
        "city": "Hồ Chí Minh",
        "district": "Quận Bình Thạnh",
        "ward": "Phường 25",
        "street": "Đường Ung Văn Khiêm",
        "postal_code": "72308",
        "categories": [
            {
                "name": "Rạp chiếu phim"
            },
            {
                "name": "Doanh nghiệp"
            }
        ]
    },
    {
        "name": "VTV Cần Thơ - Hãng Phim Tây Đô",
        "latitude": 10.80628,
        "longitude": 106.72029,
        "address": "VTV Cần Thơ - Hãng Phim Tây Đô, Đường Ung Văn Khiêm, Phường 25, Quận Bình Thạnh, Hồ Chí Minh, Việt Nam",
        "country_code": "VNM",
        "country_name": "Việt Nam",
        "city": "Hồ Chí Minh",
        "district": "Quận Bình Thạnh",
        "ward": "Phường 25",
        "street": "Đường Ung Văn Khiêm",
        "postal_code": "72308",
        "categories": [
            {
                "name": "Rạp chiếu phim"
            }
        ]
    },
    {
        "name": "Cinema Tan Son Nhat",
        "latitude": 10.79516,
        "longitude": 106.67223,
        "address": "Cinema Tan Son Nhat, Hẻm 74 Đường Trương Quốc Dung, Phường 10, Quận Phú Nhuận, Hồ Chí Minh, Việt Nam",
        "country_code": "VNM",
        "country_name": "Việt Nam",
        "city": "Hồ Chí Minh",
        "district": "Quận Phú Nhuận",
        "ward": "Phường 10",
        "street": "Hẻm 74 Đường Trương Quốc Dung",
        "postal_code": "72218",
        "categories": [
            {
                "name": "Rạp chiếu phim"
            }
        ]
    },
    {
        "name": "Lottecinema @ Dimond Plaza",
        "latitude": 10.81019,
        "longitude": 106.69029,
        "address": "Lottecinema @ Dimond Plaza, Đường Nguyễn Văn Đậu, Phường 5, Quận Bình Thạnh, Hồ Chí Minh, Việt Nam",
        "country_code": "VNM",
        "country_name": "Việt Nam",
        "city": "Hồ Chí Minh",
        "district": "Quận Bình Thạnh",
        "ward": "Phường 5",
        "street": "Đường Nguyễn Văn Đậu",
        "postal_code": "72314",
        "categories": [
            {
                "name": "Rạp chiếu phim"
            }
        ]
    },
    {
        "name": "Rạp Đồng Tháp",
        "latitude": 10.75423,
        "longitude": 106.67636,
        "address": "Rạp Đồng Tháp, 780 Đường Trần Hưng Đạo, Phường 7, Quận 5, Hồ Chí Minh, Việt Nam",
        "country_code": "VNM",
        "country_name": "Việt Nam",
        "city": "Hồ Chí Minh",
        "district": "Quận 5",
        "ward": "Phường 7",
        "street": "Đường Trần Hưng Đạo",
        "postal_code": "72707",
        "categories": [
            {
                "name": "Rạp chiếu phim"
            }
        ]
    }
]
