[
    {
        "name": "Parkson Lê Thánh Tôn Q1",
        "latitude": 10.77758,
        "longitude": 106.7024,
        "address": "Parkson Lê Thánh Tôn Q1, 152 Đường Lê Thánh Tôn, Phường Bến Nghé, Quận 1, Hồ Chí Minh, Việt Nam",
        "country_code": "VNM",
        "country_name": "Việt Nam",
        "city": "Hồ Chí Minh",
        "district": "Quận 1",
        "ward": "Phường Bến Nghé",
        "street": "Đường Lê Thánh Tôn",
        "postal_code": "71006",
        "categories": [
            {
                "name": "Cửa hàng bách hóa"
            },
            {
                "name": "Hàng tiêu dùng"
            },
            {
                "name": "Dụng cụ văn phòng và dịch vụ"
            },
            {
                "name": "Cửa hàng chuyên dụng"
            },
            {
                "name": "Quà tặng, đồ cổ và tác phẩm nghệ thuật"
            },
            {
                "name": "Doanh nghiệp"
            }
        ]
    },
    {
        "name": "O Hui",
        "latitude": 10.77773,
        "longitude": 106.70233,
        "address": "O Hui, 35BIS Đường Lê Thánh Tôn, Phường Bến Nghé, Quận 1, Hồ Chí Minh, Việt Nam",
        "country_code": "VNM",
        "country_name": "Việt Nam",
        "city": "Hồ Chí Minh",
        "district": "Quận 1",
        "ward": "Phường Bến Nghé",
        "street": "Đường Lê Thánh Tôn",
        "postal_code": "71006",
        "categories": [
            {
                "name": "Cửa hàng bách hóa"
            }
        ]
    },
    {
        "name": "PARKSON",
        "latitude": 10.77773,
        "longitude": 106.70233,
        "address": "PARKSON, Đường Lê Thánh Tôn, Phường Bến Nghé, Quận 1, Hồ Chí Minh, Việt Nam",
        "country_code": "VNM",
        "country_name": "Việt Nam",
        "city": "Hồ Chí Minh",
        "district": "Quận 1",
        "ward": "Phường Bến Nghé",
        "street": "Đường Lê Thánh Tôn",
        "postal_code": "71006",
        "categories": [
            {
                "name": "Trung tâm mua sắm hoặc trung tâm thương mại"
            },
            {
                "name": "Cửa hàng bách hóa"
            }
        ]
    },
    {
        "name": "L' Occitane",
        "latitude": 10.77828,
        "longitude": 106.70299,
        "address": "L' Occitane, 45 Đường Lê Thánh Tôn, Phường Bến Nghé, Quận 1, Hồ Chí Minh, Việt Nam",
        "country_code": "VNM",
        "country_name": "Việt Nam",
        "city": "Hồ Chí Minh",
        "district": "Quận 1",
        "ward": "Phường Bến Nghé",
        "street": "Đường Lê Thánh Tôn",
        "postal_code": "71006",
        "categories": [
            {
                "name": "Cửa hàng bách hóa"
            },
            {
                "name": "Cắt tóc & Tạo mẫu"
            }
        ]
    },
    {
        "name": "Menard Facial Salon",
        "latitude": 10.77828,
        "longitude": 106.70299,
        "address": "Menard Facial Salon, 45 Đường Lê Thánh Tôn, Phường Bến Nghé, Quận 1, Hồ Chí Minh, Việt Nam",
        "country_code": "VNM",
        "country_name": "Việt Nam",
        "city": "Hồ Chí Minh",
        "district": "Quận 1",
        "ward": "Phường Bến Nghé",
        "street": "Đường Lê Thánh Tôn",
        "postal_code": "71006",
        "categories": [
            {
                "name": "Cửa hàng bách hóa"
            }
        ]
    },
    {
        "name": "Nike-Vincom Đồng Khởi",
        "latitude": 10.7787,
        "longitude": 106.70188,
        "address": "Nike-Vincom Đồng Khởi, 45 Đường Lý Tự Trọng, Phường Bến Nghé, Quận 1, Hồ Chí Minh, Việt Nam",
        "country_code": "VNM",
        "country_name": "Việt Nam",
        "city": "Hồ Chí Minh",
        "district": "Quận 1",
        "ward": "Phường Bến Nghé",
        "street": "Đường Lý Tự Trọng",
        "postal_code": "71006",
        "categories": [
            {
                "name": "Cửa hàng bách hóa"
            },
            {
                "name": "Quần áo & Phụ kiện"
            },
            {
                "name": "Quần áo phụ nữ"
            },
            {
                "name": "Hàng tiêu dùng"
            },
            {
                "name": "Cửa hàng chuyên dụng"
            },
            {
                "name": "Dịch vụ kinh doanh"
            }
        ]
    },
    {
        "name": "VINCOM",
        "latitude": 10.7787,
        "longitude": 106.70188,
        "address": "VINCOM, 45 Đường Lý Tự Trọng, Phường Bến Nghé, Quận 1, Hồ Chí Minh, Việt Nam",
        "country_code": "VNM",
        "country_name": "Việt Nam",
        "city": "Hồ Chí Minh",
        "district": "Quận 1",
        "ward": "Phường Bến Nghé",
        "street": "Đường Lý Tự Trọng",
        "postal_code": "71006",
        "categories": [
            {
                "name": "Trung tâm mua sắm hoặc trung tâm thương mại"
            },
            {
                "name": "Cửa hàng tiện lợi"
            },
            {
                "name": "Cửa hàng bách hóa"
            },
            {
                "name": "Quần áo & Phụ kiện"
            },
            {
                "name": "Quần áo nam"
            },
            {
                "name": "Quần áo phụ nữ"
            },
            {
                "name": "Quần áo trẻ em"
            },
            {
                "name": "Thợ kim hoàn"
            },
            {
                "name": "Cửa hàng đồ chơi"
            },
            {
                "name": "Cắt tóc & Tạo mẫu"
            },
            {
                "name": "Doanh nghiệp"
            },
            {
                "name": "Đỗ xe"
            }
        ]
    },
    {
        "name": "Trung Tâm Thương Mại Opera View",
        "latitude": 10.77614,
        "longitude": 106.70295,
        "address": "Trung Tâm Thương Mại Opera View, 161 Đường Đồng Khởi, Phường Bến Nghé, Quận 1, Hồ Chí Minh, Việt Nam",
        "country_code": "VNM",
        "country_name": "Việt Nam",
        "city": "Hồ Chí Minh",
        "district": "Quận 1",
        "ward": "Phường Bến Nghé",
        "street": "Đường Đồng Khởi",
        "postal_code": "71006",
        "categories": [
            {
                "name": "Trung tâm mua sắm hoặc trung tâm thương mại"
            },
            {
                "name": "Cửa hàng bách hóa"
            }
        ]
    },
    {
        "name": "Hot & Cold - Trà Sữa & Xiên Que - Unionsquare",
        "latitude": 10.77684,
        "longitude": 106.70153,
        "address": "Hot & Cold - Trà Sữa & Xiên Que - Unionsquare, Đường Lê Thánh Tôn, Phường Bến Nghé, Quận 1, Hồ Chí Minh, Việt Nam",
        "country_code": "VNM",
        "country_name": "Việt Nam",
        "city": "Hồ Chí Minh",
        "district": "Quận 1",
        "ward": "Phường Bến Nghé",
        "street": "Đường Lê Thánh Tôn",
        "postal_code": "71006",
        "categories": [
            {
                "name": "Nhà hàng"
            },
            {
                "name": "Cà Phê/Trà"
            },
            {
                "name": "Phòng trà"
            },
            {
                "name": "Cửa hàng bách hóa"
            },
            {
                "name": "Hiệu bánh"
            }
        ]
    },
    {
        "name": "Jimmy Choo",
        "latitude": 10.77827,
        "longitude": 106.70147,
        "address": "Jimmy Choo, Đường Lý Tự Trọng, Phường Bến Nghé, Quận 1, Hồ Chí Minh, Việt Nam",
        "country_code": "VNM",
        "country_name": "Việt Nam",
        "city": "Hồ Chí Minh",
        "district": "Quận 1",
        "ward": "Phường Bến Nghé",
        "street": "Đường Lý Tự Trọng",
        "postal_code": "71006",
        "categories": [
            {
                "name": "Cửa hàng bách hóa"
            }
        ]
    },
    {
        "name": "Trung Tâm Thương Mại Union Square",
        "latitude": 10.77621,
        "longitude": 106.70179,
        "address": "Trung Tâm Thương Mại Union Square, Đường Nguyễn Huệ, Phường Bến Nghé, Quận 1, Hồ Chí Minh, Việt Nam",
        "country_code": "VNM",
        "country_name": "Việt Nam",
        "city": "Hồ Chí Minh",
        "district": "Quận 1",
        "ward": "Phường Bến Nghé",
        "street": "Đường Nguyễn Huệ",
        "postal_code": "71006",
        "categories": [
            {
                "name": "Trung tâm mua sắm hoặc trung tâm thương mại"
            },
            {
                "name": "Cửa hàng bách hóa"
            }
        ]
    },
    {
        "name": "Pierre Cardin",
        "latitude": 10.77573,
        "longitude": 106.70211,
        "address": "Pierre Cardin, Đường Nguyễn Huệ, Phường Bến Nghé, Quận 1, Hồ Chí Minh, Việt Nam",
        "country_code": "VNM",
        "country_name": "Việt Nam",
        "city": "Hồ Chí Minh",
        "district": "Quận 1",
        "ward": "Phường Bến Nghé",
        "street": "Đường Nguyễn Huệ",
        "postal_code": "71006",
        "categories": [
            {
                "name": "Cửa hàng bách hóa"
            }
        ]
    },
    {
        "name": "Annam Gourmet",
        "latitude": 10.77668,
        "longitude": 106.7051,
        "address": "Annam Gourmet, Đường Hai Bà Trưng, Phường Bến Nghé, Quận 1, Hồ Chí Minh, Việt Nam",
        "country_code": "VNM",
        "country_name": "Việt Nam",
        "city": "Hồ Chí Minh",
        "district": "Quận 1",
        "ward": "Phường Bến Nghé",
        "street": "Đường Hai Bà Trưng",
        "postal_code": "71006",
        "categories": [
            {
                "name": "Cửa hàng bách hóa"
            }
        ]
    },
    {
        "name": "Shop Mỹ Phẩm Clarins Paris",
        "latitude": 10.77496,
        "longitude": 106.70242,
        "address": "Shop Mỹ Phẩm Clarins Paris, 135 Đường Nguyễn Huệ, Phường Bến Nghé, Quận 1, Hồ Chí Minh, Việt Nam",
        "country_code": "VNM",
        "country_name": "Việt Nam",
        "city": "Hồ Chí Minh",
        "district": "Quận 1",
        "ward": "Phường Bến Nghé",
        "street": "Đường Nguyễn Huệ",
        "postal_code": "71006",
        "categories": [
            {
                "name": "Cửa hàng bách hóa"
            },
            {
                "name": "Cắt tóc & Tạo mẫu"
            }
        ]
    },
    {
        "name": "Paris & France",
        "latitude": 10.77496,
        "longitude": 106.70242,
        "address": "Paris & France, 135 Đường Nguyễn Huệ, Phường Bến Nghé, Quận 1, Hồ Chí Minh, Việt Nam",
        "country_code": "VNM",
        "country_name": "Việt Nam",
        "city": "Hồ Chí Minh",
        "district": "Quận 1",
        "ward": "Phường Bến Nghé",
        "street": "Đường Nguyễn Huệ",
        "postal_code": "71006",
        "categories": [
            {
                "name": "Cửa hàng bách hóa"
            }
        ]
    },
    {
        "name": "L'Occitane At Parkson",
        "latitude": 10.77496,
        "longitude": 106.70242,
        "address": "L'Occitane At Parkson, 135 Đường Nguyễn Huệ, Phường Bến Nghé, Quận 1, Hồ Chí Minh, Việt Nam",
        "country_code": "VNM",
        "country_name": "Việt Nam",
        "city": "Hồ Chí Minh",
        "district": "Quận 1",
        "ward": "Phường Bến Nghé",
        "street": "Đường Nguyễn Huệ",
        "postal_code": "71006",
        "categories": [
            {
                "name": "Cửa hàng bách hóa"
            },
            {
                "name": "Cắt tóc & Tạo mẫu"
            }
        ]
    },
    {
        "name": "Shiseido",
        "latitude": 10.77496,
        "longitude": 106.70242,
        "address": "Shiseido, 135 Đường Nguyễn Huệ, Phường Bến Nghé, Quận 1, Hồ Chí Minh, Việt Nam",
        "country_code": "VNM",
        "country_name": "Việt Nam",
        "city": "Hồ Chí Minh",
        "district": "Quận 1",
        "ward": "Phường Bến Nghé",
        "street": "Đường Nguyễn Huệ",
        "postal_code": "71006",
        "categories": [
            {
                "name": "Cửa hàng bách hóa"
            }
        ]
    },
    {
        "name": "Cửa Hàng Pierre Cardin",
        "latitude": 10.77476,
        "longitude": 106.70442,
        "address": "Cửa Hàng Pierre Cardin, 89 Đường Đồng Khởi, Phường Bến Nghé, Quận 1, Hồ Chí Minh, Việt Nam",
        "country_code": "VNM",
        "country_name": "Việt Nam",
        "city": "Hồ Chí Minh",
        "district": "Quận 1",
        "ward": "Phường Bến Nghé",
        "street": "Đường Đồng Khởi",
        "postal_code": "71006",
        "categories": [
            {
                "name": "Cửa hàng bách hóa"
            },
            {
                "name": "Cắt tóc & Tạo mẫu"
            }
        ]
    },
    {
        "name": "Tòa Nhà Saigon Plaza",
        "latitude": 10.7804,
        "longitude": 106.70454,
        "address": "Tòa Nhà Saigon Plaza, Đường Lê Thánh Tôn, Phường Bến Nghé, Quận 1, Hồ Chí Minh, Việt Nam",
        "country_code": "VNM",
        "country_name": "Việt Nam",
        "city": "Hồ Chí Minh",
        "district": "Quận 1",
        "ward": "Phường Bến Nghé",
        "street": "Đường Lê Thánh Tôn",
        "postal_code": "71006",
        "categories": [
            {
                "name": "Cửa hàng bách hóa"
            },
            {
                "name": "Doanh nghiệp"
            }
        ]
    },
    {
        "name": "Trung Tâm Thương Mại Quốc Tế Ibc",
        "latitude": 10.77611,
        "longitude": 106.70645,
        "address": "Trung Tâm Thương Mại Quốc Tế Ibc, Đường Công Trường Mê Linh, Phường Bến Nghé, Quận 1, Hồ Chí Minh, Việt Nam",
        "country_code": "VNM",
        "country_name": "Việt Nam",
        "city": "Hồ Chí Minh",
        "district": "Quận 1",
        "ward": "Phường Bến Nghé",
        "street": "Đường Công Trường Mê Linh",
        "postal_code": "71006",
        "categories": [
            {
                "name": "Cửa hàng bách hóa"
            },
            {
                "name": "Trung tâm mua sắm hoặc trung tâm thương mại"
            }
        ]
    },
    {
        "name": "Cửa Hàng Circle K",
        "latitude": 10.77438,
        "longitude": 106.70507,
        "address": "Cửa Hàng Circle K, 24 Đường Hồ Huấn Nghiệp, Phường Bến Nghé, Quận 1, Hồ Chí Minh, Việt Nam",
        "country_code": "VNM",
        "country_name": "Việt Nam",
        "city": "Hồ Chí Minh",
        "district": "Quận 1",
        "ward": "Phường Bến Nghé",
        "street": "Đường Hồ Huấn Nghiệp",
        "postal_code": "71006",
        "categories": [
            {
                "name": "Cửa hàng bách hóa"
            }
        ]
    },
    {
        "name": "Trung Tâm Thương Mại Lucky Plaza",
        "latitude": 10.77386,
        "longitude": 106.70422,
        "address": "Trung Tâm Thương Mại Lucky Plaza, 38 Đường Nguyễn Huệ, Phường Bến Nghé, Quận 1, Hồ Chí Minh, Việt Nam",
        "country_code": "VNM",
        "country_name": "Việt Nam",
        "city": "Hồ Chí Minh",
        "district": "Quận 1",
        "ward": "Phường Bến Nghé",
        "street": "Đường Nguyễn Huệ",
        "postal_code": "71006",
        "categories": [
            {
                "name": "Trung tâm mua sắm hoặc trung tâm thương mại"
            },
            {
                "name": "Cửa hàng bách hóa"
            },
            {
                "name": "Siêu thị"
            },
            {
                "name": "Quà tặng, đồ cổ và tác phẩm nghệ thuật"
            }
        ]
    },
    {
        "name": "Lg Vina",
        "latitude": 10.77377,
        "longitude": 106.70428,
        "address": "Lg Vina, 35 Đường Nguyễn Huệ, Phường Bến Nghé, Quận 1, Hồ Chí Minh, Việt Nam",
        "country_code": "VNM",
        "country_name": "Việt Nam",
        "city": "Hồ Chí Minh",
        "district": "Quận 1",
        "ward": "Phường Bến Nghé",
        "street": "Đường Nguyễn Huệ",
        "postal_code": "71006",
        "categories": [
            {
                "name": "Cửa hàng bách hóa"
            }
        ]
    },
    {
        "name": "Cửa Hàng Thế Giới Nước Hoa",
        "latitude": 10.7732,
        "longitude": 106.70295,
        "address": "Cửa Hàng Thế Giới Nước Hoa, 12 Đường Huỳnh Thúc Kháng, Phường Bến Nghé, Quận 1, Hồ Chí Minh, Việt Nam",
        "country_code": "VNM",
        "country_name": "Việt Nam",
        "city": "Hồ Chí Minh",
        "district": "Quận 1",
        "ward": "Phường Bến Nghé",
        "street": "Đường Huỳnh Thúc Kháng",
        "postal_code": "71006",
        "categories": [
            {
                "name": "Cửa hàng bách hóa"
            },
            {
                "name": "Cắt tóc & Tạo mẫu"
            }
        ]
    },
    {
        "name": "Run Way",
        "latitude": 10.7733,
        "longitude": 106.7012,
        "address": "Run Way, 141 Đường Pasteur, Phường Bến Nghé, Quận 1, Hồ Chí Minh, Việt Nam",
        "country_code": "VNM",
        "country_name": "Việt Nam",
        "city": "Hồ Chí Minh",
        "district": "Quận 1",
        "ward": "Phường Bến Nghé",
        "street": "Đường Pasteur",
        "postal_code": "71006",
        "categories": [
            {
                "name": "Cửa hàng bách hóa"
            }
        ]
    },
    {
        "name": "3A Station",
        "latitude": 10.77959,
        "longitude": 106.70702,
        "address": "3A Station, 3A Đường Tôn Đức Thắng, Phường Bến Nghé, Quận 1, Hồ Chí Minh, Việt Nam",
        "country_code": "VNM",
        "country_name": "Việt Nam",
        "city": "Hồ Chí Minh",
        "district": "Quận 1",
        "ward": "Phường Bến Nghé",
        "street": "Đường Tôn Đức Thắng",
        "postal_code": "71006",
        "categories": [
            {
                "name": "Cửa hàng bách hóa"
            },
            {
                "name": "Trung tâm mua sắm hoặc trung tâm thương mại"
            }
        ]
    },
    {
        "name": "Minigood",
        "latitude": 10.77352,
        "longitude": 106.70061,
        "address": "Minigood, Đường Lê Lợi, Phường Bến Nghé, Quận 1, Hồ Chí Minh, Việt Nam",
        "country_code": "VNM",
        "country_name": "Việt Nam",
        "city": "Hồ Chí Minh",
        "district": "Quận 1",
        "ward": "Phường Bến Nghé",
        "street": "Đường Lê Lợi",
        "postal_code": "71006",
        "categories": [
            {
                "name": "Cửa hàng chuyên dụng"
            },
            {
                "name": "Cửa hàng tiện lợi"
            },
            {
                "name": "Cửa hàng bách hóa"
            }
        ]
    },
    {
        "name": "Takashimaya Vn",
        "latitude": 10.77348,
        "longitude": 106.70052,
        "address": "Takashimaya Vn, Đường Lê Lợi, Phường Bến Nghé, Quận 1, Hồ Chí Minh, Việt Nam",
        "country_code": "VNM",
        "country_name": "Việt Nam",
        "city": "Hồ Chí Minh",
        "district": "Quận 1",
        "ward": "Phường Bến Nghé",
        "street": "Đường Lê Lợi",
        "postal_code": "71006",
        "categories": [
            {
                "name": "Cửa hàng bách hóa"
            }
        ]
    },
    {
        "name": "Watsons Retail Store-B",
        "latitude": 10.77309,
        "longitude": 106.70426,
        "address": "Watsons Retail Store-B, 1 Đường Hải Triều, Phường Bến Nghé, Quận 1, Hồ Chí Minh, Việt Nam",
        "country_code": "VNM",
        "country_name": "Việt Nam",
        "city": "Hồ Chí Minh",
        "district": "Quận 1",
        "ward": "Phường Bến Nghé",
        "street": "Đường Hải Triều",
        "postal_code": "71006",
        "categories": [
            {
                "name": "Cửa hàng bách hóa"
            }
        ]
    },
    {
        "name": "Savico Plaza",
        "latitude": 10.77284,
        "longitude": 106.70332,
        "address": "Savico Plaza, 115-117 Đường Hồ Tùng Mậu, Phường Bến Nghé, Quận 1, Hồ Chí Minh, Việt Nam",
        "country_code": "VNM",
        "country_name": "Việt Nam",
        "city": "Hồ Chí Minh",
        "district": "Quận 1",
        "ward": "Phường Bến Nghé",
        "street": "Đường Hồ Tùng Mậu",
        "postal_code": "71006",
        "categories": [
            {
                "name": "Cửa hàng bách hóa"
            }
        ]
    },
    {
        "name": "Dermalogica",
        "latitude": 10.7729,
        "longitude": 106.70173,
        "address": "Dermalogica, Đường Pasteur, Phường Bến Nghé, Quận 1, Hồ Chí Minh, Việt Nam",
        "country_code": "VNM",
        "country_name": "Việt Nam",
        "city": "Hồ Chí Minh",
        "district": "Quận 1",
        "ward": "Phường Bến Nghé",
        "street": "Đường Pasteur",
        "postal_code": "71006",
        "categories": [
            {
                "name": "Cửa hàng bách hóa"
            },
            {
                "name": "Cửa hàng chuyên dụng"
            },
            {
                "name": "Cắt tóc & Tạo mẫu"
            }
        ]
    },
    {
        "name": "Takashimaya Ho Chi Minh City",
        "latitude": 10.77328,
        "longitude": 106.70057,
        "address": "Takashimaya Ho Chi Minh City, Đường Lê Lợi, Phường Bến Nghé, Quận 1, Hồ Chí Minh, Việt Nam",
        "country_code": "VNM",
        "country_name": "Việt Nam",
        "city": "Hồ Chí Minh",
        "district": "Quận 1",
        "ward": "Phường Bến Nghé",
        "street": "Đường Lê Lợi",
        "postal_code": "71006",
        "categories": [
            {
                "name": "Trung tâm mua sắm hoặc trung tâm thương mại"
            },
            {
                "name": "Cửa hàng bách hóa"
            }
        ]
    },
    {
        "name": "Cửa Hàng Mỹ Phẩm Vichy Takashimaya",
        "latitude": 10.77331,
        "longitude": 106.70036,
        "address": "Cửa Hàng Mỹ Phẩm Vichy Takashimaya, 65 Đường Lê Lợi, Phường Bến Nghé, Quận 1, Hồ Chí Minh, Việt Nam",
        "country_code": "VNM",
        "country_name": "Việt Nam",
        "city": "Hồ Chí Minh",
        "district": "Quận 1",
        "ward": "Phường Bến Nghé",
        "street": "Đường Lê Lợi",
        "postal_code": "71006",
        "categories": [
            {
                "name": "Cửa hàng bách hóa"
            },
            {
                "name": "Cửa hàng chuyên dụng"
            },
            {
                "name": "Cắt tóc & Tạo mẫu"
            },
            {
                "name": "Doanh nghiệp"
            },
            {
                "name": "Trung tâm chăm sóc sức khỏe & Dịch vụ"
            }
        ]
    },
    {
        "name": "Nagakawa",
        "latitude": 10.77271,
        "longitude": 106.70351,
        "address": "Nagakawa, Đường Hồ Tùng Mậu, Phường Bến Nghé, Quận 1, Hồ Chí Minh, Việt Nam",
        "country_code": "VNM",
        "country_name": "Việt Nam",
        "city": "Hồ Chí Minh",
        "district": "Quận 1",
        "ward": "Phường Bến Nghé",
        "street": "Đường Hồ Tùng Mậu",
        "postal_code": "71006",
        "categories": [
            {
                "name": "Cửa hàng bách hóa"
            }
        ]
    },
    {
        "name": "Annam Gourmet Market",
        "latitude": 10.77318,
        "longitude": 106.70021,
        "address": "Annam Gourmet Market, Đường Nam Kỳ Khởi Nghĩa, Phường Bến Thành, Quận 1, Hồ Chí Minh, Việt Nam",
        "country_code": "VNM",
        "country_name": "Việt Nam",
        "city": "Hồ Chí Minh",
        "district": "Quận 1",
        "ward": "Phường Bến Thành",
        "street": "Đường Nam Kỳ Khởi Nghĩa",
        "postal_code": "71009",
        "categories": [
            {
                "name": "Trung tâm mua sắm hoặc trung tâm thương mại"
            },
            {
                "name": "Cửa hàng bách hóa"
            }
        ]
    },
    {
        "name": "Thanh Phương",
        "latitude": 10.77391,
        "longitude": 106.69918,
        "address": "Thanh Phương, 19 Đường Nguyễn Trung Trực, Phường Bến Thành, Quận 1, Hồ Chí Minh, Việt Nam",
        "country_code": "VNM",
        "country_name": "Việt Nam",
        "city": "Hồ Chí Minh",
        "district": "Quận 1",
        "ward": "Phường Bến Thành",
        "street": "Đường Nguyễn Trung Trực",
        "postal_code": "71009",
        "categories": [
            {
                "name": "Cửa hàng bách hóa"
            }
        ]
    },
    {
        "name": "Anh & Quân",
        "latitude": 10.78215,
        "longitude": 106.70023,
        "address": "Anh & Quân, 37 Đường Lê Duẩn, Phường Bến Nghé, Quận 1, Hồ Chí Minh, Việt Nam",
        "country_code": "VNM",
        "country_name": "Việt Nam",
        "city": "Hồ Chí Minh",
        "district": "Quận 1",
        "ward": "Phường Bến Nghé",
        "street": "Đường Lê Duẩn",
        "postal_code": "71006",
        "categories": [
            {
                "name": "Cửa hàng bách hóa"
            }
        ]
    },
    {
        "name": "Issey Miyake",
        "latitude": 10.78064,
        "longitude": 106.69847,
        "address": "Issey Miyake, 34 Đường Lê Duẩn, Phường Bến Nghé, Quận 1, Hồ Chí Minh, Việt Nam",
        "country_code": "VNM",
        "country_name": "Việt Nam",
        "city": "Hồ Chí Minh",
        "district": "Quận 1",
        "ward": "Phường Bến Nghé",
        "street": "Đường Lê Duẩn",
        "postal_code": "71006",
        "categories": [
            {
                "name": "Cửa hàng bách hóa"
            }
        ]
    },
    {
        "name": "The Face Shop",
        "latitude": 10.78064,
        "longitude": 106.69847,
        "address": "The Face Shop, 34 Đường Lê Duẩn, Phường Bến Nghé, Quận 1, Hồ Chí Minh, Việt Nam",
        "country_code": "VNM",
        "country_name": "Việt Nam",
        "city": "Hồ Chí Minh",
        "district": "Quận 1",
        "ward": "Phường Bến Nghé",
        "street": "Đường Lê Duẩn",
        "postal_code": "71006",
        "categories": [
            {
                "name": "Cửa hàng bách hóa"
            }
        ]
    },
    {
        "name": "Kanebo",
        "latitude": 10.78064,
        "longitude": 106.69847,
        "address": "Kanebo, 34 Đường Lê Duẩn, Phường Bến Nghé, Quận 1, Hồ Chí Minh, Việt Nam",
        "country_code": "VNM",
        "country_name": "Việt Nam",
        "city": "Hồ Chí Minh",
        "district": "Quận 1",
        "ward": "Phường Bến Nghé",
        "street": "Đường Lê Duẩn",
        "postal_code": "71006",
        "categories": [
            {
                "name": "Cửa hàng bách hóa"
            }
        ]
    },
    {
        "name": "O Hui",
        "latitude": 10.78064,
        "longitude": 106.69847,
        "address": "O Hui, 34 Đường Lê Duẩn, Phường Bến Nghé, Quận 1, Hồ Chí Minh, Việt Nam",
        "country_code": "VNM",
        "country_name": "Việt Nam",
        "city": "Hồ Chí Minh",
        "district": "Quận 1",
        "ward": "Phường Bến Nghé",
        "street": "Đường Lê Duẩn",
        "postal_code": "71006",
        "categories": [
            {
                "name": "Cửa hàng bách hóa"
            }
        ]
    },
    {
        "name": "Cửa Hàng Mỹ Phẩm Clarins",
        "latitude": 10.78064,
        "longitude": 106.69847,
        "address": "Cửa Hàng Mỹ Phẩm Clarins, 34 Đường Lê Duẩn, Phường Bến Nghé, Quận 1, Hồ Chí Minh, Việt Nam",
        "country_code": "VNM",
        "country_name": "Việt Nam",
        "city": "Hồ Chí Minh",
        "district": "Quận 1",
        "ward": "Phường Bến Nghé",
        "street": "Đường Lê Duẩn",
        "postal_code": "71006",
        "categories": [
            {
                "name": "Cửa hàng bách hóa"
            }
        ]
    },
    {
        "name": "Bvgari Bvgari",
        "latitude": 10.78064,
        "longitude": 106.69847,
        "address": "Bvgari Bvgari, 34 Đường Lê Duẩn, Phường Bến Nghé, Quận 1, Hồ Chí Minh, Việt Nam",
        "country_code": "VNM",
        "country_name": "Việt Nam",
        "city": "Hồ Chí Minh",
        "district": "Quận 1",
        "ward": "Phường Bến Nghé",
        "street": "Đường Lê Duẩn",
        "postal_code": "71006",
        "categories": [
            {
                "name": "Cửa hàng bách hóa"
            }
        ]
    },
    {
        "name": "Ck Calvin Klein Diamond",
        "latitude": 10.78086,
        "longitude": 106.69851,
        "address": "Ck Calvin Klein Diamond, Đường Lê Duẩn, Phường Bến Nghé, Quận 1, Hồ Chí Minh, Việt Nam",
        "country_code": "VNM",
        "country_name": "Việt Nam",
        "city": "Hồ Chí Minh",
        "district": "Quận 1",
        "ward": "Phường Bến Nghé",
        "street": "Đường Lê Duẩn",
        "postal_code": "71006",
        "categories": [
            {
                "name": "Cửa hàng bách hóa"
            }
        ]
    },
    {
        "name": "Diamond Department Store",
        "latitude": 10.7807,
        "longitude": 106.69823,
        "address": "Diamond Department Store, Đường Phạm Ngọc Thạch, Phường Bến Nghé, Quận 1, Hồ Chí Minh, Việt Nam",
        "country_code": "VNM",
        "country_name": "Việt Nam",
        "city": "Hồ Chí Minh",
        "district": "Quận 1",
        "ward": "Phường Bến Nghé",
        "street": "Đường Phạm Ngọc Thạch",
        "postal_code": "71006",
        "categories": [
            {
                "name": "Cửa hàng bách hóa"
            }
        ]
    },
    {
        "name": "Saigon Square",
        "latitude": 10.78136,
        "longitude": 106.70687,
        "address": "Saigon Square, Đường Tôn Đức Thắng, Phường Bến Nghé, Quận 1, Hồ Chí Minh, Việt Nam",
        "country_code": "VNM",
        "country_name": "Việt Nam",
        "city": "Hồ Chí Minh",
        "district": "Quận 1",
        "ward": "Phường Bến Nghé",
        "street": "Đường Tôn Đức Thắng",
        "postal_code": "71006",
        "categories": [
            {
                "name": "Cửa hàng bách hóa"
            },
            {
                "name": "Trung tâm mua sắm hoặc trung tâm thương mại"
            }
        ]
    },
    {
        "name": "Sài Gòn Square",
        "latitude": 10.77263,
        "longitude": 106.70032,
        "address": "Sài Gòn Square, 77-79 Đường Nam Kỳ Khởi Nghĩa, Phường Bến Thành, Quận 1, Hồ Chí Minh, Việt Nam",
        "country_code": "VNM",
        "country_name": "Việt Nam",
        "city": "Hồ Chí Minh",
        "district": "Quận 1",
        "ward": "Phường Bến Thành",
        "street": "Đường Nam Kỳ Khởi Nghĩa",
        "postal_code": "71009",
        "categories": [
            {
                "name": "Cửa hàng bách hóa"
            }
        ]
    },
    {
        "name": "Saigon Square Hoàng Thành",
        "latitude": 10.77265,
        "longitude": 106.69975,
        "address": "Saigon Square Hoàng Thành, Đường Lê Lợi, Phường Bến Thành, Quận 1, Hồ Chí Minh, Việt Nam",
        "country_code": "VNM",
        "country_name": "Việt Nam",
        "city": "Hồ Chí Minh",
        "district": "Quận 1",
        "ward": "Phường Bến Thành",
        "street": "Đường Lê Lợi",
        "postal_code": "71009",
        "categories": [
            {
                "name": "Cửa hàng bách hóa"
            },
            {
                "name": "Quần áo nam"
            },
            {
                "name": "Quần áo phụ nữ"
            },
            {
                "name": "Cửa hàng chuyên dụng"
            }
        ]
    },
    {
        "name": "Parkon Shopping Mall",
        "latitude": 10.77367,
        "longitude": 106.69848,
        "address": "Parkon Shopping Mall, 1 Đường Lê Thánh Tôn, Phường Bến Thành, Quận 1, Hồ Chí Minh, Việt Nam",
        "country_code": "VNM",
        "country_name": "Việt Nam",
        "city": "Hồ Chí Minh",
        "district": "Quận 1",
        "ward": "Phường Bến Thành",
        "street": "Đường Lê Thánh Tôn",
        "postal_code": "71009",
        "categories": [
            {
                "name": "Cửa hàng bách hóa"
            }
        ]
    },
    {
        "name": "Trung Tâm Diamond Plaza",
        "latitude": 10.78068,
        "longitude": 106.69771,
        "address": "Trung Tâm Diamond Plaza, Đường Alexandre De Rhodes, Phường Bến Nghé, Quận 1, Hồ Chí Minh, Việt Nam",
        "country_code": "VNM",
        "country_name": "Việt Nam",
        "city": "Hồ Chí Minh",
        "district": "Quận 1",
        "ward": "Phường Bến Nghé",
        "street": "Đường Alexandre De Rhodes",
        "postal_code": "71006",
        "categories": [
            {
                "name": "Cửa hàng bách hóa"
            }
        ]
    },
    {
        "name": "Benthanh Boutiques",
        "latitude": 10.77283,
        "longitude": 106.69921,
        "address": "Benthanh Boutiques, Đường Lê Lợi, Phường Bến Thành, Quận 1, Hồ Chí Minh, Việt Nam",
        "country_code": "VNM",
        "country_name": "Việt Nam",
        "city": "Hồ Chí Minh",
        "district": "Quận 1",
        "ward": "Phường Bến Thành",
        "street": "Đường Lê Lợi",
        "postal_code": "71009",
        "categories": [
            {
                "name": "Trung tâm mua sắm hoặc trung tâm thương mại"
            },
            {
                "name": "Cửa hàng bách hóa"
            },
            {
                "name": "Quần áo & Phụ kiện"
            }
        ]
    },
    {
        "name": "District 5",
        "latitude": 10.7735,
        "longitude": 106.69796,
        "address": "District 5, Đường Lê Thánh Tôn, Phường Bến Thành, Quận 1, Hồ Chí Minh, Việt Nam",
        "country_code": "VNM",
        "country_name": "Việt Nam",
        "city": "Hồ Chí Minh",
        "district": "Quận 1",
        "ward": "Phường Bến Thành",
        "street": "Đường Lê Thánh Tôn",
        "postal_code": "71009",
        "categories": [
            {
                "name": "Cửa hàng bách hóa"
            }
        ]
    },
    {
        "name": "Cửa Hàng Tạp Hóa Tân Di Thái",
        "latitude": 10.77109,
        "longitude": 106.70352,
        "address": "Cửa Hàng Tạp Hóa Tân Di Thái, 76 Đường Hàm Nghi, Phường Bến Nghé, Quận 1, Hồ Chí Minh, Việt Nam",
        "country_code": "VNM",
        "country_name": "Việt Nam",
        "city": "Hồ Chí Minh",
        "district": "Quận 1",
        "ward": "Phường Bến Nghé",
        "street": "Đường Hàm Nghi",
        "postal_code": "71006",
        "categories": [
            {
                "name": "Cửa hàng bách hóa"
            }
        ]
    },
    {
        "name": "Trung Tâm Thương Mại Sài Gòn",
        "latitude": 10.7841,
        "longitude": 106.70418,
        "address": "Trung Tâm Thương Mại Sài Gòn, Đường Tôn Đức Thắng, Phường Bến Nghé, Quận 1, Hồ Chí Minh, Việt Nam",
        "country_code": "VNM",
        "country_name": "Việt Nam",
        "city": "Hồ Chí Minh",
        "district": "Quận 1",
        "ward": "Phường Bến Nghé",
        "street": "Đường Tôn Đức Thắng",
        "postal_code": "71006",
        "categories": [
            {
                "name": "Cửa hàng bách hóa"
            }
        ]
    },
    {
        "name": "Olive Tree",
        "latitude": 10.77436,
        "longitude": 106.69662,
        "address": "Olive Tree, 53 Hẻm 65 Thủ Khoa Huân, Phường Bến Thành, Quận 1, Hồ Chí Minh, Việt Nam",
        "country_code": "VNM",
        "country_name": "Việt Nam",
        "city": "Hồ Chí Minh",
        "district": "Quận 1",
        "ward": "Phường Bến Thành",
        "street": "Hẻm 65 Thủ Khoa Huân",
        "postal_code": "71009",
        "categories": [
            {
                "name": "Cửa hàng bách hóa"
            }
        ]
    },
    {
        "name": "TMDV Phương Phát",
        "latitude": 10.78445,
        "longitude": 106.70375,
        "address": "TMDV Phương Phát, 37 Đường Tôn Đức Thắng, Phường Bến Nghé, Quận 1, Hồ Chí Minh, Việt Nam",
        "country_code": "VNM",
        "country_name": "Việt Nam",
        "city": "Hồ Chí Minh",
        "district": "Quận 1",
        "ward": "Phường Bến Nghé",
        "street": "Đường Tôn Đức Thắng",
        "postal_code": "71006",
        "categories": [
            {
                "name": "Cửa hàng bách hóa"
            },
            {
                "name": "Cắt tóc & Tạo mẫu"
            }
        ]
    },
    {
        "name": "Chia Sẻ Deal",
        "latitude": 10.78342,
        "longitude": 106.6977,
        "address": "Chia Sẻ Deal, 120 Đường Hai Bà Trưng, Phường Đa Kao, Quận 1, Hồ Chí Minh, Việt Nam",
        "country_code": "VNM",
        "country_name": "Việt Nam",
        "city": "Hồ Chí Minh",
        "district": "Quận 1",
        "ward": "Phường Đa Kao",
        "street": "Đường Hai Bà Trưng",
        "postal_code": "71007",
        "categories": [
            {
                "name": "Cửa hàng bách hóa"
            }
        ]
    },
    {
        "name": "Công Ty TNHH Takashimaya Vietnam",
        "latitude": 10.77294,
        "longitude": 106.69611,
        "address": "Công Ty TNHH Takashimaya Vietnam, Đường Lý Tự Trọng, Phường Bến Thành, Quận 1, Hồ Chí Minh, Việt Nam",
        "country_code": "VNM",
        "country_name": "Việt Nam",
        "city": "Hồ Chí Minh",
        "district": "Quận 1",
        "ward": "Phường Bến Thành",
        "street": "Đường Lý Tự Trọng",
        "postal_code": "71009",
        "categories": [
            {
                "name": "Nhà hàng"
            },
            {
                "name": "Phòng trà"
            },
            {
                "name": "Cửa hàng bách hóa"
            },
            {
                "name": "Doanh nghiệp"
            }
        ]
    },
    {
        "name": "Trung Tâm Thời Trang The Master's",
        "latitude": 10.78357,
        "longitude": 106.69694,
        "address": "Trung Tâm Thời Trang The Master's, 41-43 Đường Trần Cao Vân, Phường Võ Thị Sáu, Quận 3, Hồ Chí Minh, Việt Nam",
        "country_code": "VNM",
        "country_name": "Việt Nam",
        "city": "Hồ Chí Minh",
        "district": "Quận 3",
        "ward": "Phường Võ Thị Sáu",
        "street": "Đường Trần Cao Vân",
        "postal_code": "72415",
        "categories": [
            {
                "name": "Quần áo & Phụ kiện"
            },
            {
                "name": "Cửa hàng bách hóa"
            }
        ]
    },
    {
        "name": "Grove Fresh",
        "latitude": 10.78587,
        "longitude": 106.70209,
        "address": "Grove Fresh, Đường Đinh Tiên Hoàng, Phường Bến Nghé, Quận 1, Hồ Chí Minh, Việt Nam",
        "country_code": "VNM",
        "country_name": "Việt Nam",
        "city": "Hồ Chí Minh",
        "district": "Quận 1",
        "ward": "Phường Bến Nghé",
        "street": "Đường Đinh Tiên Hoàng",
        "postal_code": "71006",
        "categories": [
            {
                "name": "Cửa hàng bách hóa"
            }
        ]
    },
    {
        "name": "District 5 Chinatown",
        "latitude": 10.7726,
        "longitude": 106.69563,
        "address": "District 5 Chinatown, Đường Trương Định, Phường Bến Thành, Quận 1, Hồ Chí Minh, Việt Nam",
        "country_code": "VNM",
        "country_name": "Việt Nam",
        "city": "Hồ Chí Minh",
        "district": "Quận 1",
        "ward": "Phường Bến Thành",
        "street": "Đường Trương Định",
        "postal_code": "71009",
        "categories": [
            {
                "name": "Cửa hàng bách hóa"
            }
        ]
    },
    {
        "name": "Cty Phan Ta TNHH Thương Mại Dịch Vụ Kỹ Thuật",
        "latitude": 10.76923,
        "longitude": 106.69989,
        "address": "Cty Phan Ta TNHH Thương Mại Dịch Vụ Kỹ Thuật, 71 Đường Nguyễn Thái Bình, Phường Nguyễn Thái Bình, Quận 1, Hồ Chí Minh, Việt Nam",
        "country_code": "VNM",
        "country_name": "Việt Nam",
        "city": "Hồ Chí Minh",
        "district": "Quận 1",
        "ward": "Phường Nguyễn Thái Bình",
        "street": "Đường Nguyễn Thái Bình",
        "postal_code": "71010",
        "categories": [
            {
                "name": "Cửa hàng bách hóa"
            },
            {
                "name": "Sản xuất"
            }
        ]
    },
    {
        "name": "Cannon Far East",
        "latitude": 10.78487,
        "longitude": 106.69704,
        "address": "Cannon Far East, 23 Đường Phùng Khắc Khoan, Phường Đa Kao, Quận 1, Hồ Chí Minh, Việt Nam",
        "country_code": "VNM",
        "country_name": "Việt Nam",
        "city": "Hồ Chí Minh",
        "district": "Quận 1",
        "ward": "Phường Đa Kao",
        "street": "Đường Phùng Khắc Khoan",
        "postal_code": "71007",
        "categories": [
            {
                "name": "Cửa hàng bách hóa"
            }
        ]
    },
    {
        "name": "Cửa Hàng Tạp Hóa 79A",
        "latitude": 10.77482,
        "longitude": 106.71191,
        "address": "Cửa Hàng Tạp Hóa 79A, 79 Hẻm 47 Đường Lương Định Của, Phường Thủ Thiêm, Thủ Đức, Hồ Chí Minh, Việt Nam",
        "country_code": "VNM",
        "country_name": "Việt Nam",
        "city": "Hồ Chí Minh",
        "district": "Thủ Đức",
        "ward": "Phường Thủ Thiêm",
        "street": "Hẻm 47 Đường Lương Định Của",
        "postal_code": "71110",
        "categories": [
            {
                "name": "Cửa hàng bách hóa"
            },
            {
                "name": "Cửa hàng tiện lợi"
            }
        ]
    },
    {
        "name": "Cửa Hàng Bách Hóa Tổng Hợp 143",
        "latitude": 10.76843,
        "longitude": 106.69906,
        "address": "Cửa Hàng Bách Hóa Tổng Hợp 143, Đường Calmette, Phường Nguyễn Thái Bình, Quận 1, Hồ Chí Minh, Việt Nam",
        "country_code": "VNM",
        "country_name": "Việt Nam",
        "city": "Hồ Chí Minh",
        "district": "Quận 1",
        "ward": "Phường Nguyễn Thái Bình",
        "street": "Đường Calmette",
        "postal_code": "71010",
        "categories": [
            {
                "name": "Cửa hàng bách hóa"
            }
        ]
    },
    {
        "name": "Thedenimaniac",
        "latitude": 10.7689,
        "longitude": 106.69697,
        "address": "Thedenimaniac, 43 Đường Đặng Thị Nhu, Phường Nguyễn Thái Bình, Quận 1, Hồ Chí Minh, Việt Nam",
        "country_code": "VNM",
        "country_name": "Việt Nam",
        "city": "Hồ Chí Minh",
        "district": "Quận 1",
        "ward": "Phường Nguyễn Thái Bình",
        "street": "Đường Đặng Thị Nhu",
        "postal_code": "71010",
        "categories": [
            {
                "name": "Cửa hàng bách hóa"
            }
        ]
    },
    {
        "name": "Cửa Hàng L'Occitane Mỹ Phẩm-Cty TNHH Thương Mại & Xây Dựng Thủy Lộc",
        "latitude": 10.77032,
        "longitude": 106.69446,
        "address": "Cửa Hàng L'Occitane Mỹ Phẩm-Cty TNHH Thương Mại & Xây Dựng Thủy Lộc, 76 Đường Lê Lai, Phường Bến Thành, Quận 1, Hồ Chí Minh, Việt Nam",
        "country_code": "VNM",
        "country_name": "Việt Nam",
        "city": "Hồ Chí Minh",
        "district": "Quận 1",
        "ward": "Phường Bến Thành",
        "street": "Đường Lê Lai",
        "postal_code": "71009",
        "categories": [
            {
                "name": "Cửa hàng bách hóa"
            },
            {
                "name": "Dịch vụ B2B"
            }
        ]
    },
    {
        "name": "Cle De Peau Beaute",
        "latitude": 10.77032,
        "longitude": 106.69446,
        "address": "Cle De Peau Beaute, 76 Đường Lê Lai, Phường Bến Thành, Quận 1, Hồ Chí Minh, Việt Nam",
        "country_code": "VNM",
        "country_name": "Việt Nam",
        "city": "Hồ Chí Minh",
        "district": "Quận 1",
        "ward": "Phường Bến Thành",
        "street": "Đường Lê Lai",
        "postal_code": "71009",
        "categories": [
            {
                "name": "Cửa hàng bách hóa"
            }
        ]
    },
    {
        "name": "Cửa Hàng Mỹ Phẩm Kosé",
        "latitude": 10.77032,
        "longitude": 106.69446,
        "address": "Cửa Hàng Mỹ Phẩm Kosé, 76 Đường Lê Lai, Phường Bến Thành, Quận 1, Hồ Chí Minh, Việt Nam",
        "country_code": "VNM",
        "country_name": "Việt Nam",
        "city": "Hồ Chí Minh",
        "district": "Quận 1",
        "ward": "Phường Bến Thành",
        "street": "Đường Lê Lai",
        "postal_code": "71009",
        "categories": [
            {
                "name": "Cửa hàng bách hóa"
            },
            {
                "name": "Cắt tóc & Tạo mẫu"
            },
            {
                "name": "Dịch vụ B2B"
            }
        ]
    },
    {
        "name": "Văn Phòng Đại Diện - Marel Carnitech",
        "latitude": 10.78823,
        "longitude": 106.69924,
        "address": "Văn Phòng Đại Diện - Marel Carnitech, 80 Đường Nguyễn Đình Chiểu, Phường Đa Kao, Quận 1, Hồ Chí Minh, Việt Nam",
        "country_code": "VNM",
        "country_name": "Việt Nam",
        "city": "Hồ Chí Minh",
        "district": "Quận 1",
        "ward": "Phường Đa Kao",
        "street": "Đường Nguyễn Đình Chiểu",
        "postal_code": "71007",
        "categories": [
            {
                "name": "Cửa hàng bách hóa"
            },
            {
                "name": "Dịch vụ kinh doanh"
            }
        ]
    },
    {
        "name": "Durance",
        "latitude": 10.77142,
        "longitude": 106.693,
        "address": "Durance, Đường Lê Thị Riêng, Phường Bến Thành, Quận 1, Hồ Chí Minh, Việt Nam",
        "country_code": "VNM",
        "country_name": "Việt Nam",
        "city": "Hồ Chí Minh",
        "district": "Quận 1",
        "ward": "Phường Bến Thành",
        "street": "Đường Lê Thị Riêng",
        "postal_code": "71009",
        "categories": [
            {
                "name": "Cửa hàng bách hóa"
            }
        ]
    },
    {
        "name": "SMK Discovery Zone - Một Ngày Trải Nghiệm",
        "latitude": 10.77175,
        "longitude": 106.69275,
        "address": "SMK Discovery Zone - Một Ngày Trải Nghiệm, Đường Cách Mạng Tháng 8, Phường Bến Thành, Quận 1, Hồ Chí Minh, Việt Nam",
        "country_code": "VNM",
        "country_name": "Việt Nam",
        "city": "Hồ Chí Minh",
        "district": "Quận 1",
        "ward": "Phường Bến Thành",
        "street": "Đường Cách Mạng Tháng 8",
        "postal_code": "71009",
        "categories": [
            {
                "name": "Cửa hàng bách hóa"
            }
        ]
    },
    {
        "name": "TMDV Thiên Minh",
        "latitude": 10.78666,
        "longitude": 106.69558,
        "address": "TMDV Thiên Minh, 39 Đường Phùng Khắc Khoan, Phường Đa Kao, Quận 1, Hồ Chí Minh, Việt Nam",
        "country_code": "VNM",
        "country_name": "Việt Nam",
        "city": "Hồ Chí Minh",
        "district": "Quận 1",
        "ward": "Phường Đa Kao",
        "street": "Đường Phùng Khắc Khoan",
        "postal_code": "71007",
        "categories": [
            {
                "name": "Cửa hàng bách hóa"
            },
            {
                "name": "Sản xuất"
            }
        ]
    },
    {
        "name": "Minigood",
        "latitude": 10.76911,
        "longitude": 106.69465,
        "address": "Minigood, 211 Đường Nguyễn Thái Học, Phường Phạm Ngũ Lão, Quận 1, Hồ Chí Minh, Việt Nam",
        "country_code": "VNM",
        "country_name": "Việt Nam",
        "city": "Hồ Chí Minh",
        "district": "Quận 1",
        "ward": "Phường Phạm Ngũ Lão",
        "street": "Đường Nguyễn Thái Học",
        "postal_code": "71012",
        "categories": [
            {
                "name": "Cửa hàng tiện lợi"
            },
            {
                "name": "Cửa hàng bách hóa"
            },
            {
                "name": "Siêu thị"
            },
            {
                "name": "Phụ kiện nội thất và gia đình"
            },
            {
                "name": "Cửa hàng chuyên dụng"
            },
            {
                "name": "Cửa hàng tạp hóa"
            },
            {
                "name": "Quà tặng, đồ cổ và tác phẩm nghệ thuật"
            }
        ]
    },
    {
        "name": "Nhật Bản Doanh Thương",
        "latitude": 10.78777,
        "longitude": 106.69691,
        "address": "Nhật Bản Doanh Thương, 156 Hẻm 146 Nguyễn Văn Thủ, Phường Đa Kao, Quận 1, Hồ Chí Minh, Việt Nam",
        "country_code": "VNM",
        "country_name": "Việt Nam",
        "city": "Hồ Chí Minh",
        "district": "Quận 1",
        "ward": "Phường Đa Kao",
        "street": "Hẻm 146 Nguyễn Văn Thủ",
        "postal_code": "71007",
        "categories": [
            {
                "name": "Cửa hàng bách hóa"
            },
            {
                "name": "Cắt tóc & Tạo mẫu"
            }
        ]
    },
    {
        "name": "Saigon Coop Media",
        "latitude": 10.789,
        "longitude": 106.69996,
        "address": "Saigon Coop Media, Đường Nguyễn Đình Chiểu, Phường Đa Kao, Quận 1, Hồ Chí Minh, Việt Nam",
        "country_code": "VNM",
        "country_name": "Việt Nam",
        "city": "Hồ Chí Minh",
        "district": "Quận 1",
        "ward": "Phường Đa Kao",
        "street": "Đường Nguyễn Đình Chiểu",
        "postal_code": "71007",
        "categories": [
            {
                "name": "Cửa hàng bách hóa"
            },
            {
                "name": "Dịch vụ kinh doanh"
            }
        ]
    },
    {
        "name": "P & D Group - Babor",
        "latitude": 10.77085,
        "longitude": 106.69274,
        "address": "P & D Group - Babor, 29 Đường Nguyễn Trãi, Phường Bến Thành, Quận 1, Hồ Chí Minh, Việt Nam",
        "country_code": "VNM",
        "country_name": "Việt Nam",
        "city": "Hồ Chí Minh",
        "district": "Quận 1",
        "ward": "Phường Bến Thành",
        "street": "Đường Nguyễn Trãi",
        "postal_code": "71009",
        "categories": [
            {
                "name": "Cửa hàng bách hóa"
            }
        ]
    },
    {
        "name": "Robins Department Store Crescent Mall",
        "latitude": 10.77067,
        "longitude": 106.69221,
        "address": "Robins Department Store Crescent Mall, Đường Nguyễn Trãi, Phường Bến Thành, Quận 1, Hồ Chí Minh, Việt Nam",
        "country_code": "VNM",
        "country_name": "Việt Nam",
        "city": "Hồ Chí Minh",
        "district": "Quận 1",
        "ward": "Phường Bến Thành",
        "street": "Đường Nguyễn Trãi",
        "postal_code": "71009",
        "categories": [
            {
                "name": "Cửa hàng bách hóa"
            }
        ]
    },
    {
        "name": "Manh Dung Luxury2",
        "latitude": 10.77148,
        "longitude": 106.6917,
        "address": "Manh Dung Luxury2, 58 Hẻm 60 Lê Thị Riêng, Phường Bến Thành, Quận 1, Hồ Chí Minh, Việt Nam",
        "country_code": "VNM",
        "country_name": "Việt Nam",
        "city": "Hồ Chí Minh",
        "district": "Quận 1",
        "ward": "Phường Bến Thành",
        "street": "Hẻm 60 Lê Thị Riêng",
        "postal_code": "71009",
        "categories": [
            {
                "name": "Cửa hàng bách hóa"
            },
            {
                "name": "Thợ kim hoàn"
            },
            {
                "name": "Dịch vụ kinh doanh"
            }
        ]
    },
    {
        "name": "Sài Gòn Sge",
        "latitude": 10.78489,
        "longitude": 106.69224,
        "address": "Sài Gòn Sge, Đường Điện Biên Phủ, Phường Võ Thị Sáu, Quận 3, Hồ Chí Minh, Việt Nam",
        "country_code": "VNM",
        "country_name": "Việt Nam",
        "city": "Hồ Chí Minh",
        "district": "Quận 3",
        "ward": "Phường Võ Thị Sáu",
        "street": "Đường Điện Biên Phủ",
        "postal_code": "72415",
        "categories": [
            {
                "name": "Cửa hàng bách hóa"
            }
        ]
    },
    {
        "name": "The Sho-Fe",
        "latitude": 10.771,
        "longitude": 106.69171,
        "address": "The Sho-Fe, Đường Nguyễn Văn Tráng, Phường Bến Thành, Quận 1, Hồ Chí Minh, Việt Nam",
        "country_code": "VNM",
        "country_name": "Việt Nam",
        "city": "Hồ Chí Minh",
        "district": "Quận 1",
        "ward": "Phường Bến Thành",
        "street": "Đường Nguyễn Văn Tráng",
        "postal_code": "71009",
        "categories": [
            {
                "name": "Cửa hàng bách hóa"
            },
            {
                "name": "Quần áo phụ nữ"
            },
            {
                "name": "Hàng tiêu dùng"
            }
        ]
    },
    {
        "name": "Sgtt Mart",
        "latitude": 10.78072,
        "longitude": 106.69018,
        "address": "Sgtt Mart, 25-29 Đường Ngô Thời Nhiệm, Phường Võ Thị Sáu, Quận 3, Hồ Chí Minh, Việt Nam",
        "country_code": "VNM",
        "country_name": "Việt Nam",
        "city": "Hồ Chí Minh",
        "district": "Quận 3",
        "ward": "Phường Võ Thị Sáu",
        "street": "Đường Ngô Thời Nhiệm",
        "postal_code": "72415",
        "categories": [
            {
                "name": "Cửa hàng bách hóa"
            }
        ]
    },
    {
        "name": "Laneíge",
        "latitude": 10.77037,
        "longitude": 106.69202,
        "address": "Laneíge, 53 Đường Nguyễn Trãi, Phường Bến Thành, Quận 1, Hồ Chí Minh, Việt Nam",
        "country_code": "VNM",
        "country_name": "Việt Nam",
        "city": "Hồ Chí Minh",
        "district": "Quận 1",
        "ward": "Phường Bến Thành",
        "street": "Đường Nguyễn Trãi",
        "postal_code": "71009",
        "categories": [
            {
                "name": "Cửa hàng bách hóa"
            }
        ]
    },
    {
        "name": "Quán Cây Xoài",
        "latitude": 10.78862,
        "longitude": 106.70962,
        "address": "Quán Cây Xoài, Đường Mê Linh, Phường 19, Quận Bình Thạnh, Hồ Chí Minh, Việt Nam",
        "country_code": "VNM",
        "country_name": "Việt Nam",
        "city": "Hồ Chí Minh",
        "district": "Quận Bình Thạnh",
        "ward": "Phường 19",
        "street": "Đường Mê Linh",
        "postal_code": "72323",
        "categories": [
            {
                "name": "Cửa hàng bách hóa"
            },
            {
                "name": "Nhà hàng"
            }
        ]
    },
    {
        "name": "Paris & France",
        "latitude": 10.7701,
        "longitude": 106.6917,
        "address": "Paris & France, 63 Đường Nguyễn Trãi, Phường Bến Thành, Quận 1, Hồ Chí Minh, Việt Nam",
        "country_code": "VNM",
        "country_name": "Việt Nam",
        "city": "Hồ Chí Minh",
        "district": "Quận 1",
        "ward": "Phường Bến Thành",
        "street": "Đường Nguyễn Trãi",
        "postal_code": "71009",
        "categories": [
            {
                "name": "Cửa hàng bách hóa"
            }
        ]
    },
    {
        "name": "H.I.T.S",
        "latitude": 10.78618,
        "longitude": 106.69253,
        "address": "H.I.T.S, 62A Đường Phạm Ngọc Thạch, Phường Võ Thị Sáu, Quận 3, Hồ Chí Minh, Việt Nam",
        "country_code": "VNM",
        "country_name": "Việt Nam",
        "city": "Hồ Chí Minh",
        "district": "Quận 3",
        "ward": "Phường Võ Thị Sáu",
        "street": "Đường Phạm Ngọc Thạch",
        "postal_code": "72415",
        "categories": [
            {
                "name": "Cửa hàng bách hóa"
            }
        ]
    },
    {
        "name": "Camera Quan Sát",
        "latitude": 10.79074,
        "longitude": 106.70544,
        "address": "Camera Quan Sát, Đường Nguyễn Thị Minh Khai, Phường Đa Kao, Quận 1, Hồ Chí Minh, Việt Nam",
        "country_code": "VNM",
        "country_name": "Việt Nam",
        "city": "Hồ Chí Minh",
        "district": "Quận 1",
        "ward": "Phường Đa Kao",
        "street": "Đường Nguyễn Thị Minh Khai",
        "postal_code": "71007",
        "categories": [
            {
                "name": "Cửa hàng bách hóa"
            }
        ]
    },
    {
        "name": "TMDV Thủy Nguyễn Christy",
        "latitude": 10.77054,
        "longitude": 106.69092,
        "address": "TMDV Thủy Nguyễn Christy, 28 Đường Lê Thị Riêng, Phường Bến Thành, Quận 1, Hồ Chí Minh, Việt Nam",
        "country_code": "VNM",
        "country_name": "Việt Nam",
        "city": "Hồ Chí Minh",
        "district": "Quận 1",
        "ward": "Phường Bến Thành",
        "street": "Đường Lê Thị Riêng",
        "postal_code": "71009",
        "categories": [
            {
                "name": "Cửa hàng bách hóa"
            },
            {
                "name": "Cắt tóc & Tạo mẫu"
            }
        ]
    },
    {
        "name": "An Bình",
        "latitude": 10.79009,
        "longitude": 106.69715,
        "address": "An Bình, Đường Điện Biên Phủ, Phường Đa Kao, Quận 1, Hồ Chí Minh, Việt Nam",
        "country_code": "VNM",
        "country_name": "Việt Nam",
        "city": "Hồ Chí Minh",
        "district": "Quận 1",
        "ward": "Phường Đa Kao",
        "street": "Đường Điện Biên Phủ",
        "postal_code": "71007",
        "categories": [
            {
                "name": "Cửa hàng bách hóa"
            },
            {
                "name": "Dịch vụ B2B"
            }
        ]
    },
    {
        "name": "Cửa Hàng Thực Phẩm Vissan",
        "latitude": 10.76406,
        "longitude": 106.70599,
        "address": "Cửa Hàng Thực Phẩm Vissan, 19 Đường Lê Thạch, Phường 13, Quận 4, Hồ Chí Minh, Việt Nam",
        "country_code": "VNM",
        "country_name": "Việt Nam",
        "city": "Hồ Chí Minh",
        "district": "Quận 4",
        "ward": "Phường 13",
        "street": "Đường Lê Thạch",
        "postal_code": "72820",
        "categories": [
            {
                "name": "Siêu thị"
            },
            {
                "name": "Cửa hàng bách hóa"
            },
            {
                "name": "Đặc sản & Đồ uống"
            },
            {
                "name": "Cửa hàng chuyên dụng"
            }
        ]
    },
    {
        "name": "Đại Lý Vé Máy Bay Minh Văn",
        "latitude": 10.7907,
        "longitude": 106.69793,
        "address": "Đại Lý Vé Máy Bay Minh Văn, Đường Điện Biên Phủ, Phường Đa Kao, Quận 1, Hồ Chí Minh, Việt Nam",
        "country_code": "VNM",
        "country_name": "Việt Nam",
        "city": "Hồ Chí Minh",
        "district": "Quận 1",
        "ward": "Phường Đa Kao",
        "street": "Đường Điện Biên Phủ",
        "postal_code": "71007",
        "categories": [
            {
                "name": "Cửa hàng bách hóa"
            },
            {
                "name": "Hàng tiêu dùng"
            }
        ]
    },
    {
        "name": "Reebok-Rg006-Ntr",
        "latitude": 10.76979,
        "longitude": 106.69097,
        "address": "Reebok-Rg006-Ntr, 116 Đường Nguyễn Trãi, Phường Bến Thành, Quận 1, Hồ Chí Minh, Việt Nam",
        "country_code": "VNM",
        "country_name": "Việt Nam",
        "city": "Hồ Chí Minh",
        "district": "Quận 1",
        "ward": "Phường Bến Thành",
        "street": "Đường Nguyễn Trãi",
        "postal_code": "71009",
        "categories": [
            {
                "name": "Cửa hàng bách hóa"
            }
        ]
    },
    {
        "name": "Gd Mart",
        "latitude": 10.7682,
        "longitude": 106.69223,
        "address": "Gd Mart, 263 Đường Phạm Ngũ Lão, Phường Phạm Ngũ Lão, Quận 1, Hồ Chí Minh, Việt Nam",
        "country_code": "VNM",
        "country_name": "Việt Nam",
        "city": "Hồ Chí Minh",
        "district": "Quận 1",
        "ward": "Phường Phạm Ngũ Lão",
        "street": "Đường Phạm Ngũ Lão",
        "postal_code": "71012",
        "categories": [
            {
                "name": "Cửa hàng bách hóa"
            }
        ]
    },
    {
        "name": "Cửa Hàng Sữa Minh Nguyệt",
        "latitude": 10.76338,
        "longitude": 106.70329,
        "address": "Cửa Hàng Sữa Minh Nguyệt, Đường Hoàng Diệu, Phường 9, Quận 4, Hồ Chí Minh, Việt Nam",
        "country_code": "VNM",
        "country_name": "Việt Nam",
        "city": "Hồ Chí Minh",
        "district": "Quận 4",
        "ward": "Phường 9",
        "street": "Đường Hoàng Diệu",
        "postal_code": "72807",
        "categories": [
            {
                "name": "Cửa hàng bách hóa"
            }
        ]
    },
    {
        "name": "Medicare Co. Ltd",
        "latitude": 10.76634,
        "longitude": 106.69375,
        "address": "Medicare Co. Ltd, Đường Trần Hưng Đạo, Phường Phạm Ngũ Lão, Quận 1, Hồ Chí Minh, Việt Nam",
        "country_code": "VNM",
        "country_name": "Việt Nam",
        "city": "Hồ Chí Minh",
        "district": "Quận 1",
        "ward": "Phường Phạm Ngũ Lão",
        "street": "Đường Trần Hưng Đạo",
        "postal_code": "71012",
        "categories": [
            {
                "name": "Cửa hàng bách hóa"
            }
        ]
    },
    {
        "name": "Cửa Hàng Bách Hóa Niềm Tin",
        "latitude": 10.77111,
        "longitude": 106.68977,
        "address": "Cửa Hàng Bách Hóa Niềm Tin, 45 Đường Bùi Thị Xuân, Phường Bến Thành, Quận 1, Hồ Chí Minh, Việt Nam",
        "country_code": "VNM",
        "country_name": "Việt Nam",
        "city": "Hồ Chí Minh",
        "district": "Quận 1",
        "ward": "Phường Bến Thành",
        "street": "Đường Bùi Thị Xuân",
        "postal_code": "71009",
        "categories": [
            {
                "name": "Cửa hàng bách hóa"
            }
        ]
    }
]
