[
    {
        "name": "Parkson Lê Thánh Tôn Q1",
        "latitude": 10.77758,
        "longitude": 106.7024,
        "address": "Parkson Lê Thánh Tôn Q1, 152 Đường Lê Thánh Tôn, Phường Bến Nghé, Quận 1, Hồ Chí Minh, Việt Nam",
        "country_code": "VNM",
        "country_name": "Việt Nam",
        "city": "Hồ Chí Minh",
        "district": "Quận 1",
        "ward": "Phường Bến Nghé",
        "street": "Đường Lê Thánh Tôn",
        "postal_code": "71006",
        "categories": [
            {
                "name": "Cửa hàng bách hóa"
            },
            {
                "name": "Hàng tiêu dùng"
            },
            {
                "name": "Dụng cụ văn phòng và dịch vụ"
            },
            {
                "name": "Cửa hàng chuyên dụng"
            },
            {
                "name": "Quà tặng, đồ cổ và tác phẩm nghệ thuật"
            },
            {
                "name": "Doanh nghiệp"
            }
        ]
    },
    {
        "name": "Thắng Store",
        "latitude": 10.77797,
        "longitude": 106.7031,
        "address": "Thắng Store, Đường Hai Bà Trưng, Phường Bến Nghé, Quận 1, Hồ Chí Minh, Việt Nam",
        "country_code": "VNM",
        "country_name": "Việt Nam",
        "city": "Hồ Chí Minh",
        "district": "Quận 1",
        "ward": "Phường Bến Nghé",
        "street": "Đường Hai Bà Trưng",
        "postal_code": "71006",
        "categories": [
            {
                "name": "Hàng tiêu dùng"
            },
            {
                "name": "Quần áo & Phụ kiện"
            }
        ]
    },
    {
        "name": "Aldo Vincom Đồng Khởi",
        "latitude": 10.7779,
        "longitude": 106.70233,
        "address": "Aldo Vincom Đồng Khởi, 70 Đường Lê Thánh Tôn, Phường Bến Nghé, Quận 1, Hồ Chí Minh, Việt Nam",
        "country_code": "VNM",
        "country_name": "Việt Nam",
        "city": "Hồ Chí Minh",
        "district": "Quận 1",
        "ward": "Phường Bến Nghé",
        "street": "Đường Lê Thánh Tôn",
        "postal_code": "71006",
        "categories": [
            {
                "name": "Thợ kim hoàn"
            },
            {
                "name": "Siêu thị"
            },
            {
                "name": "Hiệu bánh"
            },
            {
                "name": "Cửa hàng điện tử gia dụng"
            },
            {
                "name": "Cửa hàng bán lẻ điện thoại di động"
            },
            {
                "name": "Phụ kiện nội thất và gia đình"
            },
            {
                "name": "Hiệu sách"
            },
            {
                "name": "Hàng tiêu dùng"
            },
            {
                "name": "Cửa hàng chuyên dụng"
            },
            {
                "name": "Cắt tóc & Tạo mẫu"
            },
            {
                "name": "Dịch vụ khách hàng"
            },
            {
                "name": "Dịch vụ sửa chữa"
            }
        ]
    },
    {
        "name": "Shopphui.Vn",
        "latitude": 10.7777,
        "longitude": 106.70215,
        "address": "Shopphui.Vn, Lê Thánh Tôn, Phường Bến Nghé, Quận 1, Hồ Chí Minh, Việt Nam",
        "country_code": "VNM",
        "country_name": "Việt Nam",
        "city": "Hồ Chí Minh",
        "district": "Quận 1",
        "ward": "Phường Bến Nghé",
        "street": "Lê Thánh Tôn",
        "postal_code": "71006",
        "categories": [
            {
                "name": "Hàng tiêu dùng"
            }
        ]
    },
    {
        "name": "Văn Phòng Phẩm",
        "latitude": 10.77825,
        "longitude": 106.70327,
        "address": "Văn Phòng Phẩm, Đường Hai Bà Trưng, Phường Bến Nghé, Quận 1, Hồ Chí Minh, Việt Nam",
        "country_code": "VNM",
        "country_name": "Việt Nam",
        "city": "Hồ Chí Minh",
        "district": "Quận 1",
        "ward": "Phường Bến Nghé",
        "street": "Đường Hai Bà Trưng",
        "postal_code": "71006",
        "categories": [
            {
                "name": "Hàng tiêu dùng"
            }
        ]
    },
    {
        "name": "Thời Trang Cao Cấp",
        "latitude": 10.77825,
        "longitude": 106.70327,
        "address": "Thời Trang Cao Cấp, Đường Hai Bà Trưng, Phường Bến Nghé, Quận 1, Hồ Chí Minh, Việt Nam",
        "country_code": "VNM",
        "country_name": "Việt Nam",
        "city": "Hồ Chí Minh",
        "district": "Quận 1",
        "ward": "Phường Bến Nghé",
        "street": "Đường Hai Bà Trưng",
        "postal_code": "71006",
        "categories": [
            {
                "name": "Hàng tiêu dùng"
            },
            {
                "name": "Giày dép"
            },
            {
                "name": "Cửa hàng chuyên dụng"
            }
        ]
    },
    {
        "name": "Thailandss",
        "latitude": 10.77809,
        "longitude": 106.70214,
        "address": "Thailandss, 72 Đường Lê Thánh Tôn, Phường Bến Nghé, Quận 1, Hồ Chí Minh, Việt Nam",
        "country_code": "VNM",
        "country_name": "Việt Nam",
        "city": "Hồ Chí Minh",
        "district": "Quận 1",
        "ward": "Phường Bến Nghé",
        "street": "Đường Lê Thánh Tôn",
        "postal_code": "71006",
        "categories": [
            {
                "name": "Hàng tiêu dùng"
            }
        ]
    },
    {
        "name": "Cửa Hàng Bim & Vy",
        "latitude": 10.77809,
        "longitude": 106.70214,
        "address": "Cửa Hàng Bim & Vy, 72 Đường Lê Thánh Tôn, Phường Bến Nghé, Quận 1, Hồ Chí Minh, Việt Nam",
        "country_code": "VNM",
        "country_name": "Việt Nam",
        "city": "Hồ Chí Minh",
        "district": "Quận 1",
        "ward": "Phường Bến Nghé",
        "street": "Đường Lê Thánh Tôn",
        "postal_code": "71006",
        "categories": [
            {
                "name": "Hàng tiêu dùng"
            }
        ]
    },
    {
        "name": "Cty Thephan Group",
        "latitude": 10.77809,
        "longitude": 106.70214,
        "address": "Cty Thephan Group, 72 Đường Lê Thánh Tôn, Phường Bến Nghé, Quận 1, Hồ Chí Minh, Việt Nam",
        "country_code": "VNM",
        "country_name": "Việt Nam",
        "city": "Hồ Chí Minh",
        "district": "Quận 1",
        "ward": "Phường Bến Nghé",
        "street": "Đường Lê Thánh Tôn",
        "postal_code": "71006",
        "categories": [
            {
                "name": "Hàng tiêu dùng"
            }
        ]
    },
    {
        "name": "Hộ Kinh Doanh Nguyễn Thị Mỹ Hạnh",
        "latitude": 10.77726,
        "longitude": 106.70199,
        "address": "Hộ Kinh Doanh Nguyễn Thị Mỹ Hạnh, Đường Đồng Khởi, Phường Bến Nghé, Quận 1, Hồ Chí Minh, Việt Nam",
        "country_code": "VNM",
        "country_name": "Việt Nam",
        "city": "Hồ Chí Minh",
        "district": "Quận 1",
        "ward": "Phường Bến Nghé",
        "street": "Đường Đồng Khởi",
        "postal_code": "71006",
        "categories": [
            {
                "name": "Hàng tiêu dùng"
            }
        ]
    },
    {
        "name": "Công Ty In Trần Phú",
        "latitude": 10.77832,
        "longitude": 106.70331,
        "address": "Công Ty In Trần Phú, 74 Đường Hai Bà Trưng, Phường Bến Nghé, Quận 1, Hồ Chí Minh, Việt Nam",
        "country_code": "VNM",
        "country_name": "Việt Nam",
        "city": "Hồ Chí Minh",
        "district": "Quận 1",
        "ward": "Phường Bến Nghé",
        "street": "Đường Hai Bà Trưng",
        "postal_code": "71006",
        "categories": [
            {
                "name": "Doanh nghiệp"
            },
            {
                "name": "Đặc sản & Đồ uống"
            },
            {
                "name": "Quần áo & Phụ kiện"
            },
            {
                "name": "Hàng tiêu dùng"
            },
            {
                "name": "Dụng cụ văn phòng và dịch vụ"
            },
            {
                "name": "Quà tặng, đồ cổ và tác phẩm nghệ thuật"
            },
            {
                "name": "Cắt tóc & Tạo mẫu"
            },
            {
                "name": "Dịch vụ nông nghiệp"
            },
            {
                "name": "Cơ quan và tổ chức"
            },
            {
                "name": "In ấn & Xuất bản"
            },
            {
                "name": "Dịch vụ kinh doanh"
            },
            {
                "name": "Dịch vụ xã hội"
            }
        ]
    },
    {
        "name": "Duty Free Shop",
        "latitude": 10.77695,
        "longitude": 106.7035,
        "address": "Duty Free Shop, Đường Công Trường Lam Sơn, Phường Bến Nghé, Quận 1, Hồ Chí Minh, Việt Nam",
        "country_code": "VNM",
        "country_name": "Việt Nam",
        "city": "Hồ Chí Minh",
        "district": "Quận 1",
        "ward": "Phường Bến Nghé",
        "street": "Đường Công Trường Lam Sơn",
        "postal_code": "71006",
        "categories": [
            {
                "name": "Hàng tiêu dùng"
            }
        ]
    },
    {
        "name": "cửa hàng bách hóa",
        "latitude": 10.77874,
        "longitude": 106.7029,
        "address": "cửa hàng bách hóa, 62 Đường Lê Thánh Tôn, Phường Bến Nghé, Quận 1, Hồ Chí Minh, Việt Nam",
        "country_code": "VNM",
        "country_name": "Việt Nam",
        "city": "Hồ Chí Minh",
        "district": "Quận 1",
        "ward": "Phường Bến Nghé",
        "street": "Đường Lê Thánh Tôn",
        "postal_code": "71006",
        "categories": [
            {
                "name": "Hàng tiêu dùng"
            }
        ]
    },
    {
        "name": "Faba",
        "latitude": 10.7777,
        "longitude": 106.70151,
        "address": "Faba, Đường Đồng Khởi, Phường Bến Nghé, Quận 1, Hồ Chí Minh, Việt Nam",
        "country_code": "VNM",
        "country_name": "Việt Nam",
        "city": "Hồ Chí Minh",
        "district": "Quận 1",
        "ward": "Phường Bến Nghé",
        "street": "Đường Đồng Khởi",
        "postal_code": "71006",
        "categories": [
            {
                "name": "Hàng tiêu dùng"
            }
        ]
    },
    {
        "name": "The Macaron Boutique At Vincom",
        "latitude": 10.7777,
        "longitude": 106.70151,
        "address": "The Macaron Boutique At Vincom, Đường Đồng Khởi, Phường Bến Nghé, Quận 1, Hồ Chí Minh, Việt Nam",
        "country_code": "VNM",
        "country_name": "Việt Nam",
        "city": "Hồ Chí Minh",
        "district": "Quận 1",
        "ward": "Phường Bến Nghé",
        "street": "Đường Đồng Khởi",
        "postal_code": "71006",
        "categories": [
            {
                "name": "Hàng tiêu dùng"
            },
            {
                "name": "Hiệu bánh"
            }
        ]
    },
    {
        "name": "Shop Thời Trang Valentino",
        "latitude": 10.77723,
        "longitude": 106.70422,
        "address": "Shop Thời Trang Valentino, Đường Hai Bà Trưng, Phường Bến Nghé, Quận 1, Hồ Chí Minh, Việt Nam",
        "country_code": "VNM",
        "country_name": "Việt Nam",
        "city": "Hồ Chí Minh",
        "district": "Quận 1",
        "ward": "Phường Bến Nghé",
        "street": "Đường Hai Bà Trưng",
        "postal_code": "71006",
        "categories": [
            {
                "name": "Hàng tiêu dùng"
            }
        ]
    },
    {
        "name": "Ippg - Imex Pan Pacific Group",
        "latitude": 10.77614,
        "longitude": 106.70295,
        "address": "Ippg - Imex Pan Pacific Group, 161 Đường Đồng Khởi, Phường Bến Nghé, Quận 1, Hồ Chí Minh, Việt Nam",
        "country_code": "VNM",
        "country_name": "Việt Nam",
        "city": "Hồ Chí Minh",
        "district": "Quận 1",
        "ward": "Phường Bến Nghé",
        "street": "Đường Đồng Khởi",
        "postal_code": "71006",
        "categories": [
            {
                "name": "Hàng tiêu dùng"
            }
        ]
    },
    {
        "name": "Globalmatics Trading Pte Ltd",
        "latitude": 10.77613,
        "longitude": 106.70313,
        "address": "Globalmatics Trading Pte Ltd, Đường Đồng Khởi, Phường Bến Nghé, Quận 1, Hồ Chí Minh, Việt Nam",
        "country_code": "VNM",
        "country_name": "Việt Nam",
        "city": "Hồ Chí Minh",
        "district": "Quận 1",
        "ward": "Phường Bến Nghé",
        "street": "Đường Đồng Khởi",
        "postal_code": "71006",
        "categories": [
            {
                "name": "Hàng tiêu dùng"
            }
        ]
    },
    {
        "name": "Kitchmate",
        "latitude": 10.77618,
        "longitude": 106.7023,
        "address": "Kitchmate, Đường Lê Lợi, Phường Bến Nghé, Quận 1, Hồ Chí Minh, Việt Nam",
        "country_code": "VNM",
        "country_name": "Việt Nam",
        "city": "Hồ Chí Minh",
        "district": "Quận 1",
        "ward": "Phường Bến Nghé",
        "street": "Đường Lê Lợi",
        "postal_code": "71006",
        "categories": [
            {
                "name": "Hàng tiêu dùng"
            }
        ]
    },
    {
        "name": "Cini Clothing",
        "latitude": 10.77828,
        "longitude": 106.70127,
        "address": "Cini Clothing, 26 Đường Lý Tự Trọng, Phường Bến Nghé, Quận 1, Hồ Chí Minh, Việt Nam",
        "country_code": "VNM",
        "country_name": "Việt Nam",
        "city": "Hồ Chí Minh",
        "district": "Quận 1",
        "ward": "Phường Bến Nghé",
        "street": "Đường Lý Tự Trọng",
        "postal_code": "71006",
        "categories": [
            {
                "name": "Hàng tiêu dùng"
            }
        ]
    },
    {
        "name": "Rastaclat Vietnam",
        "latitude": 10.77828,
        "longitude": 106.70127,
        "address": "Rastaclat Vietnam, 26 Đường Lý Tự Trọng, Phường Bến Nghé, Quận 1, Hồ Chí Minh, Việt Nam",
        "country_code": "VNM",
        "country_name": "Việt Nam",
        "city": "Hồ Chí Minh",
        "district": "Quận 1",
        "ward": "Phường Bến Nghé",
        "street": "Đường Lý Tự Trọng",
        "postal_code": "71006",
        "categories": [
            {
                "name": "Thợ kim hoàn"
            },
            {
                "name": "Hàng tiêu dùng"
            }
        ]
    },
    {
        "name": "Sneaker Station",
        "latitude": 10.77824,
        "longitude": 106.7012,
        "address": "Sneaker Station, Đường Lý Tự Trọng, Phường Bến Nghé, Quận 1, Hồ Chí Minh, Việt Nam",
        "country_code": "VNM",
        "country_name": "Việt Nam",
        "city": "Hồ Chí Minh",
        "district": "Quận 1",
        "ward": "Phường Bến Nghé",
        "street": "Đường Lý Tự Trọng",
        "postal_code": "71006",
        "categories": [
            {
                "name": "Hàng tiêu dùng"
            }
        ]
    },
    {
        "name": "Titan Store",
        "latitude": 10.77824,
        "longitude": 106.7012,
        "address": "Titan Store, Đường Lý Tự Trọng, Phường Bến Nghé, Quận 1, Hồ Chí Minh, Việt Nam",
        "country_code": "VNM",
        "country_name": "Việt Nam",
        "city": "Hồ Chí Minh",
        "district": "Quận 1",
        "ward": "Phường Bến Nghé",
        "street": "Đường Lý Tự Trọng",
        "postal_code": "71006",
        "categories": [
            {
                "name": "Hàng tiêu dùng"
            }
        ]
    },
    {
        "name": "Shopee Việt Nam",
        "latitude": 10.77584,
        "longitude": 106.70274,
        "address": "Shopee Việt Nam, 17 Đường Lê Lợi, Phường Bến Nghé, Quận 1, Hồ Chí Minh, Việt Nam",
        "country_code": "VNM",
        "country_name": "Việt Nam",
        "city": "Hồ Chí Minh",
        "district": "Quận 1",
        "ward": "Phường Bến Nghé",
        "street": "Đường Lê Lợi",
        "postal_code": "71006",
        "categories": [
            {
                "name": "Hàng tiêu dùng"
            },
            {
                "name": "Hiệu bánh"
            },
            {
                "name": "Quà tặng, đồ cổ và tác phẩm nghệ thuật"
            },
            {
                "name": "Thợ kim hoàn"
            },
            {
                "name": "Cắt tóc & Tạo mẫu"
            },
            {
                "name": "Cửa hàng làm móng"
            }
        ]
    },
    {
        "name": "Shopshsg",
        "latitude": 10.7766,
        "longitude": 106.70133,
        "address": "Shopshsg, Đường Lê Thánh Tôn, Phường Bến Nghé, Quận 1, Hồ Chí Minh, Việt Nam",
        "country_code": "VNM",
        "country_name": "Việt Nam",
        "city": "Hồ Chí Minh",
        "district": "Quận 1",
        "ward": "Phường Bến Nghé",
        "street": "Đường Lê Thánh Tôn",
        "postal_code": "71006",
        "categories": [
            {
                "name": "Hàng tiêu dùng"
            }
        ]
    },
    {
        "name": "Apple",
        "latitude": 10.77596,
        "longitude": 106.70209,
        "address": "Apple, Đường Lê Lợi, Phường Bến Nghé, Quận 1, Hồ Chí Minh, Việt Nam",
        "country_code": "VNM",
        "country_name": "Việt Nam",
        "city": "Hồ Chí Minh",
        "district": "Quận 1",
        "ward": "Phường Bến Nghé",
        "street": "Đường Lê Lợi",
        "postal_code": "71006",
        "categories": [
            {
                "name": "Hàng tiêu dùng"
            }
        ]
    },
    {
        "name": "Vsmart",
        "latitude": 10.77577,
        "longitude": 106.70267,
        "address": "Vsmart, Đường Lê Lợi, Phường Bến Nghé, Quận 1, Hồ Chí Minh, Việt Nam",
        "country_code": "VNM",
        "country_name": "Việt Nam",
        "city": "Hồ Chí Minh",
        "district": "Quận 1",
        "ward": "Phường Bến Nghé",
        "street": "Đường Lê Lợi",
        "postal_code": "71006",
        "categories": [
            {
                "name": "Hàng tiêu dùng"
            }
        ]
    },
    {
        "name": "7th Heaven Boutique",
        "latitude": 10.77576,
        "longitude": 106.70324,
        "address": "7th Heaven Boutique, Đường Đồng Khởi, Phường Bến Nghé, Quận 1, Hồ Chí Minh, Việt Nam",
        "country_code": "VNM",
        "country_name": "Việt Nam",
        "city": "Hồ Chí Minh",
        "district": "Quận 1",
        "ward": "Phường Bến Nghé",
        "street": "Đường Đồng Khởi",
        "postal_code": "71006",
        "categories": [
            {
                "name": "Hàng tiêu dùng"
            }
        ]
    },
    {
        "name": "Circle K - Thi Sách",
        "latitude": 10.77708,
        "longitude": 106.70475,
        "address": "Circle K - Thi Sách, 7 Đường Thi Sách, Phường Bến Nghé, Quận 1, Hồ Chí Minh, Việt Nam",
        "country_code": "VNM",
        "country_name": "Việt Nam",
        "city": "Hồ Chí Minh",
        "district": "Quận 1",
        "ward": "Phường Bến Nghé",
        "street": "Đường Thi Sách",
        "postal_code": "71006",
        "categories": [
            {
                "name": "Hàng tiêu dùng"
            }
        ]
    },
    {
        "name": "Thích Là Nhích",
        "latitude": 10.77557,
        "longitude": 106.70247,
        "address": "Thích Là Nhích, Đường Lê Lợi, Phường Bến Nghé, Quận 1, Hồ Chí Minh, Việt Nam",
        "country_code": "VNM",
        "country_name": "Việt Nam",
        "city": "Hồ Chí Minh",
        "district": "Quận 1",
        "ward": "Phường Bến Nghé",
        "street": "Đường Lê Lợi",
        "postal_code": "71006",
        "categories": [
            {
                "name": "Hàng tiêu dùng"
            }
        ]
    },
    {
        "name": "Vintage Wine Saigon",
        "latitude": 10.77645,
        "longitude": 106.70108,
        "address": "Vintage Wine Saigon, Đường Lê Thánh Tôn, Hồ Chí Minh, Quận 1, Hồ Chí Minh, Việt Nam",
        "country_code": "VNM",
        "country_name": "Việt Nam",
        "city": "Hồ Chí Minh",
        "district": "Quận 1",
        "ward": "Hồ Chí Minh",
        "street": "Đường Lê Thánh Tôn",
        "postal_code": "71006",
        "categories": [
            {
                "name": "Hàng tiêu dùng"
            }
        ]
    },
    {
        "name": "Small World Co. Ltd",
        "latitude": 10.77651,
        "longitude": 106.70101,
        "address": "Small World Co. Ltd, Đường Lê Thánh Tôn, Hồ Chí Minh, Quận 1, Hồ Chí Minh, Việt Nam",
        "country_code": "VNM",
        "country_name": "Việt Nam",
        "city": "Hồ Chí Minh",
        "district": "Quận 1",
        "ward": "Hồ Chí Minh",
        "street": "Đường Lê Thánh Tôn",
        "postal_code": "71006",
        "categories": [
            {
                "name": "Hàng tiêu dùng"
            }
        ]
    },
    {
        "name": "Vietnam Silk & Cotton",
        "latitude": 10.7755,
        "longitude": 106.70253,
        "address": "Vietnam Silk & Cotton, Đường Nguyễn Huệ, Phường Bến Nghé, Quận 1, Hồ Chí Minh, Việt Nam",
        "country_code": "VNM",
        "country_name": "Việt Nam",
        "city": "Hồ Chí Minh",
        "district": "Quận 1",
        "ward": "Phường Bến Nghé",
        "street": "Đường Nguyễn Huệ",
        "postal_code": "71006",
        "categories": [
            {
                "name": "Hàng tiêu dùng"
            }
        ]
    },
    {
        "name": "Mint House",
        "latitude": 10.77531,
        "longitude": 106.70261,
        "address": "Mint House, 90 Đường Nguyễn Huệ, Phường Bến Nghé, Quận 1, Hồ Chí Minh, Việt Nam",
        "country_code": "VNM",
        "country_name": "Việt Nam",
        "city": "Hồ Chí Minh",
        "district": "Quận 1",
        "ward": "Phường Bến Nghé",
        "street": "Đường Nguyễn Huệ",
        "postal_code": "71006",
        "categories": [
            {
                "name": "Hàng tiêu dùng"
            }
        ]
    },
    {
        "name": "Vstyle Hcm",
        "latitude": 10.77567,
        "longitude": 106.70152,
        "address": "Vstyle Hcm, 141 Đường Nguyễn Huệ, Phường Bến Nghé, Quận 1, Hồ Chí Minh, Việt Nam",
        "country_code": "VNM",
        "country_name": "Việt Nam",
        "city": "Hồ Chí Minh",
        "district": "Quận 1",
        "ward": "Phường Bến Nghé",
        "street": "Đường Nguyễn Huệ",
        "postal_code": "71006",
        "categories": [
            {
                "name": "Hàng tiêu dùng"
            }
        ]
    },
    {
        "name": "Mỹ Phẩm Flormar - Trang Điểm Chuyên Nghiệp",
        "latitude": 10.77675,
        "longitude": 106.70501,
        "address": "Mỹ Phẩm Flormar - Trang Điểm Chuyên Nghiệp, Đường Hai Bà Trưng, Phường Bến Nghé, Quận 1, Hồ Chí Minh, Việt Nam",
        "country_code": "VNM",
        "country_name": "Việt Nam",
        "city": "Hồ Chí Minh",
        "district": "Quận 1",
        "ward": "Phường Bến Nghé",
        "street": "Đường Hai Bà Trưng",
        "postal_code": "71006",
        "categories": [
            {
                "name": "Hàng tiêu dùng"
            }
        ]
    },
    {
        "name": "Nguyen Hue Blvd Saigon",
        "latitude": 10.77542,
        "longitude": 106.70195,
        "address": "Nguyen Hue Blvd Saigon, Đường Nguyễn Huệ, Phường Bến Nghé, Quận 1, Hồ Chí Minh, Việt Nam",
        "country_code": "VNM",
        "country_name": "Việt Nam",
        "city": "Hồ Chí Minh",
        "district": "Quận 1",
        "ward": "Phường Bến Nghé",
        "street": "Đường Nguyễn Huệ",
        "postal_code": "71006",
        "categories": [
            {
                "name": "Hàng tiêu dùng"
            }
        ]
    },
    {
        "name": "Quang Roben",
        "latitude": 10.7763,
        "longitude": 106.70481,
        "address": "Quang Roben, 52 Đường Đông Du, Phường Bến Nghé, Quận 1, Hồ Chí Minh, Việt Nam",
        "country_code": "VNM",
        "country_name": "Việt Nam",
        "city": "Hồ Chí Minh",
        "district": "Quận 1",
        "ward": "Phường Bến Nghé",
        "street": "Đường Đông Du",
        "postal_code": "71006",
        "categories": [
            {
                "name": "Hàng tiêu dùng"
            }
        ]
    },
    {
        "name": "Cty Indo Pacific Consu",
        "latitude": 10.7763,
        "longitude": 106.70481,
        "address": "Cty Indo Pacific Consu, 52 Đường Đông Du, Phường Bến Nghé, Quận 1, Hồ Chí Minh, Việt Nam",
        "country_code": "VNM",
        "country_name": "Việt Nam",
        "city": "Hồ Chí Minh",
        "district": "Quận 1",
        "ward": "Phường Bến Nghé",
        "street": "Đường Đông Du",
        "postal_code": "71006",
        "categories": [
            {
                "name": "Hàng tiêu dùng"
            }
        ]
    },
    {
        "name": "Central Markets Ho Chi Minh City",
        "latitude": 10.77749,
        "longitude": 106.70539,
        "address": "Central Markets Ho Chi Minh City, Đường Thi Sách, Phường Bến Nghé, Quận 1, Hồ Chí Minh, Việt Nam",
        "country_code": "VNM",
        "country_name": "Việt Nam",
        "city": "Hồ Chí Minh",
        "district": "Quận 1",
        "ward": "Phường Bến Nghé",
        "street": "Đường Thi Sách",
        "postal_code": "71006",
        "categories": [
            {
                "name": "Hàng tiêu dùng"
            }
        ]
    },
    {
        "name": "Trung Tâm Thương Mại Hữu Nghị",
        "latitude": 10.77512,
        "longitude": 106.70207,
        "address": "Trung Tâm Thương Mại Hữu Nghị, 35 Đường Lê Lợi, Phường Bến Nghé, Quận 1, Hồ Chí Minh, Việt Nam",
        "country_code": "VNM",
        "country_name": "Việt Nam",
        "city": "Hồ Chí Minh",
        "district": "Quận 1",
        "ward": "Phường Bến Nghé",
        "street": "Đường Lê Lợi",
        "postal_code": "71006",
        "categories": [
            {
                "name": "Hàng tiêu dùng"
            }
        ]
    },
    {
        "name": "Ctytnhhmtvcaphelongco",
        "latitude": 10.77897,
        "longitude": 106.70504,
        "address": "Ctytnhhmtvcaphelongco, 8A Đường Thái Văn Lung, Phường Bến Nghé, Quận 1, Hồ Chí Minh, Việt Nam",
        "country_code": "VNM",
        "country_name": "Việt Nam",
        "city": "Hồ Chí Minh",
        "district": "Quận 1",
        "ward": "Phường Bến Nghé",
        "street": "Đường Thái Văn Lung",
        "postal_code": "71006",
        "categories": [
            {
                "name": "Hàng tiêu dùng"
            }
        ]
    },
    {
        "name": "Mỹ Phẩm Premier By Deadsea",
        "latitude": 10.77496,
        "longitude": 106.70242,
        "address": "Mỹ Phẩm Premier By Deadsea, 135 Đường Nguyễn Huệ, Phường Bến Nghé, Quận 1, Hồ Chí Minh, Việt Nam",
        "country_code": "VNM",
        "country_name": "Việt Nam",
        "city": "Hồ Chí Minh",
        "district": "Quận 1",
        "ward": "Phường Bến Nghé",
        "street": "Đường Nguyễn Huệ",
        "postal_code": "71006",
        "categories": [
            {
                "name": "Hàng tiêu dùng"
            }
        ]
    },
    {
        "name": "TMDV Phương Nga - CN 2",
        "latitude": 10.77496,
        "longitude": 106.70242,
        "address": "TMDV Phương Nga - CN 2, 135 Đường Nguyễn Huệ, Phường Bến Nghé, Quận 1, Hồ Chí Minh, Việt Nam",
        "country_code": "VNM",
        "country_name": "Việt Nam",
        "city": "Hồ Chí Minh",
        "district": "Quận 1",
        "ward": "Phường Bến Nghé",
        "street": "Đường Nguyễn Huệ",
        "postal_code": "71006",
        "categories": [
            {
                "name": "Hàng tiêu dùng"
            }
        ]
    },
    {
        "name": "Đại Lý Đồng Hồ Casio",
        "latitude": 10.77496,
        "longitude": 106.70242,
        "address": "Đại Lý Đồng Hồ Casio, 135 Đường Nguyễn Huệ, Phường Bến Nghé, Quận 1, Hồ Chí Minh, Việt Nam",
        "country_code": "VNM",
        "country_name": "Việt Nam",
        "city": "Hồ Chí Minh",
        "district": "Quận 1",
        "ward": "Phường Bến Nghé",
        "street": "Đường Nguyễn Huệ",
        "postal_code": "71006",
        "categories": [
            {
                "name": "Hàng tiêu dùng"
            },
            {
                "name": "Quần áo nam"
            }
        ]
    },
    {
        "name": "Cửa Hàng Sài Gòn Crafts",
        "latitude": 10.77519,
        "longitude": 106.70413,
        "address": "Cửa Hàng Sài Gòn Crafts, 74 Đường Đồng Khởi, Phường Bến Nghé, Quận 1, Hồ Chí Minh, Việt Nam",
        "country_code": "VNM",
        "country_name": "Việt Nam",
        "city": "Hồ Chí Minh",
        "district": "Quận 1",
        "ward": "Phường Bến Nghé",
        "street": "Đường Đồng Khởi",
        "postal_code": "71006",
        "categories": [
            {
                "name": "Hàng tiêu dùng"
            }
        ]
    },
    {
        "name": "Vintage Wine Saigon",
        "latitude": 10.77988,
        "longitude": 106.7043,
        "address": "Vintage Wine Saigon, 17/12 Đường Lê Thánh Tôn, Phường Bến Nghé, Quận 1, Hồ Chí Minh, Việt Nam",
        "country_code": "VNM",
        "country_name": "Việt Nam",
        "city": "Hồ Chí Minh",
        "district": "Quận 1",
        "ward": "Phường Bến Nghé",
        "street": "Đường Lê Thánh Tôn",
        "postal_code": "71006",
        "categories": [
            {
                "name": "Hàng tiêu dùng"
            },
            {
                "name": "Đặc sản & Đồ uống"
            }
        ]
    },
    {
        "name": "Moka Coffee",
        "latitude": 10.77579,
        "longitude": 106.70069,
        "address": "Moka Coffee, Đường Lê Thánh Tôn, Phường Bến Nghé, Quận 1, Hồ Chí Minh, Việt Nam",
        "country_code": "VNM",
        "country_name": "Việt Nam",
        "city": "Hồ Chí Minh",
        "district": "Quận 1",
        "ward": "Phường Bến Nghé",
        "street": "Đường Lê Thánh Tôn",
        "postal_code": "71006",
        "categories": [
            {
                "name": "Hàng tiêu dùng"
            }
        ]
    },
    {
        "name": "3fmart",
        "latitude": 10.7748,
        "longitude": 106.70254,
        "address": "3fmart, 44 Đường Nguyễn Huệ, Phường Bến Nghé, Quận 1, Hồ Chí Minh, Việt Nam",
        "country_code": "VNM",
        "country_name": "Việt Nam",
        "city": "Hồ Chí Minh",
        "district": "Quận 1",
        "ward": "Phường Bến Nghé",
        "street": "Đường Nguyễn Huệ",
        "postal_code": "71006",
        "categories": [
            {
                "name": "Hàng tiêu dùng"
            }
        ]
    },
    {
        "name": "CP Tín Gia",
        "latitude": 10.77503,
        "longitude": 106.70399,
        "address": "CP Tín Gia, 105 Đường Đồng Khởi, Phường Bến Nghé, Quận 1, Hồ Chí Minh, Việt Nam",
        "country_code": "VNM",
        "country_name": "Việt Nam",
        "city": "Hồ Chí Minh",
        "district": "Quận 1",
        "ward": "Phường Bến Nghé",
        "street": "Đường Đồng Khởi",
        "postal_code": "71006",
        "categories": [
            {
                "name": "Hàng tiêu dùng"
            }
        ]
    },
    {
        "name": "Wontech",
        "latitude": 10.77478,
        "longitude": 106.7032,
        "address": "Wontech, 68 Đường Nguyễn Huệ, Phường Bến Nghé, Quận 1, Hồ Chí Minh, Việt Nam",
        "country_code": "VNM",
        "country_name": "Việt Nam",
        "city": "Hồ Chí Minh",
        "district": "Quận 1",
        "ward": "Phường Bến Nghé",
        "street": "Đường Nguyễn Huệ",
        "postal_code": "71006",
        "categories": [
            {
                "name": "Hàng tiêu dùng"
            }
        ]
    },
    {
        "name": "Grand Opening",
        "latitude": 10.77478,
        "longitude": 106.7032,
        "address": "Grand Opening, 68 Đường Nguyễn Huệ, Phường Bến Nghé, Quận 1, Hồ Chí Minh, Việt Nam",
        "country_code": "VNM",
        "country_name": "Việt Nam",
        "city": "Hồ Chí Minh",
        "district": "Quận 1",
        "ward": "Phường Bến Nghé",
        "street": "Đường Nguyễn Huệ",
        "postal_code": "71006",
        "categories": [
            {
                "name": "Hàng tiêu dùng"
            }
        ]
    },
    {
        "name": "TMDV Gia Hân",
        "latitude": 10.77598,
        "longitude": 106.70042,
        "address": "TMDV Gia Hân, Đường Pasteur, Phường Bến Nghé, Quận 1, Hồ Chí Minh, Việt Nam",
        "country_code": "VNM",
        "country_name": "Việt Nam",
        "city": "Hồ Chí Minh",
        "district": "Quận 1",
        "ward": "Phường Bến Nghé",
        "street": "Đường Pasteur",
        "postal_code": "71006",
        "categories": [
            {
                "name": "Hàng tiêu dùng"
            }
        ]
    },
    {
        "name": "The Saigon Hospital Of Cosmetic Surgery",
        "latitude": 10.7802,
        "longitude": 106.70111,
        "address": "The Saigon Hospital Of Cosmetic Surgery, Đường Nguyễn Du, Phường Bến Nghé, Quận 1, Hồ Chí Minh, Việt Nam",
        "country_code": "VNM",
        "country_name": "Việt Nam",
        "city": "Hồ Chí Minh",
        "district": "Quận 1",
        "ward": "Phường Bến Nghé",
        "street": "Đường Nguyễn Du",
        "postal_code": "71006",
        "categories": [
            {
                "name": "Hàng tiêu dùng"
            }
        ]
    },
    {
        "name": "Abdul Aziz & Saedah",
        "latitude": 10.77533,
        "longitude": 106.70061,
        "address": "Abdul Aziz & Saedah, Đường Pasteur, Phường Bến Nghé, Quận 1, Hồ Chí Minh, Việt Nam",
        "country_code": "VNM",
        "country_name": "Việt Nam",
        "city": "Hồ Chí Minh",
        "district": "Quận 1",
        "ward": "Phường Bến Nghé",
        "street": "Đường Pasteur",
        "postal_code": "71006",
        "categories": [
            {
                "name": "Hàng tiêu dùng"
            }
        ]
    },
    {
        "name": "Seiko",
        "latitude": 10.77485,
        "longitude": 106.70448,
        "address": "Seiko, 56 Đường Đồng Khởi, Phường Bến Nghé, Quận 1, Hồ Chí Minh, Việt Nam",
        "country_code": "VNM",
        "country_name": "Việt Nam",
        "city": "Hồ Chí Minh",
        "district": "Quận 1",
        "ward": "Phường Bến Nghé",
        "street": "Đường Đồng Khởi",
        "postal_code": "71006",
        "categories": [
            {
                "name": "Hàng tiêu dùng"
            }
        ]
    },
    {
        "name": "Xuất Nhập Khẩu Thời Trang Quốc Tế Mỹ Việt",
        "latitude": 10.77476,
        "longitude": 106.70442,
        "address": "Xuất Nhập Khẩu Thời Trang Quốc Tế Mỹ Việt, 89 Đường Đồng Khởi, Phường Bến Nghé, Quận 1, Hồ Chí Minh, Việt Nam",
        "country_code": "VNM",
        "country_name": "Việt Nam",
        "city": "Hồ Chí Minh",
        "district": "Quận 1",
        "ward": "Phường Bến Nghé",
        "street": "Đường Đồng Khởi",
        "postal_code": "71006",
        "categories": [
            {
                "name": "Hàng tiêu dùng"
            }
        ]
    },
    {
        "name": "Pangrim Neotex",
        "latitude": 10.7772,
        "longitude": 106.69949,
        "address": "Pangrim Neotex, Đường Pasteur, Phường Bến Nghé, Quận 1, Hồ Chí Minh, Việt Nam",
        "country_code": "VNM",
        "country_name": "Việt Nam",
        "city": "Hồ Chí Minh",
        "district": "Quận 1",
        "ward": "Phường Bến Nghé",
        "street": "Đường Pasteur",
        "postal_code": "71006",
        "categories": [
            {
                "name": "Hàng tiêu dùng"
            }
        ]
    },
    {
        "name": "Sumikin Bussan",
        "latitude": 10.77747,
        "longitude": 106.69945,
        "address": "Sumikin Bussan, 162 Đường Pasteur, Phường Bến Nghé, Quận 1, Hồ Chí Minh, Việt Nam",
        "country_code": "VNM",
        "country_name": "Việt Nam",
        "city": "Hồ Chí Minh",
        "district": "Quận 1",
        "ward": "Phường Bến Nghé",
        "street": "Đường Pasteur",
        "postal_code": "71006",
        "categories": [
            {
                "name": "Hàng tiêu dùng"
            },
            {
                "name": "Cơ quan và tổ chức"
            }
        ]
    },
    {
        "name": "Gold Skin - Thảo Dược Trị Mụn Dưỡng Da",
        "latitude": 10.77465,
        "longitude": 106.70454,
        "address": "Gold Skin - Thảo Dược Trị Mụn Dưỡng Da, 79 Đường Đồng Khởi, Phường Bến Nghé, Quận 1, Hồ Chí Minh, Việt Nam",
        "country_code": "VNM",
        "country_name": "Việt Nam",
        "city": "Hồ Chí Minh",
        "district": "Quận 1",
        "ward": "Phường Bến Nghé",
        "street": "Đường Đồng Khởi",
        "postal_code": "71006",
        "categories": [
            {
                "name": "Hàng tiêu dùng"
            }
        ]
    },
    {
        "name": "Souvenir Shop",
        "latitude": 10.77968,
        "longitude": 106.69991,
        "address": "Souvenir Shop, Đường Công Xã Paris, Phường Bến Nghé, Quận 1, Hồ Chí Minh, Việt Nam",
        "country_code": "VNM",
        "country_name": "Việt Nam",
        "city": "Hồ Chí Minh",
        "district": "Quận 1",
        "ward": "Phường Bến Nghé",
        "street": "Đường Công Xã Paris",
        "postal_code": "71006",
        "categories": [
            {
                "name": "Hàng tiêu dùng"
            },
            {
                "name": "Cửa hàng chuyên dụng"
            },
            {
                "name": "Quà tặng, đồ cổ và tác phẩm nghệ thuật"
            }
        ]
    },
    {
        "name": "The Local Stories",
        "latitude": 10.77533,
        "longitude": 106.70567,
        "address": "The Local Stories, 3 Đường Phan Văn Đạt, Phường Bến Nghé, Quận 1, Hồ Chí Minh, Việt Nam",
        "country_code": "VNM",
        "country_name": "Việt Nam",
        "city": "Hồ Chí Minh",
        "district": "Quận 1",
        "ward": "Phường Bến Nghé",
        "street": "Đường Phan Văn Đạt",
        "postal_code": "71006",
        "categories": [
            {
                "name": "Hàng tiêu dùng"
            }
        ]
    },
    {
        "name": "Cua Hang Am Thanh So 2",
        "latitude": 10.77774,
        "longitude": 106.69911,
        "address": "Cua Hang Am Thanh So 2, 172 Đường Pasteur, Phường Bến Nghé, Quận 1, Hồ Chí Minh, Việt Nam",
        "country_code": "VNM",
        "country_name": "Việt Nam",
        "city": "Hồ Chí Minh",
        "district": "Quận 1",
        "ward": "Phường Bến Nghé",
        "street": "Đường Pasteur",
        "postal_code": "71006",
        "categories": [
            {
                "name": "Hàng tiêu dùng"
            }
        ]
    },
    {
        "name": "Nhà Triển Lãm Thành Phố 92 Lê Thánh Tôn",
        "latitude": 10.77527,
        "longitude": 106.69993,
        "address": "Nhà Triển Lãm Thành Phố 92 Lê Thánh Tôn, 92 Đường Lê Thánh Tôn, Phường Bến Nghé, Quận 1, Hồ Chí Minh, Việt Nam",
        "country_code": "VNM",
        "country_name": "Việt Nam",
        "city": "Hồ Chí Minh",
        "district": "Quận 1",
        "ward": "Phường Bến Nghé",
        "street": "Đường Lê Thánh Tôn",
        "postal_code": "71006",
        "categories": [
            {
                "name": "Hàng tiêu dùng"
            }
        ]
    },
    {
        "name": "Gogo",
        "latitude": 10.77402,
        "longitude": 106.70419,
        "address": "Gogo, 42 Đường Nguyễn Huệ, Phường Bến Nghé, Quận 1, Hồ Chí Minh, Việt Nam",
        "country_code": "VNM",
        "country_name": "Việt Nam",
        "city": "Hồ Chí Minh",
        "district": "Quận 1",
        "ward": "Phường Bến Nghé",
        "street": "Đường Nguyễn Huệ",
        "postal_code": "71006",
        "categories": [
            {
                "name": "Hàng tiêu dùng"
            }
        ]
    },
    {
        "name": "Muguet",
        "latitude": 10.77402,
        "longitude": 106.70419,
        "address": "Muguet, 42 Đường Nguyễn Huệ, Phường Bến Nghé, Quận 1, Hồ Chí Minh, Việt Nam",
        "country_code": "VNM",
        "country_name": "Việt Nam",
        "city": "Hồ Chí Minh",
        "district": "Quận 1",
        "ward": "Phường Bến Nghé",
        "street": "Đường Nguyễn Huệ",
        "postal_code": "71006",
        "categories": [
            {
                "name": "Hàng tiêu dùng"
            }
        ]
    },
    {
        "name": "Dg Decor - Dang Giao",
        "latitude": 10.77434,
        "longitude": 106.70073,
        "address": "Dg Decor - Dang Giao, 30 Hẻm 36 Đường Lê Lợi, Phường Bến Nghé, Quận 1, Hồ Chí Minh, Việt Nam",
        "country_code": "VNM",
        "country_name": "Việt Nam",
        "city": "Hồ Chí Minh",
        "district": "Quận 1",
        "ward": "Phường Bến Nghé",
        "street": "Hẻm 36 Đường Lê Lợi",
        "postal_code": "71006",
        "categories": [
            {
                "name": "Cửa hàng bán đồ gia dụng/Nội thất"
            },
            {
                "name": "Hàng tiêu dùng"
            }
        ]
    },
    {
        "name": "Modern Vespa Saigon",
        "latitude": 10.77382,
        "longitude": 106.70368,
        "address": "Modern Vespa Saigon, Đường Nguyễn Huệ, Phường Bến Nghé, Quận 1, Hồ Chí Minh, Việt Nam",
        "country_code": "VNM",
        "country_name": "Việt Nam",
        "city": "Hồ Chí Minh",
        "district": "Quận 1",
        "ward": "Phường Bến Nghé",
        "street": "Đường Nguyễn Huệ",
        "postal_code": "71006",
        "categories": [
            {
                "name": "Hàng tiêu dùng"
            },
            {
                "name": "Cơ quan và tổ chức"
            }
        ]
    },
    {
        "name": "Mien Nam Department Store Joint Stock Co",
        "latitude": 10.77369,
        "longitude": 106.7029,
        "address": "Mien Nam Department Store Joint Stock Co, 16 Đường Tôn Thất Thiệp, Phường Bến Nghé, Quận 1, Hồ Chí Minh, Việt Nam",
        "country_code": "VNM",
        "country_name": "Việt Nam",
        "city": "Hồ Chí Minh",
        "district": "Quận 1",
        "ward": "Phường Bến Nghé",
        "street": "Đường Tôn Thất Thiệp",
        "postal_code": "71006",
        "categories": [
            {
                "name": "Hàng tiêu dùng"
            }
        ]
    },
    {
        "name": "Tax Supermarket - Satra Mart",
        "latitude": 10.77386,
        "longitude": 106.70422,
        "address": "Tax Supermarket - Satra Mart, 38 Đường Nguyễn Huệ, Phường Bến Nghé, Quận 1, Hồ Chí Minh, Việt Nam",
        "country_code": "VNM",
        "country_name": "Việt Nam",
        "city": "Hồ Chí Minh",
        "district": "Quận 1",
        "ward": "Phường Bến Nghé",
        "street": "Đường Nguyễn Huệ",
        "postal_code": "71006",
        "categories": [
            {
                "name": "Hàng tiêu dùng"
            }
        ]
    },
    {
        "name": "Familymart - Trần Đình Xu",
        "latitude": 10.7744,
        "longitude": 106.70538,
        "address": "Familymart - Trần Đình Xu, Đường Hồ Huấn Nghiệp, Phường Bến Nghé, Quận 1, Hồ Chí Minh, Việt Nam",
        "country_code": "VNM",
        "country_name": "Việt Nam",
        "city": "Hồ Chí Minh",
        "district": "Quận 1",
        "ward": "Phường Bến Nghé",
        "street": "Đường Hồ Huấn Nghiệp",
        "postal_code": "71006",
        "categories": [
            {
                "name": "Hàng tiêu dùng"
            }
        ]
    },
    {
        "name": "All 'Bout Him",
        "latitude": 10.77346,
        "longitude": 106.7024,
        "address": "All 'Bout Him, 42 Đường Tôn Thất Thiệp, Phường Bến Nghé, Quận 1, Hồ Chí Minh, Việt Nam",
        "country_code": "VNM",
        "country_name": "Việt Nam",
        "city": "Hồ Chí Minh",
        "district": "Quận 1",
        "ward": "Phường Bến Nghé",
        "street": "Đường Tôn Thất Thiệp",
        "postal_code": "71006",
        "categories": [
            {
                "name": "Hàng tiêu dùng"
            },
            {
                "name": "Quần áo nam"
            },
            {
                "name": "Cửa hàng chuyên một loại quần áo"
            }
        ]
    },
    {
        "name": "Outsider",
        "latitude": 10.77346,
        "longitude": 106.7024,
        "address": "Outsider, 42 Đường Tôn Thất Thiệp, Phường Bến Nghé, Quận 1, Hồ Chí Minh, Việt Nam",
        "country_code": "VNM",
        "country_name": "Việt Nam",
        "city": "Hồ Chí Minh",
        "district": "Quận 1",
        "ward": "Phường Bến Nghé",
        "street": "Đường Tôn Thất Thiệp",
        "postal_code": "71006",
        "categories": [
            {
                "name": "Hàng tiêu dùng"
            }
        ]
    },
    {
        "name": "Moden",
        "latitude": 10.77346,
        "longitude": 106.7024,
        "address": "Moden, 42 Đường Tôn Thất Thiệp, Phường Bến Nghé, Quận 1, Hồ Chí Minh, Việt Nam",
        "country_code": "VNM",
        "country_name": "Việt Nam",
        "city": "Hồ Chí Minh",
        "district": "Quận 1",
        "ward": "Phường Bến Nghé",
        "street": "Đường Tôn Thất Thiệp",
        "postal_code": "71006",
        "categories": [
            {
                "name": "Hàng tiêu dùng"
            }
        ]
    },
    {
        "name": "St2wear",
        "latitude": 10.77346,
        "longitude": 106.7024,
        "address": "St2wear, 42 Đường Tôn Thất Thiệp, Phường Bến Nghé, Quận 1, Hồ Chí Minh, Việt Nam",
        "country_code": "VNM",
        "country_name": "Việt Nam",
        "city": "Hồ Chí Minh",
        "district": "Quận 1",
        "ward": "Phường Bến Nghé",
        "street": "Đường Tôn Thất Thiệp",
        "postal_code": "71006",
        "categories": [
            {
                "name": "Hàng tiêu dùng"
            },
            {
                "name": "Quần áo phụ nữ"
            }
        ]
    },
    {
        "name": "Linh Angel Eyes",
        "latitude": 10.77339,
        "longitude": 106.70226,
        "address": "Linh Angel Eyes, Đường Tôn Thất Thiệp, Phường Bến Nghé, Quận 1, Hồ Chí Minh, Việt Nam",
        "country_code": "VNM",
        "country_name": "Việt Nam",
        "city": "Hồ Chí Minh",
        "district": "Quận 1",
        "ward": "Phường Bến Nghé",
        "street": "Đường Tôn Thất Thiệp",
        "postal_code": "71006",
        "categories": [
            {
                "name": "Hàng tiêu dùng"
            }
        ]
    },
    {
        "name": "Healthy Food House",
        "latitude": 10.77338,
        "longitude": 106.70221,
        "address": "Healthy Food House, Đường Tôn Thất Thiệp, Phường Bến Nghé, Quận 1, Hồ Chí Minh, Việt Nam",
        "country_code": "VNM",
        "country_name": "Việt Nam",
        "city": "Hồ Chí Minh",
        "district": "Quận 1",
        "ward": "Phường Bến Nghé",
        "street": "Đường Tôn Thất Thiệp",
        "postal_code": "71006",
        "categories": [
            {
                "name": "Hàng tiêu dùng"
            }
        ]
    },
    {
        "name": "Cửa Hàng Băng Đĩa 42",
        "latitude": 10.77336,
        "longitude": 106.70334,
        "address": "Cửa Hàng Băng Đĩa 42, 21 Đường Huỳnh Thúc Kháng, Phường Bến Nghé, Quận 1, Hồ Chí Minh, Việt Nam",
        "country_code": "VNM",
        "country_name": "Việt Nam",
        "city": "Hồ Chí Minh",
        "district": "Quận 1",
        "ward": "Phường Bến Nghé",
        "street": "Đường Huỳnh Thúc Kháng",
        "postal_code": "71006",
        "categories": [
            {
                "name": "Hàng tiêu dùng"
            }
        ]
    },
    {
        "name": "Hkd Chiec La",
        "latitude": 10.78113,
        "longitude": 106.70527,
        "address": "Hkd Chiec La, 15A Đường Lê Thánh Tôn, Phường Bến Nghé, Quận 1, Hồ Chí Minh, Việt Nam",
        "country_code": "VNM",
        "country_name": "Việt Nam",
        "city": "Hồ Chí Minh",
        "district": "Quận 1",
        "ward": "Phường Bến Nghé",
        "street": "Đường Lê Thánh Tôn",
        "postal_code": "71006",
        "categories": [
            {
                "name": "Hàng tiêu dùng"
            }
        ]
    },
    {
        "name": "Sakura",
        "latitude": 10.77442,
        "longitude": 106.70587,
        "address": "Sakura, 2 Đường Ngô Đức Kế, Phường Bến Nghé, Quận 1, Hồ Chí Minh, Việt Nam",
        "country_code": "VNM",
        "country_name": "Việt Nam",
        "city": "Hồ Chí Minh",
        "district": "Quận 1",
        "ward": "Phường Bến Nghé",
        "street": "Đường Ngô Đức Kế",
        "postal_code": "71006",
        "categories": [
            {
                "name": "Hàng tiêu dùng"
            }
        ]
    },
    {
        "name": "Junky Enterprises - Rep. Office",
        "latitude": 10.77442,
        "longitude": 106.70587,
        "address": "Junky Enterprises - Rep. Office, 2 Đường Ngô Đức Kế, Phường Bến Nghé, Quận 1, Hồ Chí Minh, Việt Nam",
        "country_code": "VNM",
        "country_name": "Việt Nam",
        "city": "Hồ Chí Minh",
        "district": "Quận 1",
        "ward": "Phường Bến Nghé",
        "street": "Đường Ngô Đức Kế",
        "postal_code": "71006",
        "categories": [
            {
                "name": "Hàng tiêu dùng"
            }
        ]
    },
    {
        "name": "Juice Station - Zone 87",
        "latitude": 10.77337,
        "longitude": 106.70407,
        "address": "Juice Station - Zone 87, 87 Đường Nguyễn Huệ, Phường Bến Nghé, Quận 1, Hồ Chí Minh, Việt Nam",
        "country_code": "VNM",
        "country_name": "Việt Nam",
        "city": "Hồ Chí Minh",
        "district": "Quận 1",
        "ward": "Phường Bến Nghé",
        "street": "Đường Nguyễn Huệ",
        "postal_code": "71006",
        "categories": [
            {
                "name": "Hàng tiêu dùng"
            }
        ]
    },
    {
        "name": "Unique - Leather Shop",
        "latitude": 10.77392,
        "longitude": 106.70528,
        "address": "Unique - Leather Shop, 49 Đường Đồng Khởi, Phường Bến Nghé, Quận 1, Hồ Chí Minh, Việt Nam",
        "country_code": "VNM",
        "country_name": "Việt Nam",
        "city": "Hồ Chí Minh",
        "district": "Quận 1",
        "ward": "Phường Bến Nghé",
        "street": "Đường Đồng Khởi",
        "postal_code": "71006",
        "categories": [
            {
                "name": "Hàng tiêu dùng"
            }
        ]
    },
    {
        "name": "Nhà Xinh Showroom",
        "latitude": 10.77352,
        "longitude": 106.70061,
        "address": "Nhà Xinh Showroom, Đường Lê Lợi, Phường Bến Nghé, Quận 1, Hồ Chí Minh, Việt Nam",
        "country_code": "VNM",
        "country_name": "Việt Nam",
        "city": "Hồ Chí Minh",
        "district": "Quận 1",
        "ward": "Phường Bến Nghé",
        "street": "Đường Lê Lợi",
        "postal_code": "71006",
        "categories": [
            {
                "name": "Hàng tiêu dùng"
            }
        ]
    },
    {
        "name": "Milena - Mẹ & Bé",
        "latitude": 10.7783,
        "longitude": 106.69817,
        "address": "Milena - Mẹ & Bé, 101 Đường Pasteur, Phường Bến Nghé, Quận 1, Hồ Chí Minh, Việt Nam",
        "country_code": "VNM",
        "country_name": "Việt Nam",
        "city": "Hồ Chí Minh",
        "district": "Quận 1",
        "ward": "Phường Bến Nghé",
        "street": "Đường Pasteur",
        "postal_code": "71006",
        "categories": [
            {
                "name": "Hàng tiêu dùng"
            },
            {
                "name": "Quầy hàng đặc sản"
            }
        ]
    },
    {
        "name": "Chi Audio",
        "latitude": 10.77408,
        "longitude": 106.70591,
        "address": "Chi Audio, 12 Đường Ngô Đức Kế, Phường Bến Nghé, Quận 1, Hồ Chí Minh, Việt Nam",
        "country_code": "VNM",
        "country_name": "Việt Nam",
        "city": "Hồ Chí Minh",
        "district": "Quận 1",
        "ward": "Phường Bến Nghé",
        "street": "Đường Ngô Đức Kế",
        "postal_code": "71006",
        "categories": [
            {
                "name": "Hàng tiêu dùng"
            }
        ]
    },
    {
        "name": "Siêu Thị Online",
        "latitude": 10.77348,
        "longitude": 106.70052,
        "address": "Siêu Thị Online, 67 Đường Lê Lợi, Phường Bến Nghé, Quận 1, Hồ Chí Minh, Việt Nam",
        "country_code": "VNM",
        "country_name": "Việt Nam",
        "city": "Hồ Chí Minh",
        "district": "Quận 1",
        "ward": "Phường Bến Nghé",
        "street": "Đường Lê Lợi",
        "postal_code": "71006",
        "categories": [
            {
                "name": "Hàng tiêu dùng"
            }
        ]
    },
    {
        "name": "Acfc Vietnam Tuyển Dụng",
        "latitude": 10.77691,
        "longitude": 106.69809,
        "address": "Acfc Vietnam Tuyển Dụng, 93 Đường Nguyễn Du, Phường Bến Nghé, Quận 1, Hồ Chí Minh, Việt Nam",
        "country_code": "VNM",
        "country_name": "Việt Nam",
        "city": "Hồ Chí Minh",
        "district": "Quận 1",
        "ward": "Phường Bến Nghé",
        "street": "Đường Nguyễn Du",
        "postal_code": "71006",
        "categories": [
            {
                "name": "Hàng tiêu dùng"
            },
            {
                "name": "Dịch vụ nguồn nhân lực & tuyển dụng"
            }
        ]
    },
    {
        "name": "Audio Sonha Cn3 -Vnd",
        "latitude": 10.77276,
        "longitude": 106.70244,
        "address": "Audio Sonha Cn3 -Vnd, 32 Đường Huỳnh Thúc Kháng, Phường Bến Nghé, Quận 1, Hồ Chí Minh, Việt Nam",
        "country_code": "VNM",
        "country_name": "Việt Nam",
        "city": "Hồ Chí Minh",
        "district": "Quận 1",
        "ward": "Phường Bến Nghé",
        "street": "Đường Huỳnh Thúc Kháng",
        "postal_code": "71006",
        "categories": [
            {
                "name": "Hàng tiêu dùng"
            }
        ]
    },
    {
        "name": "DNTN Thương Maị Nguyễn Quân",
        "latitude": 10.77276,
        "longitude": 106.70244,
        "address": "DNTN Thương Maị Nguyễn Quân, 32 Đường Huỳnh Thúc Kháng, Phường Bến Nghé, Quận 1, Hồ Chí Minh, Việt Nam",
        "country_code": "VNM",
        "country_name": "Việt Nam",
        "city": "Hồ Chí Minh",
        "district": "Quận 1",
        "ward": "Phường Bến Nghé",
        "street": "Đường Huỳnh Thúc Kháng",
        "postal_code": "71006",
        "categories": [
            {
                "name": "Hàng tiêu dùng"
            }
        ]
    },
    {
        "name": "Vy Milk Socks & Bags",
        "latitude": 10.78207,
        "longitude": 106.7047,
        "address": "Vy Milk Socks & Bags, Đường Lý Tự Trọng, Phường Bến Nghé, Quận 1, Hồ Chí Minh, Việt Nam",
        "country_code": "VNM",
        "country_name": "Việt Nam",
        "city": "Hồ Chí Minh",
        "district": "Quận 1",
        "ward": "Phường Bến Nghé",
        "street": "Đường Lý Tự Trọng",
        "postal_code": "71006",
        "categories": [
            {
                "name": "Hàng tiêu dùng"
            }
        ]
    },
    {
        "name": "Cellini Shoes & Bags",
        "latitude": 10.77331,
        "longitude": 106.70036,
        "address": "Cellini Shoes & Bags, 65 Đường Lê Lợi, Phường Bến Nghé, Quận 1, Hồ Chí Minh, Việt Nam",
        "country_code": "VNM",
        "country_name": "Việt Nam",
        "city": "Hồ Chí Minh",
        "district": "Quận 1",
        "ward": "Phường Bến Nghé",
        "street": "Đường Lê Lợi",
        "postal_code": "71006",
        "categories": [
            {
                "name": "Hàng tiêu dùng"
            }
        ]
    },
    {
        "name": "Tạp Hoá Việt Mơ",
        "latitude": 10.77398,
        "longitude": 106.69934,
        "address": "Tạp Hoá Việt Mơ, Đường Nguyễn Trung Trực, Phường Bến Thành, Quận 1, Hồ Chí Minh, Việt Nam",
        "country_code": "VNM",
        "country_name": "Việt Nam",
        "city": "Hồ Chí Minh",
        "district": "Quận 1",
        "ward": "Phường Bến Thành",
        "street": "Đường Nguyễn Trung Trực",
        "postal_code": "71009",
        "categories": [
            {
                "name": "Hàng tiêu dùng"
            }
        ]
    },
    {
        "name": "Agatajapan.Cafe Yukimura",
        "latitude": 10.7732,
        "longitude": 106.7004,
        "address": "Agatajapan.Cafe Yukimura, 92-94 Đường Nam Kỳ Khởi Nghĩa, Phường Bến Thành, Quận 1, Hồ Chí Minh, Việt Nam",
        "country_code": "VNM",
        "country_name": "Việt Nam",
        "city": "Hồ Chí Minh",
        "district": "Quận 1",
        "ward": "Phường Bến Thành",
        "street": "Đường Nam Kỳ Khởi Nghĩa",
        "postal_code": "71009",
        "categories": [
            {
                "name": "Hàng tiêu dùng"
            },
            {
                "name": "Đặc sản & Đồ uống"
            }
        ]
    },
    {
        "name": "Sonha1",
        "latitude": 10.77257,
        "longitude": 106.70235,
        "address": "Sonha1, 39 Đường Huỳnh Thúc Kháng, Phường Bến Nghé, Quận 1, Hồ Chí Minh, Việt Nam",
        "country_code": "VNM",
        "country_name": "Việt Nam",
        "city": "Hồ Chí Minh",
        "district": "Quận 1",
        "ward": "Phường Bến Nghé",
        "street": "Đường Huỳnh Thúc Kháng",
        "postal_code": "71006",
        "categories": [
            {
                "name": "Hàng tiêu dùng"
            }
        ]
    },
    {
        "name": "Celdon",
        "latitude": 10.77287,
        "longitude": 106.70461,
        "address": "Celdon, Đường Nguyễn Huệ, Phường Bến Nghé, Quận 1, Hồ Chí Minh, Việt Nam",
        "country_code": "VNM",
        "country_name": "Việt Nam",
        "city": "Hồ Chí Minh",
        "district": "Quận 1",
        "ward": "Phường Bến Nghé",
        "street": "Đường Nguyễn Huệ",
        "postal_code": "71006",
        "categories": [
            {
                "name": "Hàng tiêu dùng"
            }
        ]
    },
    {
        "name": "Phụ Liệu Ngành Tóc",
        "latitude": 10.781,
        "longitude": 106.69905,
        "address": "Phụ Liệu Ngành Tóc, Đường Lê Duẩn, Phường Bến Nghé, Quận 1, Hồ Chí Minh, Việt Nam",
        "country_code": "VNM",
        "country_name": "Việt Nam",
        "city": "Hồ Chí Minh",
        "district": "Quận 1",
        "ward": "Phường Bến Nghé",
        "street": "Đường Lê Duẩn",
        "postal_code": "71006",
        "categories": [
            {
                "name": "Hàng tiêu dùng"
            }
        ]
    },
    {
        "name": "Think Luxury",
        "latitude": 10.781,
        "longitude": 106.69905,
        "address": "Think Luxury, Đường Lê Duẩn, Phường Bến Nghé, Quận 1, Hồ Chí Minh, Việt Nam",
        "country_code": "VNM",
        "country_name": "Việt Nam",
        "city": "Hồ Chí Minh",
        "district": "Quận 1",
        "ward": "Phường Bến Nghé",
        "street": "Đường Lê Duẩn",
        "postal_code": "71006",
        "categories": [
            {
                "name": "Hàng tiêu dùng"
            }
        ]
    }
]
