[
    {
        "name": "Tập đoàn Mai Linh",
        "latitude": 10.77733,
        "longitude": 106.70428,
        "address": "Tập đoàn Mai Linh, 64 Đường Hai Bà Trưng, Phường Bến Nghé, Quận 1, Hồ Chí Minh, Việt Nam",
        "country_code": "VNM",
        "country_name": "Việt Nam",
        "city": "Hồ Chí Minh",
        "district": "Quận 1",
        "ward": "Phường Bến Nghé",
        "street": "Đường Hai Bà Trưng",
        "postal_code": "71006",
        "categories": [
            {
                "name": "Dịch vụ vận chuyển"
            },
            {
                "name": "Cửa hàng bán lẻ điện thoại di động"
            }
        ]
    },
    {
        "name": "Viễn Thông Mai Linh",
        "latitude": 10.77735,
        "longitude": 106.70435,
        "address": "Viễn Thông Mai Linh, Đường Hai Bà Trưng, Phường Bến Nghé, Quận 1, Hồ Chí Minh, Việt Nam",
        "country_code": "VNM",
        "country_name": "Việt Nam",
        "city": "Hồ Chí Minh",
        "district": "Quận 1",
        "ward": "Phường Bến Nghé",
        "street": "Đường Hai Bà Trưng",
        "postal_code": "71006",
        "categories": [
            {
                "name": "Cửa hàng bán lẻ điện thoại di động"
            }
        ]
    },
    {
        "name": "Honor Store",
        "latitude": 10.7748,
        "longitude": 106.70254,
        "address": "Honor Store, 44 Đường Nguyễn Huệ, Phường Bến Nghé, Quận 1, Hồ Chí Minh, Việt Nam",
        "country_code": "VNM",
        "country_name": "Việt Nam",
        "city": "Hồ Chí Minh",
        "district": "Quận 1",
        "ward": "Phường Bến Nghé",
        "street": "Đường Nguyễn Huệ",
        "postal_code": "71006",
        "categories": [
            {
                "name": "Cửa hàng bán lẻ điện thoại di động"
            }
        ]
    },
    {
        "name": "Honor Brandshop Hcm",
        "latitude": 10.7748,
        "longitude": 106.70254,
        "address": "Honor Brandshop Hcm, 44 Đường Nguyễn Huệ, Phường Bến Nghé, Quận 1, Hồ Chí Minh, Việt Nam",
        "country_code": "VNM",
        "country_name": "Việt Nam",
        "city": "Hồ Chí Minh",
        "district": "Quận 1",
        "ward": "Phường Bến Nghé",
        "street": "Đường Nguyễn Huệ",
        "postal_code": "71006",
        "categories": [
            {
                "name": "Cửa hàng bán lẻ điện thoại di động"
            }
        ]
    },
    {
        "name": "Htc Showroom Nguyen Hue",
        "latitude": 10.77398,
        "longitude": 106.70389,
        "address": "Htc Showroom Nguyen Hue, 52-54 Đường Nguyễn Huệ, Phường Bến Nghé, Quận 1, Hồ Chí Minh, Việt Nam",
        "country_code": "VNM",
        "country_name": "Việt Nam",
        "city": "Hồ Chí Minh",
        "district": "Quận 1",
        "ward": "Phường Bến Nghé",
        "street": "Đường Nguyễn Huệ",
        "postal_code": "71006",
        "categories": [
            {
                "name": "Cửa hàng bán lẻ điện thoại di động"
            },
            {
                "name": "Dịch vụ B2B"
            }
        ]
    },
    {
        "name": "Blackberry Vincom",
        "latitude": 10.77777,
        "longitude": 106.70683,
        "address": "Blackberry Vincom, Đường Tôn Đức Thắng, Phường Bến Nghé, Quận 1, Hồ Chí Minh, Việt Nam",
        "country_code": "VNM",
        "country_name": "Việt Nam",
        "city": "Hồ Chí Minh",
        "district": "Quận 1",
        "ward": "Phường Bến Nghé",
        "street": "Đường Tôn Đức Thắng",
        "postal_code": "71006",
        "categories": [
            {
                "name": "Cửa hàng bán lẻ điện thoại di động"
            }
        ]
    },
    {
        "name": "Haloshop.Vn",
        "latitude": 10.77237,
        "longitude": 106.70194,
        "address": "Haloshop.Vn, Đường Huỳnh Thúc Kháng, Phường Bến Nghé, Quận 1, Hồ Chí Minh, Việt Nam",
        "country_code": "VNM",
        "country_name": "Việt Nam",
        "city": "Hồ Chí Minh",
        "district": "Quận 1",
        "ward": "Phường Bến Nghé",
        "street": "Đường Huỳnh Thúc Kháng",
        "postal_code": "71006",
        "categories": [
            {
                "name": "Cửa hàng bán lẻ điện thoại di động"
            },
            {
                "name": "Cho thuê video & trò chơi"
            }
        ]
    },
    {
        "name": "Satsco Airport Pic-Up & Transfers",
        "latitude": 10.77227,
        "longitude": 106.70367,
        "address": "Satsco Airport Pic-Up & Transfers, Đường Hồ Tùng Mậu, Phường Bến Nghé, Quận 1, Hồ Chí Minh, Việt Nam",
        "country_code": "VNM",
        "country_name": "Việt Nam",
        "city": "Hồ Chí Minh",
        "district": "Quận 1",
        "ward": "Phường Bến Nghé",
        "street": "Đường Hồ Tùng Mậu",
        "postal_code": "71006",
        "categories": [
            {
                "name": "Cửa hàng bán lẻ điện thoại di động"
            }
        ]
    },
    {
        "name": "Siêu Thị ĐTDĐ Mạnh Tiến",
        "latitude": 10.77302,
        "longitude": 106.70619,
        "address": "Siêu Thị ĐTDĐ Mạnh Tiến, Đường Đồng Khởi, Phường Bến Nghé, Quận 1, Hồ Chí Minh, Việt Nam",
        "country_code": "VNM",
        "country_name": "Việt Nam",
        "city": "Hồ Chí Minh",
        "district": "Quận 1",
        "ward": "Phường Bến Nghé",
        "street": "Đường Đồng Khởi",
        "postal_code": "71006",
        "categories": [
            {
                "name": "Cửa hàng bán lẻ điện thoại di động"
            }
        ]
    },
    {
        "name": "Ses Mai Nguyên",
        "latitude": 10.77198,
        "longitude": 106.70524,
        "address": "Ses Mai Nguyên, Đường Hải Triều, Phường Bến Nghé, Quận 1, Hồ Chí Minh, Việt Nam",
        "country_code": "VNM",
        "country_name": "Việt Nam",
        "city": "Hồ Chí Minh",
        "district": "Quận 1",
        "ward": "Phường Bến Nghé",
        "street": "Đường Hải Triều",
        "postal_code": "71006",
        "categories": [
            {
                "name": "Cửa hàng bán lẻ điện thoại di động"
            }
        ]
    },
    {
        "name": "Fstudio Vincom A",
        "latitude": 10.77244,
        "longitude": 106.69856,
        "address": "Fstudio Vincom A, Đường Phan Bội Châu, Phường Bến Thành, Quận 1, Hồ Chí Minh, Việt Nam",
        "country_code": "VNM",
        "country_name": "Việt Nam",
        "city": "Hồ Chí Minh",
        "district": "Quận 1",
        "ward": "Phường Bến Thành",
        "street": "Đường Phan Bội Châu",
        "postal_code": "71009",
        "categories": [
            {
                "name": "Cửa hàng bán lẻ điện thoại di động"
            }
        ]
    },
    {
        "name": "Laptop Toshiba",
        "latitude": 10.78246,
        "longitude": 106.69759,
        "address": "Laptop Toshiba, 72 Đường Nguyễn Thị Minh Khai, Phường Võ Thị Sáu, Quận 3, Hồ Chí Minh, Việt Nam",
        "country_code": "VNM",
        "country_name": "Việt Nam",
        "city": "Hồ Chí Minh",
        "district": "Quận 3",
        "ward": "Phường Võ Thị Sáu",
        "street": "Đường Nguyễn Thị Minh Khai",
        "postal_code": "72415",
        "categories": [
            {
                "name": "Cửa hàng bán lẻ điện thoại di động"
            }
        ]
    },
    {
        "name": "Payphone",
        "latitude": 10.77052,
        "longitude": 106.70372,
        "address": "Payphone, Đường Hàm Nghi, Phường Nguyễn Thái Bình, Quận 1, Hồ Chí Minh, Việt Nam",
        "country_code": "VNM",
        "country_name": "Việt Nam",
        "city": "Hồ Chí Minh",
        "district": "Quận 1",
        "ward": "Phường Nguyễn Thái Bình",
        "street": "Đường Hàm Nghi",
        "postal_code": "71010",
        "categories": [
            {
                "name": "Cửa hàng bán lẻ điện thoại di động"
            }
        ]
    },
    {
        "name": "Râu Vàng",
        "latitude": 10.78348,
        "longitude": 106.69733,
        "address": "Râu Vàng, 149C Đường Hai Bà Trưng, Phường Võ Thị Sáu, Quận 3, Hồ Chí Minh, Việt Nam",
        "country_code": "VNM",
        "country_name": "Việt Nam",
        "city": "Hồ Chí Minh",
        "district": "Quận 3",
        "ward": "Phường Võ Thị Sáu",
        "street": "Đường Hai Bà Trưng",
        "postal_code": "72415",
        "categories": [
            {
                "name": "Cửa hàng bán lẻ điện thoại di động"
            },
            {
                "name": "Thợ kim hoàn"
            },
            {
                "name": "Cắt tóc & Tạo mẫu"
            }
        ]
    },
    {
        "name": "Viettrans Transport Service And Trading",
        "latitude": 10.78566,
        "longitude": 106.70165,
        "address": "Viettrans Transport Service And Trading, Đường Tôn Đức Thắng, Phường Bến Nghé, Quận 1, Hồ Chí Minh, Việt Nam",
        "country_code": "VNM",
        "country_name": "Việt Nam",
        "city": "Hồ Chí Minh",
        "district": "Quận 1",
        "ward": "Phường Bến Nghé",
        "street": "Đường Tôn Đức Thắng",
        "postal_code": "71006",
        "categories": [
            {
                "name": "Cửa hàng bán lẻ điện thoại di động"
            },
            {
                "name": "Dịch vụ vận chuyển"
            },
            {
                "name": "Vận tải hàng"
            },
            {
                "name": "Dịch vụ điện thoại"
            }
        ]
    },
    {
        "name": "Iphone Sài Gòn",
        "latitude": 10.78598,
        "longitude": 106.70126,
        "address": "Iphone Sài Gòn, 15A Đường Nguyễn Thị Minh Khai, Phường Đa Kao, Quận 1, Hồ Chí Minh, Việt Nam",
        "country_code": "VNM",
        "country_name": "Việt Nam",
        "city": "Hồ Chí Minh",
        "district": "Quận 1",
        "ward": "Phường Đa Kao",
        "street": "Đường Nguyễn Thị Minh Khai",
        "postal_code": "71007",
        "categories": [
            {
                "name": "Cửa hàng bán lẻ điện thoại di động"
            },
            {
                "name": "Hàng tiêu dùng"
            }
        ]
    },
    {
        "name": "Đànông Shop",
        "latitude": 10.78212,
        "longitude": 106.69541,
        "address": "Đànông Shop, 2 Đường Võ Văn Tần, Phường Võ Thị Sáu, Quận 3, Hồ Chí Minh, Việt Nam",
        "country_code": "VNM",
        "country_name": "Việt Nam",
        "city": "Hồ Chí Minh",
        "district": "Quận 3",
        "ward": "Phường Võ Thị Sáu",
        "street": "Đường Võ Văn Tần",
        "postal_code": "72415",
        "categories": [
            {
                "name": "Cửa hàng bán lẻ điện thoại di động"
            },
            {
                "name": "Hàng tiêu dùng"
            }
        ]
    },
    {
        "name": "Trí Smartphone",
        "latitude": 10.78624,
        "longitude": 106.70252,
        "address": "Trí Smartphone, 45 Đường Đinh Tiên Hoàng, Phường Bến Nghé, Quận 1, Hồ Chí Minh, Việt Nam",
        "country_code": "VNM",
        "country_name": "Việt Nam",
        "city": "Hồ Chí Minh",
        "district": "Quận 1",
        "ward": "Phường Bến Nghé",
        "street": "Đường Đinh Tiên Hoàng",
        "postal_code": "71006",
        "categories": [
            {
                "name": "Cửa hàng bán lẻ điện thoại di động"
            }
        ]
    },
    {
        "name": "Nokia Care",
        "latitude": 10.76901,
        "longitude": 106.69834,
        "address": "Nokia Care, 145 Đường Calmette, Phường Nguyễn Thái Bình, Quận 1, Hồ Chí Minh, Việt Nam",
        "country_code": "VNM",
        "country_name": "Việt Nam",
        "city": "Hồ Chí Minh",
        "district": "Quận 1",
        "ward": "Phường Nguyễn Thái Bình",
        "street": "Đường Calmette",
        "postal_code": "71010",
        "categories": [
            {
                "name": "Cửa hàng bán lẻ điện thoại di động"
            }
        ]
    },
    {
        "name": "Lùn Shop",
        "latitude": 10.77153,
        "longitude": 106.69376,
        "address": "Lùn Shop, 317 Đường Lý Tự Trọng, Phường Bến Thành, Quận 1, Hồ Chí Minh, Việt Nam",
        "country_code": "VNM",
        "country_name": "Việt Nam",
        "city": "Hồ Chí Minh",
        "district": "Quận 1",
        "ward": "Phường Bến Thành",
        "street": "Đường Lý Tự Trọng",
        "postal_code": "71009",
        "categories": [
            {
                "name": "Cửa hàng bán lẻ điện thoại di động"
            }
        ]
    },
    {
        "name": "Táo Vocal Store",
        "latitude": 10.76871,
        "longitude": 106.6966,
        "address": "Táo Vocal Store, Đường Yersin, Phường Nguyễn Thái Bình, Quận 1, Hồ Chí Minh, Việt Nam",
        "country_code": "VNM",
        "country_name": "Việt Nam",
        "city": "Hồ Chí Minh",
        "district": "Quận 1",
        "ward": "Phường Nguyễn Thái Bình",
        "street": "Đường Yersin",
        "postal_code": "71010",
        "categories": [
            {
                "name": "Cửa hàng bán lẻ điện thoại di động"
            }
        ]
    },
    {
        "name": "Ila Computer",
        "latitude": 10.78777,
        "longitude": 106.69918,
        "address": "Ila Computer, 3 Đường Nguyễn Đình Chiểu, Phường Đa Kao, Quận 1, Hồ Chí Minh, Việt Nam",
        "country_code": "VNM",
        "country_name": "Việt Nam",
        "city": "Hồ Chí Minh",
        "district": "Quận 1",
        "ward": "Phường Đa Kao",
        "street": "Đường Nguyễn Đình Chiểu",
        "postal_code": "71007",
        "categories": [
            {
                "name": "Cửa hàng bán lẻ điện thoại di động"
            },
            {
                "name": "Phần mềm và phần cứng máy tính"
            }
        ]
    },
    {
        "name": "Thế Giới Di Động - Nguyễn Thái Học",
        "latitude": 10.76917,
        "longitude": 106.69494,
        "address": "Thế Giới Di Động - Nguyễn Thái Học, 136 Đường Nguyễn Thái Học, Phường Phạm Ngũ Lão, Quận 1, Hồ Chí Minh, Việt Nam",
        "country_code": "VNM",
        "country_name": "Việt Nam",
        "city": "Hồ Chí Minh",
        "district": "Quận 1",
        "ward": "Phường Phạm Ngũ Lão",
        "street": "Đường Nguyễn Thái Học",
        "postal_code": "71012",
        "categories": [
            {
                "name": "Cửa hàng bán lẻ điện thoại di động"
            }
        ]
    },
    {
        "name": "Thế Giới Di Động",
        "latitude": 10.76917,
        "longitude": 106.69494,
        "address": "Thế Giới Di Động, 136 Đường Nguyễn Thái Học, Phường Phạm Ngũ Lão, Quận 1, Hồ Chí Minh, Việt Nam",
        "country_code": "VNM",
        "country_name": "Việt Nam",
        "city": "Hồ Chí Minh",
        "district": "Quận 1",
        "ward": "Phường Phạm Ngũ Lão",
        "street": "Đường Nguyễn Thái Học",
        "postal_code": "71012",
        "categories": [
            {
                "name": "Cửa hàng bán lẻ điện thoại di động"
            },
            {
                "name": "Cửa hàng điện tử gia dụng"
            }
        ]
    },
    {
        "name": "Vietphone",
        "latitude": 10.7885,
        "longitude": 106.6992,
        "address": "Vietphone, Đường Nguyễn Đình Chiểu, Phường Đa Kao, Quận 1, Hồ Chí Minh, Việt Nam",
        "country_code": "VNM",
        "country_name": "Việt Nam",
        "city": "Hồ Chí Minh",
        "district": "Quận 1",
        "ward": "Phường Đa Kao",
        "street": "Đường Nguyễn Đình Chiểu",
        "postal_code": "71007",
        "categories": [
            {
                "name": "Cửa hàng bán lẻ điện thoại di động"
            },
            {
                "name": "Cửa hàng bách hóa"
            },
            {
                "name": "Doanh nghiệp"
            }
        ]
    },
    {
        "name": "Mobifone",
        "latitude": 10.77176,
        "longitude": 106.69273,
        "address": "Mobifone, 25 Đường Cách Mạng Tháng 8, Phường Bến Thành, Quận 1, Hồ Chí Minh, Việt Nam",
        "country_code": "VNM",
        "country_name": "Việt Nam",
        "city": "Hồ Chí Minh",
        "district": "Quận 1",
        "ward": "Phường Bến Thành",
        "street": "Đường Cách Mạng Tháng 8",
        "postal_code": "71009",
        "categories": [
            {
                "name": "Cửa hàng bán lẻ điện thoại di động"
            }
        ]
    },
    {
        "name": "Thế Giới Số",
        "latitude": 10.78898,
        "longitude": 106.70014,
        "address": "Thế Giới Số, 21 Hẻm 21B Nguyễn Đình Chiểu, Phường Đa Kao, Quận 1, Hồ Chí Minh, Việt Nam",
        "country_code": "VNM",
        "country_name": "Việt Nam",
        "city": "Hồ Chí Minh",
        "district": "Quận 1",
        "ward": "Phường Đa Kao",
        "street": "Hẻm 21B Nguyễn Đình Chiểu",
        "postal_code": "71007",
        "categories": [
            {
                "name": "Cửa hàng bán lẻ điện thoại di động"
            },
            {
                "name": "Quảng cáo, tiếp thị, PR và nghiên cứu thị trường"
            }
        ]
    },
    {
        "name": "Thương Mại Dịch Vụ Kỹ Nghệ Việt",
        "latitude": 10.7708,
        "longitude": 106.69267,
        "address": "Thương Mại Dịch Vụ Kỹ Nghệ Việt, Đường Nguyễn Trãi, Phường Bến Thành, Quận 1, Hồ Chí Minh, Việt Nam",
        "country_code": "VNM",
        "country_name": "Việt Nam",
        "city": "Hồ Chí Minh",
        "district": "Quận 1",
        "ward": "Phường Bến Thành",
        "street": "Đường Nguyễn Trãi",
        "postal_code": "71009",
        "categories": [
            {
                "name": "Cửa hàng bán lẻ điện thoại di động"
            }
        ]
    },
    {
        "name": "Alcatel Distribution Canter",
        "latitude": 10.78934,
        "longitude": 106.69984,
        "address": "Alcatel Distribution Canter, 5 Đường Phan Kế Bính, Phường Đa Kao, Quận 1, Hồ Chí Minh, Việt Nam",
        "country_code": "VNM",
        "country_name": "Việt Nam",
        "city": "Hồ Chí Minh",
        "district": "Quận 1",
        "ward": "Phường Đa Kao",
        "street": "Đường Phan Kế Bính",
        "postal_code": "71007",
        "categories": [
            {
                "name": "Cửa hàng bán lẻ điện thoại di động"
            }
        ]
    },
    {
        "name": "Thương Mại Dịch Vụ Phát Triển Tin Học Khôi Nguyên",
        "latitude": 10.76837,
        "longitude": 106.69477,
        "address": "Thương Mại Dịch Vụ Phát Triển Tin Học Khôi Nguyên, Đường Nguyễn Thái Học, Phường Phạm Ngũ Lão, Quận 1, Hồ Chí Minh, Việt Nam",
        "country_code": "VNM",
        "country_name": "Việt Nam",
        "city": "Hồ Chí Minh",
        "district": "Quận 1",
        "ward": "Phường Phạm Ngũ Lão",
        "street": "Đường Nguyễn Thái Học",
        "postal_code": "71012",
        "categories": [
            {
                "name": "Cửa hàng bán lẻ điện thoại di động"
            },
            {
                "name": "Phần mềm và phần cứng máy tính"
            },
            {
                "name": "Dịch vụ CNTT & thiết bị văn phòng"
            },
            {
                "name": "Dịch vụ kinh doanh"
            }
        ]
    },
    {
        "name": "15/12 Tran Hung Dao Q1",
        "latitude": 10.76783,
        "longitude": 106.6948,
        "address": "15/12 Tran Hung Dao Q1, Đường Bùi Viện, Phường Phạm Ngũ Lão, Quận 1, Hồ Chí Minh, Việt Nam",
        "country_code": "VNM",
        "country_name": "Việt Nam",
        "city": "Hồ Chí Minh",
        "district": "Quận 1",
        "ward": "Phường Phạm Ngũ Lão",
        "street": "Đường Bùi Viện",
        "postal_code": "71012",
        "categories": [
            {
                "name": "Cửa hàng bán lẻ điện thoại di động"
            }
        ]
    },
    {
        "name": "Topzone Dien Bien Phu",
        "latitude": 10.78638,
        "longitude": 106.69373,
        "address": "Topzone Dien Bien Phu, Đường Hai Bà Trưng, Phường Võ Thị Sáu, Quận 3, Hồ Chí Minh, Việt Nam",
        "country_code": "VNM",
        "country_name": "Việt Nam",
        "city": "Hồ Chí Minh",
        "district": "Quận 3",
        "ward": "Phường Võ Thị Sáu",
        "street": "Đường Hai Bà Trưng",
        "postal_code": "72415",
        "categories": [
            {
                "name": "Cửa hàng bán lẻ điện thoại di động"
            }
        ]
    },
    {
        "name": "Thang Apple",
        "latitude": 10.78641,
        "longitude": 106.69372,
        "address": "Thang Apple, Đường Hai Bà Trưng, Phường Võ Thị Sáu, Quận 3, Hồ Chí Minh, Việt Nam",
        "country_code": "VNM",
        "country_name": "Việt Nam",
        "city": "Hồ Chí Minh",
        "district": "Quận 3",
        "ward": "Phường Võ Thị Sáu",
        "street": "Đường Hai Bà Trưng",
        "postal_code": "72415",
        "categories": [
            {
                "name": "Cửa hàng bán lẻ điện thoại di động"
            }
        ]
    },
    {
        "name": "Mit Trading Co. Ltd",
        "latitude": 10.78655,
        "longitude": 106.69381,
        "address": "Mit Trading Co. Ltd, Đường Hai Bà Trưng, Phường Đa Kao, Quận 1, Hồ Chí Minh, Việt Nam",
        "country_code": "VNM",
        "country_name": "Việt Nam",
        "city": "Hồ Chí Minh",
        "district": "Quận 1",
        "ward": "Phường Đa Kao",
        "street": "Đường Hai Bà Trưng",
        "postal_code": "71007",
        "categories": [
            {
                "name": "Cửa hàng bán lẻ điện thoại di động"
            }
        ]
    },
    {
        "name": "Doanh Nghiệp Tư Nhân Tin Tưởng",
        "latitude": 10.79067,
        "longitude": 106.70533,
        "address": "Doanh Nghiệp Tư Nhân Tin Tưởng, 2A4 Đường Nguyễn Thị Minh Khai, Phường Đa Kao, Quận 1, Hồ Chí Minh, Việt Nam",
        "country_code": "VNM",
        "country_name": "Việt Nam",
        "city": "Hồ Chí Minh",
        "district": "Quận 1",
        "ward": "Phường Đa Kao",
        "street": "Đường Nguyễn Thị Minh Khai",
        "postal_code": "71007",
        "categories": [
            {
                "name": "Cửa hàng bán lẻ điện thoại di động"
            }
        ]
    },
    {
        "name": "Viettel Telecom Store",
        "latitude": 10.76566,
        "longitude": 106.69549,
        "address": "Viettel Telecom Store, 38 Đường Cô Bắc, Phường Cầu Ông Lãnh, Quận 1, Hồ Chí Minh, Việt Nam",
        "country_code": "VNM",
        "country_name": "Việt Nam",
        "city": "Hồ Chí Minh",
        "district": "Quận 1",
        "ward": "Phường Cầu Ông Lãnh",
        "street": "Đường Cô Bắc",
        "postal_code": "71011",
        "categories": [
            {
                "name": "Cửa hàng bán lẻ điện thoại di động"
            },
            {
                "name": "Cửa hàng điện tử gia dụng"
            }
        ]
    },
    {
        "name": "Phan Nguyễn Store",
        "latitude": 10.79183,
        "longitude": 106.70495,
        "address": "Phan Nguyễn Store, Đường Hoàng Sa, Phường Đa Kao, Quận 1, Hồ Chí Minh, Việt Nam",
        "country_code": "VNM",
        "country_name": "Việt Nam",
        "city": "Hồ Chí Minh",
        "district": "Quận 1",
        "ward": "Phường Đa Kao",
        "street": "Đường Hoàng Sa",
        "postal_code": "71007",
        "categories": [
            {
                "name": "Cửa hàng điện tử gia dụng"
            },
            {
                "name": "Cửa hàng bán lẻ điện thoại di động"
            }
        ]
    },
    {
        "name": "Thương Mại Và Dịch Vụ Đồng Dung",
        "latitude": 10.76897,
        "longitude": 106.69103,
        "address": "Thương Mại Và Dịch Vụ Đồng Dung, 176 Đường Lê Lai, Phường Bến Thành, Quận 1, Hồ Chí Minh, Việt Nam",
        "country_code": "VNM",
        "country_name": "Việt Nam",
        "city": "Hồ Chí Minh",
        "district": "Quận 1",
        "ward": "Phường Bến Thành",
        "street": "Đường Lê Lai",
        "postal_code": "71009",
        "categories": [
            {
                "name": "Cửa hàng bán lẻ điện thoại di động"
            }
        ]
    },
    {
        "name": "Luxury Mobile David Nguyen",
        "latitude": 10.7918,
        "longitude": 106.7,
        "address": "Luxury Mobile David Nguyen, 115 Đường Nguyễn Bỉnh Khiêm, Phường Đa Kao, Quận 1, Hồ Chí Minh, Việt Nam",
        "country_code": "VNM",
        "country_name": "Việt Nam",
        "city": "Hồ Chí Minh",
        "district": "Quận 1",
        "ward": "Phường Đa Kao",
        "street": "Đường Nguyễn Bỉnh Khiêm",
        "postal_code": "71007",
        "categories": [
            {
                "name": "Cửa hàng bán lẻ điện thoại di động"
            }
        ]
    },
    {
        "name": "Didongviet.Vn",
        "latitude": 10.79183,
        "longitude": 106.69997,
        "address": "Didongviet.Vn, 117 Đường Nguyễn Bỉnh Khiêm, Phường Đa Kao, Quận 1, Hồ Chí Minh, Việt Nam",
        "country_code": "VNM",
        "country_name": "Việt Nam",
        "city": "Hồ Chí Minh",
        "district": "Quận 1",
        "ward": "Phường Đa Kao",
        "street": "Đường Nguyễn Bỉnh Khiêm",
        "postal_code": "71007",
        "categories": [
            {
                "name": "Cửa hàng bán lẻ điện thoại di động"
            }
        ]
    },
    {
        "name": "Nguyễn Thành Telecom",
        "latitude": 10.77095,
        "longitude": 106.68962,
        "address": "Nguyễn Thành Telecom, 59A Đường Bùi Thị Xuân, Phường Bến Thành, Quận 1, Hồ Chí Minh, Việt Nam",
        "country_code": "VNM",
        "country_name": "Việt Nam",
        "city": "Hồ Chí Minh",
        "district": "Quận 1",
        "ward": "Phường Bến Thành",
        "street": "Đường Bùi Thị Xuân",
        "postal_code": "71009",
        "categories": [
            {
                "name": "Cửa hàng bán lẻ điện thoại di động"
            }
        ]
    },
    {
        "name": "Iphone-Ipad",
        "latitude": 10.78133,
        "longitude": 106.68842,
        "address": "Iphone-Ipad, 56 Đường Trần Quốc Thảo, Phường Võ Thị Sáu, Quận 3, Hồ Chí Minh, Việt Nam",
        "country_code": "VNM",
        "country_name": "Việt Nam",
        "city": "Hồ Chí Minh",
        "district": "Quận 3",
        "ward": "Phường Võ Thị Sáu",
        "street": "Đường Trần Quốc Thảo",
        "postal_code": "72415",
        "categories": [
            {
                "name": "Cửa hàng bán lẻ điện thoại di động"
            }
        ]
    },
    {
        "name": "Daniel's Mobile",
        "latitude": 10.76294,
        "longitude": 106.70306,
        "address": "Daniel's Mobile, Đường Hoàng Diệu, Phường 9, Quận 4, Hồ Chí Minh, Việt Nam",
        "country_code": "VNM",
        "country_name": "Việt Nam",
        "city": "Hồ Chí Minh",
        "district": "Quận 4",
        "ward": "Phường 9",
        "street": "Đường Hoàng Diệu",
        "postal_code": "72807",
        "categories": [
            {
                "name": "Cửa hàng bán lẻ điện thoại di động"
            }
        ]
    },
    {
        "name": "Điểm Cung Cấp Dịch Vụ Viễn Thông Viettel",
        "latitude": 10.7637,
        "longitude": 106.70762,
        "address": "Điểm Cung Cấp Dịch Vụ Viễn Thông Viettel, Đường Nguyễn Tất Thành, Phường 13, Quận 4, Hồ Chí Minh, Việt Nam",
        "country_code": "VNM",
        "country_name": "Việt Nam",
        "city": "Hồ Chí Minh",
        "district": "Quận 4",
        "ward": "Phường 13",
        "street": "Đường Nguyễn Tất Thành",
        "postal_code": "72820",
        "categories": [
            {
                "name": "Cửa hàng bán lẻ điện thoại di động"
            },
            {
                "name": "Cửa hàng điện tử gia dụng"
            }
        ]
    },
    {
        "name": "T&T Mobile",
        "latitude": 10.78713,
        "longitude": 106.69133,
        "address": "T&T Mobile, 85 Đường Võ Thị Sáu, Phường Võ Thị Sáu, Quận 3, Hồ Chí Minh, Việt Nam",
        "country_code": "VNM",
        "country_name": "Việt Nam",
        "city": "Hồ Chí Minh",
        "district": "Quận 3",
        "ward": "Phường Võ Thị Sáu",
        "street": "Đường Võ Thị Sáu",
        "postal_code": "72415",
        "categories": [
            {
                "name": "Cửa hàng bán lẻ điện thoại di động"
            },
            {
                "name": "Dụng cụ văn phòng và dịch vụ"
            }
        ]
    },
    {
        "name": "Sản Phẩm Công Nghệ FPT - CN",
        "latitude": 10.781,
        "longitude": 106.68815,
        "address": "Sản Phẩm Công Nghệ FPT - CN, 236 Đường Điện Biên Phủ, Phường Võ Thị Sáu, Quận 3, Hồ Chí Minh, Việt Nam",
        "country_code": "VNM",
        "country_name": "Việt Nam",
        "city": "Hồ Chí Minh",
        "district": "Quận 3",
        "ward": "Phường Võ Thị Sáu",
        "street": "Đường Điện Biên Phủ",
        "postal_code": "72415",
        "categories": [
            {
                "name": "Cửa hàng bán lẻ điện thoại di động"
            }
        ]
    },
    {
        "name": "Apple Hkphone",
        "latitude": 10.77254,
        "longitude": 106.68861,
        "address": "Apple Hkphone, 71B Đường Nguyễn Thị Minh Khai, Phường Bến Thành, Quận 1, Hồ Chí Minh, Việt Nam",
        "country_code": "VNM",
        "country_name": "Việt Nam",
        "city": "Hồ Chí Minh",
        "district": "Quận 1",
        "ward": "Phường Bến Thành",
        "street": "Đường Nguyễn Thị Minh Khai",
        "postal_code": "71009",
        "categories": [
            {
                "name": "Cửa hàng bán lẻ điện thoại di động"
            },
            {
                "name": "Dịch vụ kinh doanh"
            }
        ]
    },
    {
        "name": "Cửa Hàng ĐTDĐ Hoàng",
        "latitude": 10.76273,
        "longitude": 106.70279,
        "address": "Cửa Hàng ĐTDĐ Hoàng, 186 Đường Hoàng Diệu, Phường 8, Quận 4, Hồ Chí Minh, Việt Nam",
        "country_code": "VNM",
        "country_name": "Việt Nam",
        "city": "Hồ Chí Minh",
        "district": "Quận 4",
        "ward": "Phường 8",
        "street": "Đường Hoàng Diệu",
        "postal_code": "72814",
        "categories": [
            {
                "name": "Cửa hàng bán lẻ điện thoại di động"
            },
            {
                "name": "Hàng tiêu dùng"
            }
        ]
    },
    {
        "name": "Mai Nguyên - Mainguyen.VN",
        "latitude": 10.78732,
        "longitude": 106.69133,
        "address": "Mai Nguyên - Mainguyen.VN, 144 Đường Võ Thị Sáu, Phường Võ Thị Sáu, Quận 3, Hồ Chí Minh, Việt Nam",
        "country_code": "VNM",
        "country_name": "Việt Nam",
        "city": "Hồ Chí Minh",
        "district": "Quận 3",
        "ward": "Phường Võ Thị Sáu",
        "street": "Đường Võ Thị Sáu",
        "postal_code": "72415",
        "categories": [
            {
                "name": "Cửa hàng bán lẻ điện thoại di động"
            },
            {
                "name": "Cửa hàng điện tử"
            }
        ]
    },
    {
        "name": "Tiến Phát Mobile - Phatloc. Com. VN",
        "latitude": 10.77048,
        "longitude": 106.68943,
        "address": "Tiến Phát Mobile - Phatloc. Com. VN, 139 Đường Lê Thị Riêng, Phường Bến Thành, Quận 1, Hồ Chí Minh, Việt Nam",
        "country_code": "VNM",
        "country_name": "Việt Nam",
        "city": "Hồ Chí Minh",
        "district": "Quận 1",
        "ward": "Phường Bến Thành",
        "street": "Đường Lê Thị Riêng",
        "postal_code": "71009",
        "categories": [
            {
                "name": "Cửa hàng bán lẻ điện thoại di động"
            }
        ]
    },
    {
        "name": "Phukiengiare.VN - Store Bán Sỉ",
        "latitude": 10.77028,
        "longitude": 106.68906,
        "address": "Phukiengiare.VN - Store Bán Sỉ, 2 Hẻm 149 Đường Lê Thị Riêng, Phường Bến Thành, Quận 1, Hồ Chí Minh, Việt Nam",
        "country_code": "VNM",
        "country_name": "Việt Nam",
        "city": "Hồ Chí Minh",
        "district": "Quận 1",
        "ward": "Phường Bến Thành",
        "street": "Hẻm 149 Đường Lê Thị Riêng",
        "postal_code": "71009",
        "categories": [
            {
                "name": "Cửa hàng bán lẻ điện thoại di động"
            }
        ]
    },
    {
        "name": "Beats Chính Hãng",
        "latitude": 10.77364,
        "longitude": 106.68767,
        "address": "Beats Chính Hãng, Đường Võ Văn Tần, Phường 5, Quận 3, Hồ Chí Minh, Việt Nam",
        "country_code": "VNM",
        "country_name": "Việt Nam",
        "city": "Hồ Chí Minh",
        "district": "Quận 3",
        "ward": "Phường 5",
        "street": "Đường Võ Văn Tần",
        "postal_code": "72406",
        "categories": [
            {
                "name": "Cửa hàng bán lẻ điện thoại di động"
            },
            {
                "name": "Cửa hàng điện tử gia dụng"
            },
            {
                "name": "Cửa hàng điện tử"
            }
        ]
    },
    {
        "name": "Cửa Hàng 3KSHOP",
        "latitude": 10.79193,
        "longitude": 106.69714,
        "address": "Cửa Hàng 3KSHOP, 14 Đường Nguyễn Văn Giai, Phường Đa Kao, Quận 1, Hồ Chí Minh, Việt Nam",
        "country_code": "VNM",
        "country_name": "Việt Nam",
        "city": "Hồ Chí Minh",
        "district": "Quận 1",
        "ward": "Phường Đa Kao",
        "street": "Đường Nguyễn Văn Giai",
        "postal_code": "71007",
        "categories": [
            {
                "name": "Cửa hàng bán lẻ điện thoại di động"
            },
            {
                "name": "Cửa hàng điện tử gia dụng"
            }
        ]
    },
    {
        "name": "Khoái Hải Sản Tươi",
        "latitude": 10.79228,
        "longitude": 106.69794,
        "address": "Khoái Hải Sản Tươi, 104 Đường Mai Thị Lựu, Phường Đa Kao, Quận 1, Hồ Chí Minh, Việt Nam",
        "country_code": "VNM",
        "country_name": "Việt Nam",
        "city": "Hồ Chí Minh",
        "district": "Quận 1",
        "ward": "Phường Đa Kao",
        "street": "Đường Mai Thị Lựu",
        "postal_code": "71007",
        "categories": [
            {
                "name": "Cửa hàng bán lẻ điện thoại di động"
            },
            {
                "name": "Giày dép"
            },
            {
                "name": "Hàng tiêu dùng"
            }
        ]
    },
    {
        "name": "Phongee Color",
        "latitude": 10.76891,
        "longitude": 106.68958,
        "address": "Phongee Color, 12 Hẻm 28 Tôn Thất Tùng, Phường Bến Thành, Quận 1, Hồ Chí Minh, Việt Nam",
        "country_code": "VNM",
        "country_name": "Việt Nam",
        "city": "Hồ Chí Minh",
        "district": "Quận 1",
        "ward": "Phường Bến Thành",
        "street": "Hẻm 28 Tôn Thất Tùng",
        "postal_code": "71009",
        "categories": [
            {
                "name": "Cửa hàng bán lẻ điện thoại di động"
            }
        ]
    },
    {
        "name": "DV TM Gỗ Trí Việt",
        "latitude": 10.76356,
        "longitude": 106.69576,
        "address": "DV TM Gỗ Trí Việt, Đường Đề Thám, Phường Cầu Ông Lãnh, Quận 1, Hồ Chí Minh, Việt Nam",
        "country_code": "VNM",
        "country_name": "Việt Nam",
        "city": "Hồ Chí Minh",
        "district": "Quận 1",
        "ward": "Phường Cầu Ông Lãnh",
        "street": "Đường Đề Thám",
        "postal_code": "71011",
        "categories": [
            {
                "name": "Cửa hàng bán lẻ điện thoại di động"
            }
        ]
    },
    {
        "name": "Cửa Hàng ĐTDĐ Mai Mai 2",
        "latitude": 10.76213,
        "longitude": 106.70569,
        "address": "Cửa Hàng ĐTDĐ Mai Mai 2, 219 Đường Đoàn Văn Bơ, Phường 13, Quận 4, Hồ Chí Minh, Việt Nam",
        "country_code": "VNM",
        "country_name": "Việt Nam",
        "city": "Hồ Chí Minh",
        "district": "Quận 4",
        "ward": "Phường 13",
        "street": "Đường Đoàn Văn Bơ",
        "postal_code": "72820",
        "categories": [
            {
                "name": "Cửa hàng bán lẻ điện thoại di động"
            }
        ]
    },
    {
        "name": "Nokia Care",
        "latitude": 10.76282,
        "longitude": 106.70842,
        "address": "Nokia Care, Đường Nguyễn Tất Thành, Phường 13, Quận 4, Hồ Chí Minh, Việt Nam",
        "country_code": "VNM",
        "country_name": "Việt Nam",
        "city": "Hồ Chí Minh",
        "district": "Quận 4",
        "ward": "Phường 13",
        "street": "Đường Nguyễn Tất Thành",
        "postal_code": "72820",
        "categories": [
            {
                "name": "Cửa hàng bán lẻ điện thoại di động"
            }
        ]
    },
    {
        "name": "Jmp.Vn",
        "latitude": 10.78778,
        "longitude": 106.71522,
        "address": "Jmp.Vn, Đường Ngô Tất Tố, Phường 22, Quận Bình Thạnh, Hồ Chí Minh, Việt Nam",
        "country_code": "VNM",
        "country_name": "Việt Nam",
        "city": "Hồ Chí Minh",
        "district": "Quận Bình Thạnh",
        "ward": "Phường 22",
        "street": "Đường Ngô Tất Tố",
        "postal_code": "72324",
        "categories": [
            {
                "name": "Cửa hàng bán lẻ điện thoại di động"
            }
        ]
    },
    {
        "name": "Cửa Hàng Muabaniphone.VN",
        "latitude": 10.77189,
        "longitude": 106.68758,
        "address": "Cửa Hàng Muabaniphone.VN, 396 Đường Nguyễn Thị Minh Khai, Phường 5, Quận 3, Hồ Chí Minh, Việt Nam",
        "country_code": "VNM",
        "country_name": "Việt Nam",
        "city": "Hồ Chí Minh",
        "district": "Quận 3",
        "ward": "Phường 5",
        "street": "Đường Nguyễn Thị Minh Khai",
        "postal_code": "72406",
        "categories": [
            {
                "name": "Cửa hàng bán lẻ điện thoại di động"
            }
        ]
    },
    {
        "name": "Hanel Mobile",
        "latitude": 10.77938,
        "longitude": 106.68645,
        "address": "Hanel Mobile, Đường Điện Biên Phủ, Phường Võ Thị Sáu, Quận 3, Hồ Chí Minh, Việt Nam",
        "country_code": "VNM",
        "country_name": "Việt Nam",
        "city": "Hồ Chí Minh",
        "district": "Quận 3",
        "ward": "Phường Võ Thị Sáu",
        "street": "Đường Điện Biên Phủ",
        "postal_code": "72415",
        "categories": [
            {
                "name": "Cửa hàng bán lẻ điện thoại di động"
            }
        ]
    },
    {
        "name": "Bảo Long Mobile",
        "latitude": 10.77559,
        "longitude": 106.68596,
        "address": "Bảo Long Mobile, 84 Đường Cách Mạng Tháng 8, Phường 4, Quận 3, Hồ Chí Minh, Việt Nam",
        "country_code": "VNM",
        "country_name": "Việt Nam",
        "city": "Hồ Chí Minh",
        "district": "Quận 3",
        "ward": "Phường 4",
        "street": "Đường Cách Mạng Tháng 8",
        "postal_code": "72416",
        "categories": [
            {
                "name": "Cửa hàng bán lẻ điện thoại di động"
            }
        ]
    },
    {
        "name": "Tạp Hoá Cao Cấp Hàng Nhập Trong Và Ngoài Nước",
        "latitude": 10.77067,
        "longitude": 106.68712,
        "address": "Tạp Hoá Cao Cấp Hàng Nhập Trong Và Ngoài Nước, Hẻm 153 Nguyễn Thị Minh Khai, Phường Phạm Ngũ Lão, Quận 1, Hồ Chí Minh, Việt Nam",
        "country_code": "VNM",
        "country_name": "Việt Nam",
        "city": "Hồ Chí Minh",
        "district": "Quận 1",
        "ward": "Phường Phạm Ngũ Lão",
        "street": "Hẻm 153 Nguyễn Thị Minh Khai",
        "postal_code": "71012",
        "categories": [
            {
                "name": "Cửa hàng bán lẻ điện thoại di động"
            },
            {
                "name": "Phần mềm và phần cứng máy tính"
            },
            {
                "name": "Dịch vụ ăn uống và thực phẩm"
            }
        ]
    },
    {
        "name": "Trung Nguyễn Mobile",
        "latitude": 10.78729,
        "longitude": 106.68849,
        "address": "Trung Nguyễn Mobile, 286 Hẻm 272 Đường Pasteur, Phường Võ Thị Sáu, Quận 3, Hồ Chí Minh, Việt Nam",
        "country_code": "VNM",
        "country_name": "Việt Nam",
        "city": "Hồ Chí Minh",
        "district": "Quận 3",
        "ward": "Phường Võ Thị Sáu",
        "street": "Hẻm 272 Đường Pasteur",
        "postal_code": "72415",
        "categories": [
            {
                "name": "Cửa hàng bán lẻ điện thoại di động"
            },
            {
                "name": "Hàng tiêu dùng"
            },
            {
                "name": "Thợ kim hoàn"
            }
        ]
    },
    {
        "name": "Mao Apple 38",
        "latitude": 10.79384,
        "longitude": 106.70852,
        "address": "Mao Apple 38, Đường Xô Viết Nghệ Tĩnh, Phường 17, Quận Bình Thạnh, Hồ Chí Minh, Việt Nam",
        "country_code": "VNM",
        "country_name": "Việt Nam",
        "city": "Hồ Chí Minh",
        "district": "Quận Bình Thạnh",
        "ward": "Phường 17",
        "street": "Đường Xô Viết Nghệ Tĩnh",
        "postal_code": "72321",
        "categories": [
            {
                "name": "Cửa hàng bán lẻ điện thoại di động"
            }
        ]
    },
    {
        "name": "Cửa Hàng Applepro",
        "latitude": 10.79245,
        "longitude": 106.694,
        "address": "Cửa Hàng Applepro, 62A Đường Trần Quang Khải, Phường Tân Định, Quận 1, Hồ Chí Minh, Việt Nam",
        "country_code": "VNM",
        "country_name": "Việt Nam",
        "city": "Hồ Chí Minh",
        "district": "Quận 1",
        "ward": "Phường Tân Định",
        "street": "Đường Trần Quang Khải",
        "postal_code": "71008",
        "categories": [
            {
                "name": "Cửa hàng bán lẻ điện thoại di động"
            }
        ]
    },
    {
        "name": "Group Iphone",
        "latitude": 10.79219,
        "longitude": 106.69333,
        "address": "Group Iphone, 83TER Đường Trần Quang Khải, Phường Tân Định, Quận 1, Hồ Chí Minh, Việt Nam",
        "country_code": "VNM",
        "country_name": "Việt Nam",
        "city": "Hồ Chí Minh",
        "district": "Quận 1",
        "ward": "Phường Tân Định",
        "street": "Đường Trần Quang Khải",
        "postal_code": "71008",
        "categories": [
            {
                "name": "Cửa hàng bán lẻ điện thoại di động"
            }
        ]
    },
    {
        "name": "Mua Ban Iphone",
        "latitude": 10.79283,
        "longitude": 106.69425,
        "address": "Mua Ban Iphone, Đường Trần Quang Khải, Phường Tân Định, Quận 1, Hồ Chí Minh, Việt Nam",
        "country_code": "VNM",
        "country_name": "Việt Nam",
        "city": "Hồ Chí Minh",
        "district": "Quận 1",
        "ward": "Phường Tân Định",
        "street": "Đường Trần Quang Khải",
        "postal_code": "71008",
        "categories": [
            {
                "name": "Cửa hàng bán lẻ điện thoại di động"
            }
        ]
    },
    {
        "name": "Phatthanhmobile",
        "latitude": 10.79213,
        "longitude": 106.69305,
        "address": "Phatthanhmobile, 87 Đường Trần Quang Khải, Phường Tân Định, Quận 1, Hồ Chí Minh, Việt Nam",
        "country_code": "VNM",
        "country_name": "Việt Nam",
        "city": "Hồ Chí Minh",
        "district": "Quận 1",
        "ward": "Phường Tân Định",
        "street": "Đường Trần Quang Khải",
        "postal_code": "71008",
        "categories": [
            {
                "name": "Cửa hàng bán lẻ điện thoại di động"
            }
        ]
    },
    {
        "name": "Apple2nd Shop",
        "latitude": 10.77672,
        "longitude": 106.68506,
        "address": "Apple2nd Shop, 16 Đường Lê Ngô Cát, Phường Võ Thị Sáu, Quận 3, Hồ Chí Minh, Việt Nam",
        "country_code": "VNM",
        "country_name": "Việt Nam",
        "city": "Hồ Chí Minh",
        "district": "Quận 3",
        "ward": "Phường Võ Thị Sáu",
        "street": "Đường Lê Ngô Cát",
        "postal_code": "72415",
        "categories": [
            {
                "name": "Cửa hàng bán lẻ điện thoại di động"
            }
        ]
    },
    {
        "name": "Mua Bán Sky",
        "latitude": 10.79418,
        "longitude": 106.70852,
        "address": "Mua Bán Sky, 113 Đường Xô Viết Nghệ Tĩnh, Phường 17, Quận Bình Thạnh, Hồ Chí Minh, Việt Nam",
        "country_code": "VNM",
        "country_name": "Việt Nam",
        "city": "Hồ Chí Minh",
        "district": "Quận Bình Thạnh",
        "ward": "Phường 17",
        "street": "Đường Xô Viết Nghệ Tĩnh",
        "postal_code": "72321",
        "categories": [
            {
                "name": "Cửa hàng bán lẻ điện thoại di động"
            }
        ]
    },
    {
        "name": "Minh Tuấn Mobile-Chuyên Apple",
        "latitude": 10.79518,
        "longitude": 106.70257,
        "address": "Minh Tuấn Mobile-Chuyên Apple, 90 Đường Điện Biên Phủ, Phường 17, Quận Bình Thạnh, Hồ Chí Minh, Việt Nam",
        "country_code": "VNM",
        "country_name": "Việt Nam",
        "city": "Hồ Chí Minh",
        "district": "Quận Bình Thạnh",
        "ward": "Phường 17",
        "street": "Đường Điện Biên Phủ",
        "postal_code": "72321",
        "categories": [
            {
                "name": "Cửa hàng bán lẻ điện thoại di động"
            }
        ]
    },
    {
        "name": "Viettopcare - Trung Tâm Sửa Chữa Điện Thoại Uy Tín",
        "latitude": 10.76939,
        "longitude": 106.68695,
        "address": "Viettopcare - Trung Tâm Sửa Chữa Điện Thoại Uy Tín, 4B Hẻm 173 Đường Lương Hữu Khánh, Phường Phạm Ngũ Lão, Quận 1, Hồ Chí Minh, Việt Nam",
        "country_code": "VNM",
        "country_name": "Việt Nam",
        "city": "Hồ Chí Minh",
        "district": "Quận 1",
        "ward": "Phường Phạm Ngũ Lão",
        "street": "Hẻm 173 Đường Lương Hữu Khánh",
        "postal_code": "71012",
        "categories": [
            {
                "name": "Cửa hàng bán lẻ điện thoại di động"
            }
        ]
    },
    {
        "name": "Phukiengiare.Vn -",
        "latitude": 10.79418,
        "longitude": 106.70901,
        "address": "Phukiengiare.Vn -, 38A Đường Xô Viết Nghệ Tĩnh, Phường 17, Quận Bình Thạnh, Hồ Chí Minh, Việt Nam",
        "country_code": "VNM",
        "country_name": "Việt Nam",
        "city": "Hồ Chí Minh",
        "district": "Quận Bình Thạnh",
        "ward": "Phường 17",
        "street": "Đường Xô Viết Nghệ Tĩnh",
        "postal_code": "72321",
        "categories": [
            {
                "name": "Cửa hàng bán lẻ điện thoại di động"
            }
        ]
    },
    {
        "name": "Bon Shop Phụ Kiện IPHONE/IPAD",
        "latitude": 10.79543,
        "longitude": 106.70234,
        "address": "Bon Shop Phụ Kiện IPHONE/IPAD, Đường Điện Biên Phủ, Phường 17, Quận Bình Thạnh, Hồ Chí Minh, Việt Nam",
        "country_code": "VNM",
        "country_name": "Việt Nam",
        "city": "Hồ Chí Minh",
        "district": "Quận Bình Thạnh",
        "ward": "Phường 17",
        "street": "Đường Điện Biên Phủ",
        "postal_code": "72321",
        "categories": [
            {
                "name": "Cửa hàng bán lẻ điện thoại di động"
            }
        ]
    },
    {
        "name": "Mobilepro",
        "latitude": 10.79409,
        "longitude": 106.69586,
        "address": "Mobilepro, Đường Lê Văn Duyệt, Phường 3, Quận Bình Thạnh, Hồ Chí Minh, Việt Nam",
        "country_code": "VNM",
        "country_name": "Việt Nam",
        "city": "Hồ Chí Minh",
        "district": "Quận Bình Thạnh",
        "ward": "Phường 3",
        "street": "Đường Lê Văn Duyệt",
        "postal_code": "72317",
        "categories": [
            {
                "name": "Cửa hàng bán lẻ điện thoại di động"
            }
        ]
    },
    {
        "name": "161 Ngô Tất Tố Phường 22 Quận Bình Thạnh",
        "latitude": 10.79127,
        "longitude": 106.71468,
        "address": "161 Ngô Tất Tố Phường 22 Quận Bình Thạnh, 161 Đường Ngô Tất Tố, Phường 22, Quận Bình Thạnh, Hồ Chí Minh, Việt Nam",
        "country_code": "VNM",
        "country_name": "Việt Nam",
        "city": "Hồ Chí Minh",
        "district": "Quận Bình Thạnh",
        "ward": "Phường 22",
        "street": "Đường Ngô Tất Tố",
        "postal_code": "72324",
        "categories": [
            {
                "name": "Cửa hàng bán lẻ điện thoại di động"
            }
        ]
    },
    {
        "name": "Techone 128 Trần Quang Khải Q1",
        "latitude": 10.79208,
        "longitude": 106.69196,
        "address": "Techone 128 Trần Quang Khải Q1, 128 Đường Trần Quang Khải, Phường Tân Định, Quận 1, Hồ Chí Minh, Việt Nam",
        "country_code": "VNM",
        "country_name": "Việt Nam",
        "city": "Hồ Chí Minh",
        "district": "Quận 1",
        "ward": "Phường Tân Định",
        "street": "Đường Trần Quang Khải",
        "postal_code": "71008",
        "categories": [
            {
                "name": "Cửa hàng bán lẻ điện thoại di động"
            }
        ]
    },
    {
        "name": "Cty Phong Cách Đổi Mới TNHH Thương Mại Dịch Vụ",
        "latitude": 10.79557,
        "longitude": 106.7012,
        "address": "Cty Phong Cách Đổi Mới TNHH Thương Mại Dịch Vụ, 57/8 Hẻm 71 Đường Điện Biên Phủ, Phường 15, Quận Bình Thạnh, Hồ Chí Minh, Việt Nam",
        "country_code": "VNM",
        "country_name": "Việt Nam",
        "city": "Hồ Chí Minh",
        "district": "Quận Bình Thạnh",
        "ward": "Phường 15",
        "street": "Hẻm 71 Đường Điện Biên Phủ",
        "postal_code": "72320",
        "categories": [
            {
                "name": "Cửa hàng bán lẻ điện thoại di động"
            }
        ]
    },
    {
        "name": "Didongthongminh.Vn",
        "latitude": 10.75981,
        "longitude": 106.69863,
        "address": "Didongthongminh.Vn, 392 Đường Hoàng Diệu, Phường 6, Quận 4, Hồ Chí Minh, Việt Nam",
        "country_code": "VNM",
        "country_name": "Việt Nam",
        "city": "Hồ Chí Minh",
        "district": "Quận 4",
        "ward": "Phường 6",
        "street": "Đường Hoàng Diệu",
        "postal_code": "72808",
        "categories": [
            {
                "name": "Cửa hàng bán lẻ điện thoại di động"
            }
        ]
    },
    {
        "name": "Oppo- New Style For Young People",
        "latitude": 10.76699,
        "longitude": 106.68764,
        "address": "Oppo- New Style For Young People, Đường Cống Quỳnh, Phường Nguyễn Cư Trinh, Quận 1, Hồ Chí Minh, Việt Nam",
        "country_code": "VNM",
        "country_name": "Việt Nam",
        "city": "Hồ Chí Minh",
        "district": "Quận 1",
        "ward": "Phường Nguyễn Cư Trinh",
        "street": "Đường Cống Quỳnh",
        "postal_code": "71014",
        "categories": [
            {
                "name": "Cửa hàng bán lẻ điện thoại di động"
            }
        ]
    },
    {
        "name": "Phukiengiare.Vn - Store Q.1",
        "latitude": 10.79194,
        "longitude": 106.691,
        "address": "Phukiengiare.Vn - Store Q.1, Đường Trần Quang Khải, Phường Tân Định, Quận 1, Hồ Chí Minh, Việt Nam",
        "country_code": "VNM",
        "country_name": "Việt Nam",
        "city": "Hồ Chí Minh",
        "district": "Quận 1",
        "ward": "Phường Tân Định",
        "street": "Đường Trần Quang Khải",
        "postal_code": "71008",
        "categories": [
            {
                "name": "Cửa hàng bán lẻ điện thoại di động"
            }
        ]
    },
    {
        "name": "Viettel",
        "latitude": 10.79164,
        "longitude": 106.69062,
        "address": "Viettel, Đường Trần Quang Khải, Phường Tân Định, Quận 1, Hồ Chí Minh, Việt Nam",
        "country_code": "VNM",
        "country_name": "Việt Nam",
        "city": "Hồ Chí Minh",
        "district": "Quận 1",
        "ward": "Phường Tân Định",
        "street": "Đường Trần Quang Khải",
        "postal_code": "71008",
        "categories": [
            {
                "name": "Cửa hàng bán lẻ điện thoại di động"
            },
            {
                "name": "Cửa hàng điện tử gia dụng"
            }
        ]
    },
    {
        "name": "Đồ Chơi Di Động",
        "latitude": 10.7769,
        "longitude": 106.68399,
        "address": "Đồ Chơi Di Động, Đường Điện Biên Phủ, Phường Võ Thị Sáu, Quận 3, Hồ Chí Minh, Việt Nam",
        "country_code": "VNM",
        "country_name": "Việt Nam",
        "city": "Hồ Chí Minh",
        "district": "Quận 3",
        "ward": "Phường Võ Thị Sáu",
        "street": "Đường Điện Biên Phủ",
        "postal_code": "72415",
        "categories": [
            {
                "name": "Cửa hàng bán lẻ điện thoại di động"
            }
        ]
    },
    {
        "name": "Xtmobile",
        "latitude": 10.79185,
        "longitude": 106.69078,
        "address": "Xtmobile, 154BIS Đường Trần Quang Khải, Phường Tân Định, Quận 1, Hồ Chí Minh, Việt Nam",
        "country_code": "VNM",
        "country_name": "Việt Nam",
        "city": "Hồ Chí Minh",
        "district": "Quận 1",
        "ward": "Phường Tân Định",
        "street": "Đường Trần Quang Khải",
        "postal_code": "71008",
        "categories": [
            {
                "name": "Cửa hàng bán lẻ điện thoại di động"
            },
            {
                "name": "Cửa hàng điện tử gia dụng"
            }
        ]
    },
    {
        "name": "Trung Tâm Viettel Quận 4",
        "latitude": 10.75906,
        "longitude": 106.70093,
        "address": "Trung Tâm Viettel Quận 4, 59 Hẻm 129F/138 Đường Số 41, Phường 6, Quận 4, Hồ Chí Minh, Việt Nam",
        "country_code": "VNM",
        "country_name": "Việt Nam",
        "city": "Hồ Chí Minh",
        "district": "Quận 4",
        "ward": "Phường 6",
        "street": "Hẻm 129F/138 Đường Số 41",
        "postal_code": "72808",
        "categories": [
            {
                "name": "Cửa hàng bán lẻ điện thoại di động"
            },
            {
                "name": "Nhà hàng"
            }
        ]
    },
    {
        "name": "Apple Maigia",
        "latitude": 10.75931,
        "longitude": 106.69895,
        "address": "Apple Maigia, 238 Đường Khánh Hội, Phường 2, Quận 4, Hồ Chí Minh, Việt Nam",
        "country_code": "VNM",
        "country_name": "Việt Nam",
        "city": "Hồ Chí Minh",
        "district": "Quận 4",
        "ward": "Phường 2",
        "street": "Đường Khánh Hội",
        "postal_code": "72810",
        "categories": [
            {
                "name": "Cửa hàng bán lẻ điện thoại di động"
            },
            {
                "name": "Phần mềm và phần cứng máy tính"
            }
        ]
    },
    {
        "name": "44mobile",
        "latitude": 10.79601,
        "longitude": 106.70682,
        "address": "44mobile, Hẻm 46 Nguyễn Cửu Vân, Phường 17, Quận Bình Thạnh, Hồ Chí Minh, Việt Nam",
        "country_code": "VNM",
        "country_name": "Việt Nam",
        "city": "Hồ Chí Minh",
        "district": "Quận Bình Thạnh",
        "ward": "Phường 17",
        "street": "Hẻm 46 Nguyễn Cửu Vân",
        "postal_code": "72321",
        "categories": [
            {
                "name": "Cửa hàng bán lẻ điện thoại di động"
            }
        ]
    },
    {
        "name": "Bích Ngọc Mobile",
        "latitude": 10.76369,
        "longitude": 106.68964,
        "address": "Bích Ngọc Mobile, 134 Đường Nguyễn Cư Trinh, Phường Nguyễn Cư Trinh, Quận 1, Hồ Chí Minh, Việt Nam",
        "country_code": "VNM",
        "country_name": "Việt Nam",
        "city": "Hồ Chí Minh",
        "district": "Quận 1",
        "ward": "Phường Nguyễn Cư Trinh",
        "street": "Đường Nguyễn Cư Trinh",
        "postal_code": "71014",
        "categories": [
            {
                "name": "Cửa hàng bán lẻ điện thoại di động"
            }
        ]
    },
    {
        "name": "Lê Duy - Lee Store",
        "latitude": 10.78508,
        "longitude": 106.68467,
        "address": "Lê Duy - Lee Store, Đường Lý Chính Thắng, Phường Võ Thị Sáu, Quận 3, Hồ Chí Minh, Việt Nam",
        "country_code": "VNM",
        "country_name": "Việt Nam",
        "city": "Hồ Chí Minh",
        "district": "Quận 3",
        "ward": "Phường Võ Thị Sáu",
        "street": "Đường Lý Chính Thắng",
        "postal_code": "72415",
        "categories": [
            {
                "name": "Cửa hàng bán lẻ điện thoại di động"
            }
        ]
    },
    {
        "name": "Sóc Case",
        "latitude": 10.77234,
        "longitude": 106.68382,
        "address": "Sóc Case, Đường Vườn Chuối, Phường 4, Quận 3, Hồ Chí Minh, Việt Nam",
        "country_code": "VNM",
        "country_name": "Việt Nam",
        "city": "Hồ Chí Minh",
        "district": "Quận 3",
        "ward": "Phường 4",
        "street": "Đường Vườn Chuối",
        "postal_code": "72416",
        "categories": [
            {
                "name": "Cửa hàng điện tử"
            },
            {
                "name": "Cửa hàng bán lẻ điện thoại di động"
            }
        ]
    },
    {
        "name": "Laga.Vn",
        "latitude": 10.79157,
        "longitude": 106.68903,
        "address": "Laga.Vn, 190B Đường Trần Quang Khải, Phường Tân Định, Quận 1, Hồ Chí Minh, Việt Nam",
        "country_code": "VNM",
        "country_name": "Việt Nam",
        "city": "Hồ Chí Minh",
        "district": "Quận 1",
        "ward": "Phường Tân Định",
        "street": "Đường Trần Quang Khải",
        "postal_code": "71008",
        "categories": [
            {
                "name": "Cửa hàng điện tử"
            },
            {
                "name": "Cửa hàng bán lẻ điện thoại di động"
            },
            {
                "name": "Hàng tiêu dùng"
            }
        ]
    },
    {
        "name": "Nokia Care",
        "latitude": 10.77017,
        "longitude": 106.68446,
        "address": "Nokia Care, 413 Đường Võ Văn Tần, Phường 5, Quận 3, Hồ Chí Minh, Việt Nam",
        "country_code": "VNM",
        "country_name": "Việt Nam",
        "city": "Hồ Chí Minh",
        "district": "Quận 3",
        "ward": "Phường 5",
        "street": "Đường Võ Văn Tần",
        "postal_code": "72406",
        "categories": [
            {
                "name": "Cửa hàng bán lẻ điện thoại di động"
            }
        ]
    },
    {
        "name": "Thái Lâm Mobile",
        "latitude": 10.77014,
        "longitude": 106.68443,
        "address": "Thái Lâm Mobile, Đường Võ Văn Tần, Phường 5, Quận 3, Hồ Chí Minh, Việt Nam",
        "country_code": "VNM",
        "country_name": "Việt Nam",
        "city": "Hồ Chí Minh",
        "district": "Quận 3",
        "ward": "Phường 5",
        "street": "Đường Võ Văn Tần",
        "postal_code": "72406",
        "categories": [
            {
                "name": "Cửa hàng bán lẻ điện thoại di động"
            }
        ]
    },
    {
        "name": "Siêu Thị Smartphone",
        "latitude": 10.79139,
        "longitude": 106.68871,
        "address": "Siêu Thị Smartphone, 245A Đường Trần Quang Khải, Phường Tân Định, Quận 1, Hồ Chí Minh, Việt Nam",
        "country_code": "VNM",
        "country_name": "Việt Nam",
        "city": "Hồ Chí Minh",
        "district": "Quận 1",
        "ward": "Phường Tân Định",
        "street": "Đường Trần Quang Khải",
        "postal_code": "71008",
        "categories": [
            {
                "name": "Cửa hàng bán lẻ điện thoại di động"
            }
        ]
    },
    {
        "name": "Applepro.Vn - Winmobile.Vn",
        "latitude": 10.7915,
        "longitude": 106.6888,
        "address": "Applepro.Vn - Winmobile.Vn, 194A Đường Trần Quang Khải, Phường Tân Định, Quận 1, Hồ Chí Minh, Việt Nam",
        "country_code": "VNM",
        "country_name": "Việt Nam",
        "city": "Hồ Chí Minh",
        "district": "Quận 1",
        "ward": "Phường Tân Định",
        "street": "Đường Trần Quang Khải",
        "postal_code": "71008",
        "categories": [
            {
                "name": "Cửa hàng bán lẻ điện thoại di động"
            }
        ]
    },
    {
        "name": "Techvn smart Watch Và Phụ Kiện",
        "latitude": 10.79596,
        "longitude": 106.69566,
        "address": "Techvn smart Watch Và Phụ Kiện, Đường Vũ Huy Tấn, Phường 3, Quận Bình Thạnh, Hồ Chí Minh, Việt Nam",
        "country_code": "VNM",
        "country_name": "Việt Nam",
        "city": "Hồ Chí Minh",
        "district": "Quận Bình Thạnh",
        "ward": "Phường 3",
        "street": "Đường Vũ Huy Tấn",
        "postal_code": "72317",
        "categories": [
            {
                "name": "Cửa hàng bán lẻ điện thoại di động"
            },
            {
                "name": "Thợ kim hoàn"
            }
        ]
    },
    {
        "name": "Nam Phuong Luxury Mobile",
        "latitude": 10.76776,
        "longitude": 106.68541,
        "address": "Nam Phuong Luxury Mobile, 1A Đường Phạm Viết Chánh, Phường Nguyễn Cư Trinh, Quận 1, Hồ Chí Minh, Việt Nam",
        "country_code": "VNM",
        "country_name": "Việt Nam",
        "city": "Hồ Chí Minh",
        "district": "Quận 1",
        "ward": "Phường Nguyễn Cư Trinh",
        "street": "Đường Phạm Viết Chánh",
        "postal_code": "71014",
        "categories": [
            {
                "name": "Cửa hàng bán lẻ điện thoại di động"
            }
        ]
    },
    {
        "name": "Cửa Hàng Ichiba",
        "latitude": 10.79635,
        "longitude": 106.69628,
        "address": "Cửa Hàng Ichiba, 82 Đường Đinh Tiên Hoàng, Phường 3, Quận Bình Thạnh, Hồ Chí Minh, Việt Nam",
        "country_code": "VNM",
        "country_name": "Việt Nam",
        "city": "Hồ Chí Minh",
        "district": "Quận Bình Thạnh",
        "ward": "Phường 3",
        "street": "Đường Đinh Tiên Hoàng",
        "postal_code": "72317",
        "categories": [
            {
                "name": "Cửa hàng chuyên dụng"
            },
            {
                "name": "Đặc sản & Đồ uống"
            },
            {
                "name": "Cửa hàng điện tử gia dụng"
            },
            {
                "name": "Cửa hàng bán lẻ điện thoại di động"
            },
            {
                "name": "Dịch vụ điện thoại"
            }
        ]
    }
]
