[
    {
        "name": "WinMart+",
        "latitude": 10.77859,
        "longitude": 106.70179,
        "address": "WinMart+, Đường Lý Tự Trọng, Phường Bến Nghé, Quận 1, Hồ Chí Minh, Việt Nam",
        "country_code": "VNM",
        "country_name": "Việt Nam",
        "city": "Hồ Chí Minh",
        "district": "Quận 1",
        "ward": "Phường Bến Nghé",
        "street": "Đường Lý Tự Trọng",
        "postal_code": "71006",
        "categories": [
            {
                "name": "Cửa hàng tiện lợi"
            }
        ]
    },
    {
        "name": "Circle K - Nguyễn Du",
        "latitude": 10.77874,
        "longitude": 106.70195,
        "address": "Circle K - Nguyễn Du, 53 Đường Nguyễn Du, Phường Bến Nghé, Quận 1, Hồ Chí Minh, Việt Nam",
        "country_code": "VNM",
        "country_name": "Việt Nam",
        "city": "Hồ Chí Minh",
        "district": "Quận 1",
        "ward": "Phường Bến Nghé",
        "street": "Đường Nguyễn Du",
        "postal_code": "71006",
        "categories": [
            {
                "name": "Cửa hàng tiện lợi"
            }
        ]
    },
    {
        "name": "Cafe Circlek",
        "latitude": 10.77876,
        "longitude": 106.70195,
        "address": "Cafe Circlek, 9 Đường Công Trường Lam Sơn, Phường Bến Nghé, Quận 1, Hồ Chí Minh, Việt Nam",
        "country_code": "VNM",
        "country_name": "Việt Nam",
        "city": "Hồ Chí Minh",
        "district": "Quận 1",
        "ward": "Phường Bến Nghé",
        "street": "Đường Công Trường Lam Sơn",
        "postal_code": "71006",
        "categories": [
            {
                "name": "Cửa hàng tiện lợi"
            }
        ]
    },
    {
        "name": "M.Mart",
        "latitude": 10.77891,
        "longitude": 106.70184,
        "address": "M.Mart, Đường Lý Tự Trọng, Phường Bến Nghé, Quận 1, Hồ Chí Minh, Việt Nam",
        "country_code": "VNM",
        "country_name": "Việt Nam",
        "city": "Hồ Chí Minh",
        "district": "Quận 1",
        "ward": "Phường Bến Nghé",
        "street": "Đường Lý Tự Trọng",
        "postal_code": "71006",
        "categories": [
            {
                "name": "Cửa hàng tiện lợi"
            },
            {
                "name": "Giải trí về đêm"
            }
        ]
    },
    {
        "name": "Your Grocery Store @ Vincom Center",
        "latitude": 10.77657,
        "longitude": 106.70149,
        "address": "Your Grocery Store @ Vincom Center, Đường Nguyễn Huệ, Phường Bến Nghé, Quận 1, Hồ Chí Minh, Việt Nam",
        "country_code": "VNM",
        "country_name": "Việt Nam",
        "city": "Hồ Chí Minh",
        "district": "Quận 1",
        "ward": "Phường Bến Nghé",
        "street": "Đường Nguyễn Huệ",
        "postal_code": "71006",
        "categories": [
            {
                "name": "Cửa hàng tiện lợi"
            }
        ]
    },
    {
        "name": "Cửa hàng tiện lợi Circle K",
        "latitude": 10.77721,
        "longitude": 106.70468,
        "address": "Cửa hàng tiện lợi Circle K, 9 Đường Công Trường Lam Sơn, Phường Bến Nghé, Quận 1, Hồ Chí Minh, Việt Nam",
        "country_code": "VNM",
        "country_name": "Việt Nam",
        "city": "Hồ Chí Minh",
        "district": "Quận 1",
        "ward": "Phường Bến Nghé",
        "street": "Đường Công Trường Lam Sơn",
        "postal_code": "71006",
        "categories": [
            {
                "name": "Cửa hàng tiện lợi"
            }
        ]
    },
    {
        "name": "Circle K",
        "latitude": 10.77689,
        "longitude": 106.70464,
        "address": "Circle K, Đường Hai Bà Trưng, Phường Bến Nghé, Quận 1, Hồ Chí Minh, Việt Nam",
        "country_code": "VNM",
        "country_name": "Việt Nam",
        "city": "Hồ Chí Minh",
        "district": "Quận 1",
        "ward": "Phường Bến Nghé",
        "street": "Đường Hai Bà Trưng",
        "postal_code": "71006",
        "categories": [
            {
                "name": "Cửa hàng tiện lợi"
            }
        ]
    },
    {
        "name": "Cửa hàng tiện lợi Circle K",
        "latitude": 10.77722,
        "longitude": 106.70476,
        "address": "Cửa hàng tiện lợi Circle K, Hẻm 5 Nguyễn Siêu, Phường Bến Nghé, Quận 1, Hồ Chí Minh, Việt Nam",
        "country_code": "VNM",
        "country_name": "Việt Nam",
        "city": "Hồ Chí Minh",
        "district": "Quận 1",
        "ward": "Phường Bến Nghé",
        "street": "Hẻm 5 Nguyễn Siêu",
        "postal_code": "71006",
        "categories": [
            {
                "name": "Cửa hàng tiện lợi"
            }
        ]
    },
    {
        "name": "Cửa Hàng Tiện Lợi Shop Và Go",
        "latitude": 10.77586,
        "longitude": 106.70441,
        "address": "Cửa Hàng Tiện Lợi Shop Và Go, 64 Đường Đông Du, Phường Bến Nghé, Quận 1, Hồ Chí Minh, Việt Nam",
        "country_code": "VNM",
        "country_name": "Việt Nam",
        "city": "Hồ Chí Minh",
        "district": "Quận 1",
        "ward": "Phường Bến Nghé",
        "street": "Đường Đông Du",
        "postal_code": "71006",
        "categories": [
            {
                "name": "Cửa hàng tiện lợi"
            },
            {
                "name": "Rượu bia"
            },
            {
                "name": "Cửa hàng chuyên dụng"
            }
        ]
    },
    {
        "name": "Familymart",
        "latitude": 10.7774,
        "longitude": 106.70038,
        "address": "Familymart, Đường Lý Tự Trọng, Phường Bến Nghé, Quận 1, Hồ Chí Minh, Việt Nam",
        "country_code": "VNM",
        "country_name": "Việt Nam",
        "city": "Hồ Chí Minh",
        "district": "Quận 1",
        "ward": "Phường Bến Nghé",
        "street": "Đường Lý Tự Trọng",
        "postal_code": "71006",
        "categories": [
            {
                "name": "Cửa hàng tiện lợi"
            }
        ]
    },
    {
        "name": "Tạp Hóa Tấn Nghiệp",
        "latitude": 10.77931,
        "longitude": 106.70451,
        "address": "Tạp Hóa Tấn Nghiệp, HẺM 17 Thái Văn Lung, Phường Bến Nghé, Quận 1, Hồ Chí Minh, Việt Nam",
        "country_code": "VNM",
        "country_name": "Việt Nam",
        "city": "Hồ Chí Minh",
        "district": "Quận 1",
        "ward": "Phường Bến Nghé",
        "street": "HẺM 17 Thái Văn Lung",
        "postal_code": "71006",
        "categories": [
            {
                "name": "Cửa hàng tiện lợi"
            },
            {
                "name": "Siêu thị"
            }
        ]
    },
    {
        "name": "Shop & Go",
        "latitude": 10.77917,
        "longitude": 106.70482,
        "address": "Shop & Go, 3D2 Đường Thái Văn Lung, Phường Bến Nghé, Quận 1, Hồ Chí Minh, Việt Nam",
        "country_code": "VNM",
        "country_name": "Việt Nam",
        "city": "Hồ Chí Minh",
        "district": "Quận 1",
        "ward": "Phường Bến Nghé",
        "street": "Đường Thái Văn Lung",
        "postal_code": "71006",
        "categories": [
            {
                "name": "Cửa hàng tiện lợi"
            }
        ]
    },
    {
        "name": "Shop Thời Trang Liti",
        "latitude": 10.77689,
        "longitude": 106.70018,
        "address": "Shop Thời Trang Liti, 40D Đường Lý Tự Trọng, Phường Bến Nghé, Quận 1, Hồ Chí Minh, Việt Nam",
        "country_code": "VNM",
        "country_name": "Việt Nam",
        "city": "Hồ Chí Minh",
        "district": "Quận 1",
        "ward": "Phường Bến Nghé",
        "street": "Đường Lý Tự Trọng",
        "postal_code": "71006",
        "categories": [
            {
                "name": "Cửa hàng tiện lợi"
            },
            {
                "name": "Quần áo & Phụ kiện"
            },
            {
                "name": "Quần áo phụ nữ"
            }
        ]
    },
    {
        "name": "Cửa hàng Mumuso",
        "latitude": 10.7801,
        "longitude": 106.70172,
        "address": "Cửa hàng Mumuso, Đường Lê Thánh Tôn, Phường Bến Nghé, Quận 1, Hồ Chí Minh, Việt Nam",
        "country_code": "VNM",
        "country_name": "Việt Nam",
        "city": "Hồ Chí Minh",
        "district": "Quận 1",
        "ward": "Phường Bến Nghé",
        "street": "Đường Lê Thánh Tôn",
        "postal_code": "71006",
        "categories": [
            {
                "name": "Cửa hàng tiện lợi"
            }
        ]
    },
    {
        "name": "Mini Mart Huy Ngân",
        "latitude": 10.77484,
        "longitude": 106.70312,
        "address": "Mini Mart Huy Ngân, 70D Đường Nguyễn Huệ, Phường Bến Nghé, Quận 1, Hồ Chí Minh, Việt Nam",
        "country_code": "VNM",
        "country_name": "Việt Nam",
        "city": "Hồ Chí Minh",
        "district": "Quận 1",
        "ward": "Phường Bến Nghé",
        "street": "Đường Nguyễn Huệ",
        "postal_code": "71006",
        "categories": [
            {
                "name": "Cửa hàng tiện lợi"
            },
            {
                "name": "Nhà hàng"
            },
            {
                "name": "Quán cà phê"
            },
            {
                "name": "Phòng trà"
            },
            {
                "name": "Siêu thị"
            },
            {
                "name": "Quầy hàng đặc sản"
            },
            {
                "name": "Hàng tiêu dùng"
            }
        ]
    },
    {
        "name": "Circle K Sg0073",
        "latitude": 10.77766,
        "longitude": 106.70566,
        "address": "Circle K Sg0073, Đường Thi Sách, Phường Bến Nghé, Quận 1, Hồ Chí Minh, Việt Nam",
        "country_code": "VNM",
        "country_name": "Việt Nam",
        "city": "Hồ Chí Minh",
        "district": "Quận 1",
        "ward": "Phường Bến Nghé",
        "street": "Đường Thi Sách",
        "postal_code": "71006",
        "categories": [
            {
                "name": "Cửa hàng tiện lợi"
            }
        ]
    },
    {
        "name": "Cửa Hàng Tiện Lợi Circle K",
        "latitude": 10.77722,
        "longitude": 106.70566,
        "address": "Cửa Hàng Tiện Lợi Circle K, Đường Thi Sách, Phường Bến Nghé, Quận 1, Hồ Chí Minh, Việt Nam",
        "country_code": "VNM",
        "country_name": "Việt Nam",
        "city": "Hồ Chí Minh",
        "district": "Quận 1",
        "ward": "Phường Bến Nghé",
        "street": "Đường Thi Sách",
        "postal_code": "71006",
        "categories": [
            {
                "name": "Cửa hàng tiện lợi"
            }
        ]
    },
    {
        "name": "Văn Phòng Công Ty Thám Tử Sài Gòn TPHCM",
        "latitude": 10.77478,
        "longitude": 106.7032,
        "address": "Văn Phòng Công Ty Thám Tử Sài Gòn TPHCM, 68 Đường Nguyễn Huệ, Phường Bến Nghé, Quận 1, Hồ Chí Minh, Việt Nam",
        "country_code": "VNM",
        "country_name": "Việt Nam",
        "city": "Hồ Chí Minh",
        "district": "Quận 1",
        "ward": "Phường Bến Nghé",
        "street": "Đường Nguyễn Huệ",
        "postal_code": "71006",
        "categories": [
            {
                "name": "Cửa hàng tiện lợi"
            },
            {
                "name": "Dịch vụ kinh doanh"
            }
        ]
    },
    {
        "name": "Ministop-Mạc Thị Bưởi",
        "latitude": 10.77583,
        "longitude": 106.70514,
        "address": "Ministop-Mạc Thị Bưởi, 16 Đường Mạc Thị Bưởi, Phường Bến Nghé, Quận 1, Hồ Chí Minh, Việt Nam",
        "country_code": "VNM",
        "country_name": "Việt Nam",
        "city": "Hồ Chí Minh",
        "district": "Quận 1",
        "ward": "Phường Bến Nghé",
        "street": "Đường Mạc Thị Bưởi",
        "postal_code": "71006",
        "categories": [
            {
                "name": "Cửa hàng tiện lợi"
            }
        ]
    },
    {
        "name": "Rue Des Chats, 1st Floor, 42bis Ly Tu Trong, Dist 1",
        "latitude": 10.77694,
        "longitude": 106.69994,
        "address": "Rue Des Chats, 1st Floor, 42bis Ly Tu Trong, Dist 1, 42BIS Đường Lý Tự Trọng, Phường Bến Nghé, Quận 1, Hồ Chí Minh, Việt Nam",
        "country_code": "VNM",
        "country_name": "Việt Nam",
        "city": "Hồ Chí Minh",
        "district": "Quận 1",
        "ward": "Phường Bến Nghé",
        "street": "Đường Lý Tự Trọng",
        "postal_code": "71006",
        "categories": [
            {
                "name": "Cửa hàng tiện lợi"
            },
            {
                "name": "Quần áo & Phụ kiện"
            }
        ]
    },
    {
        "name": "Toromart",
        "latitude": 10.77603,
        "longitude": 106.70532,
        "address": "Toromart, 10 Đường Mạc Thị Bưởi, Phường Bến Nghé, Quận 1, Hồ Chí Minh, Việt Nam",
        "country_code": "VNM",
        "country_name": "Việt Nam",
        "city": "Hồ Chí Minh",
        "district": "Quận 1",
        "ward": "Phường Bến Nghé",
        "street": "Đường Mạc Thị Bưởi",
        "postal_code": "71006",
        "categories": [
            {
                "name": "Cửa hàng tiện lợi"
            }
        ]
    },
    {
        "name": "Family Mart",
        "latitude": 10.77957,
        "longitude": 106.70058,
        "address": "Family Mart, 53 Đường Nguyễn Du, Phường Bến Nghé, Quận 1, Hồ Chí Minh, Việt Nam",
        "country_code": "VNM",
        "country_name": "Việt Nam",
        "city": "Hồ Chí Minh",
        "district": "Quận 1",
        "ward": "Phường Bến Nghé",
        "street": "Đường Nguyễn Du",
        "postal_code": "71006",
        "categories": [
            {
                "name": "Cửa hàng tiện lợi"
            }
        ]
    },
    {
        "name": "Cửa hàng tiện lợi Shop&Go",
        "latitude": 10.7791,
        "longitude": 106.70021,
        "address": "Cửa hàng tiện lợi Shop&Go, Đường Nguyễn Du, Phường Bến Nghé, Quận 1, Hồ Chí Minh, Việt Nam",
        "country_code": "VNM",
        "country_name": "Việt Nam",
        "city": "Hồ Chí Minh",
        "district": "Quận 1",
        "ward": "Phường Bến Nghé",
        "street": "Đường Nguyễn Du",
        "postal_code": "71006",
        "categories": [
            {
                "name": "Cửa hàng tiện lợi"
            }
        ]
    },
    {
        "name": "Nhà hàng Hải Nam",
        "latitude": 10.77513,
        "longitude": 106.70468,
        "address": "Nhà hàng Hải Nam, 43 Đường Mạc Thị Bưởi, Phường Bến Nghé, Quận 1, Hồ Chí Minh, Việt Nam",
        "country_code": "VNM",
        "country_name": "Việt Nam",
        "city": "Hồ Chí Minh",
        "district": "Quận 1",
        "ward": "Phường Bến Nghé",
        "street": "Đường Mạc Thị Bưởi",
        "postal_code": "71006",
        "categories": [
            {
                "name": "Cửa hàng tiện lợi"
            }
        ]
    },
    {
        "name": "Siêu Thị 24H Circle K - Lê Thánh Tôn",
        "latitude": 10.77501,
        "longitude": 106.70084,
        "address": "Siêu Thị 24H Circle K - Lê Thánh Tôn, Đường Pasteur, Phường Bến Nghé, Quận 1, Hồ Chí Minh, Việt Nam",
        "country_code": "VNM",
        "country_name": "Việt Nam",
        "city": "Hồ Chí Minh",
        "district": "Quận 1",
        "ward": "Phường Bến Nghé",
        "street": "Đường Pasteur",
        "postal_code": "71006",
        "categories": [
            {
                "name": "Cửa hàng tiện lợi"
            }
        ]
    },
    {
        "name": "Family Mart",
        "latitude": 10.77482,
        "longitude": 106.70091,
        "address": "Family Mart, 134 Đường Pasteur, Phường Bến Nghé, Quận 1, Hồ Chí Minh, Việt Nam",
        "country_code": "VNM",
        "country_name": "Việt Nam",
        "city": "Hồ Chí Minh",
        "district": "Quận 1",
        "ward": "Phường Bến Nghé",
        "street": "Đường Pasteur",
        "postal_code": "71006",
        "categories": [
            {
                "name": "Cửa hàng tiện lợi"
            }
        ]
    },
    {
        "name": "Circle K",
        "latitude": 10.78014,
        "longitude": 106.70504,
        "address": "Circle K, Đường Lê Thánh Tôn, Phường Bến Nghé, Quận 1, Hồ Chí Minh, Việt Nam",
        "country_code": "VNM",
        "country_name": "Việt Nam",
        "city": "Hồ Chí Minh",
        "district": "Quận 1",
        "ward": "Phường Bến Nghé",
        "street": "Đường Lê Thánh Tôn",
        "postal_code": "71006",
        "categories": [
            {
                "name": "Cửa hàng tiện lợi"
            }
        ]
    },
    {
        "name": "GS25",
        "latitude": 10.77439,
        "longitude": 106.70403,
        "address": "GS25, Hẻm 71 Mạc Thị Bưởi, Phường Bến Nghé, Quận 1, Hồ Chí Minh, Việt Nam",
        "country_code": "VNM",
        "country_name": "Việt Nam",
        "city": "Hồ Chí Minh",
        "district": "Quận 1",
        "ward": "Phường Bến Nghé",
        "street": "Hẻm 71 Mạc Thị Bưởi",
        "postal_code": "71006",
        "categories": [
            {
                "name": "Cửa hàng tiện lợi"
            }
        ]
    },
    {
        "name": "Vũ Ngọc Sơn",
        "latitude": 10.77531,
        "longitude": 106.70019,
        "address": "Vũ Ngọc Sơn, 85 Đường Lê Thánh Tôn, Phường Bến Nghé, Quận 1, Hồ Chí Minh, Việt Nam",
        "country_code": "VNM",
        "country_name": "Việt Nam",
        "city": "Hồ Chí Minh",
        "district": "Quận 1",
        "ward": "Phường Bến Nghé",
        "street": "Đường Lê Thánh Tôn",
        "postal_code": "71006",
        "categories": [
            {
                "name": "Cửa hàng tiện lợi"
            }
        ]
    },
    {
        "name": "Siêu Thị Citimart B & B Garden",
        "latitude": 10.78063,
        "longitude": 106.70472,
        "address": "Siêu Thị Citimart B & B Garden, Đường Lê Thánh Tôn, Phường Bến Nghé, Quận 1, Hồ Chí Minh, Việt Nam",
        "country_code": "VNM",
        "country_name": "Việt Nam",
        "city": "Hồ Chí Minh",
        "district": "Quận 1",
        "ward": "Phường Bến Nghé",
        "street": "Đường Lê Thánh Tôn",
        "postal_code": "71006",
        "categories": [
            {
                "name": "Cửa hàng tiện lợi"
            },
            {
                "name": "Siêu thị"
            }
        ]
    },
    {
        "name": "cửa hàng tiện lợi 7 eleven",
        "latitude": 10.7786,
        "longitude": 106.69916,
        "address": "cửa hàng tiện lợi 7 eleven, Đường Nguyễn Du, Phường Bến Nghé, Quận 1, Hồ Chí Minh, Việt Nam",
        "country_code": "VNM",
        "country_name": "Việt Nam",
        "city": "Hồ Chí Minh",
        "district": "Quận 1",
        "ward": "Phường Bến Nghé",
        "street": "Đường Nguyễn Du",
        "postal_code": "71006",
        "categories": [
            {
                "name": "Cửa hàng tiện lợi"
            }
        ]
    },
    {
        "name": "CH Satrafoods Đồng Khởi",
        "latitude": 10.77443,
        "longitude": 106.70487,
        "address": "CH Satrafoods Đồng Khởi, 32 Đường Đồng Khởi, Phường Bến Nghé, Quận 1, Hồ Chí Minh, Việt Nam",
        "country_code": "VNM",
        "country_name": "Việt Nam",
        "city": "Hồ Chí Minh",
        "district": "Quận 1",
        "ward": "Phường Bến Nghé",
        "street": "Đường Đồng Khởi",
        "postal_code": "71006",
        "categories": [
            {
                "name": "Cửa hàng tiện lợi"
            }
        ]
    },
    {
        "name": "Sao Gon Tiep Thi",
        "latitude": 10.78112,
        "longitude": 106.70129,
        "address": "Sao Gon Tiep Thi, Đường Nguyễn Du, Phường Bến Nghé, Quận 1, Hồ Chí Minh, Việt Nam",
        "country_code": "VNM",
        "country_name": "Việt Nam",
        "city": "Hồ Chí Minh",
        "district": "Quận 1",
        "ward": "Phường Bến Nghé",
        "street": "Đường Nguyễn Du",
        "postal_code": "71006",
        "categories": [
            {
                "name": "Cửa hàng tiện lợi"
            }
        ]
    },
    {
        "name": "Cửa Hàng Bình Ổn Thị Trường",
        "latitude": 10.7776,
        "longitude": 106.69888,
        "address": "Cửa Hàng Bình Ổn Thị Trường, Đường Pasteur, Phường Bến Nghé, Quận 1, Hồ Chí Minh, Việt Nam",
        "country_code": "VNM",
        "country_name": "Việt Nam",
        "city": "Hồ Chí Minh",
        "district": "Quận 1",
        "ward": "Phường Bến Nghé",
        "street": "Đường Pasteur",
        "postal_code": "71006",
        "categories": [
            {
                "name": "Cửa hàng tiện lợi"
            }
        ]
    },
    {
        "name": "Familymart - Hồ Huấn Nghiệp",
        "latitude": 10.77452,
        "longitude": 106.70524,
        "address": "Familymart - Hồ Huấn Nghiệp, 16 Đường Hồ Huấn Nghiệp, Phường Bến Nghé, Quận 1, Hồ Chí Minh, Việt Nam",
        "country_code": "VNM",
        "country_name": "Việt Nam",
        "city": "Hồ Chí Minh",
        "district": "Quận 1",
        "ward": "Phường Bến Nghé",
        "street": "Đường Hồ Huấn Nghiệp",
        "postal_code": "71006",
        "categories": [
            {
                "name": "Cửa hàng tiện lợi"
            }
        ]
    },
    {
        "name": "Siêu Thị Family Mart",
        "latitude": 10.78092,
        "longitude": 106.70501,
        "address": "Siêu Thị Family Mart, 20 Đường Lê Thánh Tôn, Phường Bến Nghé, Quận 1, Hồ Chí Minh, Việt Nam",
        "country_code": "VNM",
        "country_name": "Việt Nam",
        "city": "Hồ Chí Minh",
        "district": "Quận 1",
        "ward": "Phường Bến Nghé",
        "street": "Đường Lê Thánh Tôn",
        "postal_code": "71006",
        "categories": [
            {
                "name": "Cửa hàng tiện lợi"
            }
        ]
    },
    {
        "name": "WR-M Plaza",
        "latitude": 10.78093,
        "longitude": 106.70046,
        "address": "WR-M Plaza, Đường Hai Bà Trưng, Phường Bến Nghé, Quận 1, Hồ Chí Minh, Việt Nam",
        "country_code": "VNM",
        "country_name": "Việt Nam",
        "city": "Hồ Chí Minh",
        "district": "Quận 1",
        "ward": "Phường Bến Nghé",
        "street": "Đường Hai Bà Trưng",
        "postal_code": "71006",
        "categories": [
            {
                "name": "Cửa hàng tiện lợi"
            },
            {
                "name": "Quán ăn nhanh"
            }
        ]
    },
    {
        "name": "7-Eleven-Nguyễn Du",
        "latitude": 10.77748,
        "longitude": 106.69865,
        "address": "7-Eleven-Nguyễn Du, 81 Đường Nguyễn Du, Phường Bến Nghé, Quận 1, Hồ Chí Minh, Việt Nam",
        "country_code": "VNM",
        "country_name": "Việt Nam",
        "city": "Hồ Chí Minh",
        "district": "Quận 1",
        "ward": "Phường Bến Nghé",
        "street": "Đường Nguyễn Du",
        "postal_code": "71006",
        "categories": [
            {
                "name": "Cửa hàng tiện lợi"
            }
        ]
    },
    {
        "name": "Cửa hàng Ministop",
        "latitude": 10.77398,
        "longitude": 106.70074,
        "address": "Cửa hàng Ministop, 38 Đường Lê Lợi, Phường Bến Nghé, Quận 1, Hồ Chí Minh, Việt Nam",
        "country_code": "VNM",
        "country_name": "Việt Nam",
        "city": "Hồ Chí Minh",
        "district": "Quận 1",
        "ward": "Phường Bến Nghé",
        "street": "Đường Lê Lợi",
        "postal_code": "71006",
        "categories": [
            {
                "name": "Cửa hàng tiện lợi"
            }
        ]
    },
    {
        "name": "CH Satrafoods Nguyễn Huệ",
        "latitude": 10.77357,
        "longitude": 106.70386,
        "address": "CH Satrafoods Nguyễn Huệ, 103 Đường Nguyễn Huệ, Phường Bến Nghé, Quận 1, Hồ Chí Minh, Việt Nam",
        "country_code": "VNM",
        "country_name": "Việt Nam",
        "city": "Hồ Chí Minh",
        "district": "Quận 1",
        "ward": "Phường Bến Nghé",
        "street": "Đường Nguyễn Huệ",
        "postal_code": "71006",
        "categories": [
            {
                "name": "Cửa hàng tiện lợi"
            }
        ]
    },
    {
        "name": "7-Eleven-The Art Gia Hòa",
        "latitude": 10.78151,
        "longitude": 106.70429,
        "address": "7-Eleven-The Art Gia Hòa, Đường Lý Tự Trọng, Phường Bến Nghé, Quận 1, Hồ Chí Minh, Việt Nam",
        "country_code": "VNM",
        "country_name": "Việt Nam",
        "city": "Hồ Chí Minh",
        "district": "Quận 1",
        "ward": "Phường Bến Nghé",
        "street": "Đường Lý Tự Trọng",
        "postal_code": "71006",
        "categories": [
            {
                "name": "Cửa hàng tiện lợi"
            }
        ]
    },
    {
        "name": "Cửa Hàng Trải Nghiệm 99 Nguyễn Huệ",
        "latitude": 10.77351,
        "longitude": 106.70392,
        "address": "Cửa Hàng Trải Nghiệm 99 Nguyễn Huệ, 99 Đường Nguyễn Huệ, Phường Bến Nghé, Quận 1, Hồ Chí Minh, Việt Nam",
        "country_code": "VNM",
        "country_name": "Việt Nam",
        "city": "Hồ Chí Minh",
        "district": "Quận 1",
        "ward": "Phường Bến Nghé",
        "street": "Đường Nguyễn Huệ",
        "postal_code": "71006",
        "categories": [
            {
                "name": "Cửa hàng tiện lợi"
            },
            {
                "name": "Siêu thị"
            }
        ]
    },
    {
        "name": "Cửa Hàng Tiện Ích",
        "latitude": 10.77344,
        "longitude": 106.70199,
        "address": "Cửa Hàng Tiện Ích, 54 Hẻm 42 Đường Tôn Thất Thiệp, Phường Bến Nghé, Quận 1, Hồ Chí Minh, Việt Nam",
        "country_code": "VNM",
        "country_name": "Việt Nam",
        "city": "Hồ Chí Minh",
        "district": "Quận 1",
        "ward": "Phường Bến Nghé",
        "street": "Hẻm 42 Đường Tôn Thất Thiệp",
        "postal_code": "71006",
        "categories": [
            {
                "name": "Cửa hàng tiện lợi"
            },
            {
                "name": "Siêu thị"
            },
            {
                "name": "Hàng tiêu dùng"
            }
        ]
    },
    {
        "name": "7-Eleven 1056",
        "latitude": 10.77343,
        "longitude": 106.70376,
        "address": "7-Eleven 1056, 121 Đường Hồ Tùng Mậu, Phường Bến Nghé, Quận 1, Hồ Chí Minh, Việt Nam",
        "country_code": "VNM",
        "country_name": "Việt Nam",
        "city": "Hồ Chí Minh",
        "district": "Quận 1",
        "ward": "Phường Bến Nghé",
        "street": "Đường Hồ Tùng Mậu",
        "postal_code": "71006",
        "categories": [
            {
                "name": "Cửa hàng tiện lợi"
            }
        ]
    },
    {
        "name": "Photocopy Thanh Tung",
        "latitude": 10.77335,
        "longitude": 106.70397,
        "address": "Photocopy Thanh Tung, Đường Nguyễn Huệ, Phường Bến Nghé, Quận 1, Hồ Chí Minh, Việt Nam",
        "country_code": "VNM",
        "country_name": "Việt Nam",
        "city": "Hồ Chí Minh",
        "district": "Quận 1",
        "ward": "Phường Bến Nghé",
        "street": "Đường Nguyễn Huệ",
        "postal_code": "71006",
        "categories": [
            {
                "name": "Cửa hàng tiện lợi"
            }
        ]
    },
    {
        "name": "Shop & Go",
        "latitude": 10.78184,
        "longitude": 106.70149,
        "address": "Shop & Go, Đường Nguyễn Du, Phường Bến Nghé, Quận 1, Hồ Chí Minh, Việt Nam",
        "country_code": "VNM",
        "country_name": "Việt Nam",
        "city": "Hồ Chí Minh",
        "district": "Quận 1",
        "ward": "Phường Bến Nghé",
        "street": "Đường Nguyễn Du",
        "postal_code": "71006",
        "categories": [
            {
                "name": "Cửa hàng tiện lợi"
            }
        ]
    },
    {
        "name": "Circle K - Hồ Tùng Mậu",
        "latitude": 10.77317,
        "longitude": 106.70345,
        "address": "Circle K - Hồ Tùng Mậu, 27 Đường Hải Triều, Phường Bến Nghé, Quận 1, Hồ Chí Minh, Việt Nam",
        "country_code": "VNM",
        "country_name": "Việt Nam",
        "city": "Hồ Chí Minh",
        "district": "Quận 1",
        "ward": "Phường Bến Nghé",
        "street": "Đường Hải Triều",
        "postal_code": "71006",
        "categories": [
            {
                "name": "Cửa hàng tiện lợi"
            }
        ]
    },
    {
        "name": "Shop & Go",
        "latitude": 10.78193,
        "longitude": 106.70123,
        "address": "Shop & Go, Đường Nguyễn Du, Phường Bến Nghé, Quận 1, Hồ Chí Minh, Việt Nam",
        "country_code": "VNM",
        "country_name": "Việt Nam",
        "city": "Hồ Chí Minh",
        "district": "Quận 1",
        "ward": "Phường Bến Nghé",
        "street": "Đường Nguyễn Du",
        "postal_code": "71006",
        "categories": [
            {
                "name": "Cửa hàng tiện lợi"
            }
        ]
    },
    {
        "name": "Xq Silk Hand Embroidery",
        "latitude": 10.77377,
        "longitude": 106.70551,
        "address": "Xq Silk Hand Embroidery, 37 Đường Đồng Khởi, Phường Bến Nghé, Quận 1, Hồ Chí Minh, Việt Nam",
        "country_code": "VNM",
        "country_name": "Việt Nam",
        "city": "Hồ Chí Minh",
        "district": "Quận 1",
        "ward": "Phường Bến Nghé",
        "street": "Đường Đồng Khởi",
        "postal_code": "71006",
        "categories": [
            {
                "name": "Cửa hàng chuyên dụng"
            },
            {
                "name": "Cửa hàng tiện lợi"
            },
            {
                "name": "Hàng tiêu dùng"
            }
        ]
    },
    {
        "name": "GS25",
        "latitude": 10.78193,
        "longitude": 106.70101,
        "address": "GS25, 12 Đường Lê Văn Hưu, Phường Bến Nghé, Quận 1, Hồ Chí Minh, Việt Nam",
        "country_code": "VNM",
        "country_name": "Việt Nam",
        "city": "Hồ Chí Minh",
        "district": "Quận 1",
        "ward": "Phường Bến Nghé",
        "street": "Đường Lê Văn Hưu",
        "postal_code": "71006",
        "categories": [
            {
                "name": "Cửa hàng tiện lợi"
            }
        ]
    },
    {
        "name": "Cửa Hàng Cô Chi",
        "latitude": 10.78214,
        "longitude": 106.70401,
        "address": "Cửa Hàng Cô Chi, Đường Chu Mạnh Trinh, Phường Bến Nghé, Quận 1, Hồ Chí Minh, Việt Nam",
        "country_code": "VNM",
        "country_name": "Việt Nam",
        "city": "Hồ Chí Minh",
        "district": "Quận 1",
        "ward": "Phường Bến Nghé",
        "street": "Đường Chu Mạnh Trinh",
        "postal_code": "71006",
        "categories": [
            {
                "name": "Cửa hàng tiện lợi"
            },
            {
                "name": "Hàng tiêu dùng"
            },
            {
                "name": "Cửa hàng chuyên dụng"
            }
        ]
    },
    {
        "name": "Ministop",
        "latitude": 10.78145,
        "longitude": 106.70577,
        "address": "Ministop, 11 Đường Lê Thánh Tôn, Phường Bến Nghé, Quận 1, Hồ Chí Minh, Việt Nam",
        "country_code": "VNM",
        "country_name": "Việt Nam",
        "city": "Hồ Chí Minh",
        "district": "Quận 1",
        "ward": "Phường Bến Nghé",
        "street": "Đường Lê Thánh Tôn",
        "postal_code": "71006",
        "categories": [
            {
                "name": "Cửa hàng tiện lợi"
            }
        ]
    },
    {
        "name": "Tạp Hóa Cô Bẩy",
        "latitude": 10.78236,
        "longitude": 106.70389,
        "address": "Tạp Hóa Cô Bẩy, Hẻm 13 Đường Chu Mạnh Trinh, Phường Bến Nghé, Quận 1, Hồ Chí Minh, Việt Nam",
        "country_code": "VNM",
        "country_name": "Việt Nam",
        "city": "Hồ Chí Minh",
        "district": "Quận 1",
        "ward": "Phường Bến Nghé",
        "street": "Hẻm 13 Đường Chu Mạnh Trinh",
        "postal_code": "71006",
        "categories": [
            {
                "name": "Cửa hàng tiện lợi"
            }
        ]
    },
    {
        "name": "Annam Café",
        "latitude": 10.77331,
        "longitude": 106.70036,
        "address": "Annam Café, 65 Đường Lê Lợi, Phường Bến Nghé, Quận 1, Hồ Chí Minh, Việt Nam",
        "country_code": "VNM",
        "country_name": "Việt Nam",
        "city": "Hồ Chí Minh",
        "district": "Quận 1",
        "ward": "Phường Bến Nghé",
        "street": "Đường Lê Lợi",
        "postal_code": "71006",
        "categories": [
            {
                "name": "Quán cà phê"
            },
            {
                "name": "Nhà hàng"
            },
            {
                "name": "Quán ăn bình dân"
            },
            {
                "name": "Cửa hàng món ngon"
            },
            {
                "name": "Cửa hàng tiện lợi"
            },
            {
                "name": "Cửa hàng bách hóa"
            },
            {
                "name": "Siêu thị"
            }
        ]
    },
    {
        "name": "Circle K",
        "latitude": 10.77942,
        "longitude": 106.70744,
        "address": "Circle K, Đường Tôn Đức Thắng, Phường Bến Nghé, Quận 1, Hồ Chí Minh, Việt Nam",
        "country_code": "VNM",
        "country_name": "Việt Nam",
        "city": "Hồ Chí Minh",
        "district": "Quận 1",
        "ward": "Phường Bến Nghé",
        "street": "Đường Tôn Đức Thắng",
        "postal_code": "71006",
        "categories": [
            {
                "name": "Cửa hàng tiện lợi"
            }
        ]
    },
    {
        "name": "Tạp Hóa",
        "latitude": 10.7824,
        "longitude": 106.70427,
        "address": "Tạp Hóa, 49 Đường Nguyễn Trung Ngạn, Phường Bến Nghé, Quận 1, Hồ Chí Minh, Việt Nam",
        "country_code": "VNM",
        "country_name": "Việt Nam",
        "city": "Hồ Chí Minh",
        "district": "Quận 1",
        "ward": "Phường Bến Nghé",
        "street": "Đường Nguyễn Trung Ngạn",
        "postal_code": "71006",
        "categories": [
            {
                "name": "Cửa hàng tiện lợi"
            },
            {
                "name": "Đặc sản & Đồ uống"
            }
        ]
    },
    {
        "name": "Tạp Hóa Thiện Chí",
        "latitude": 10.77248,
        "longitude": 106.70267,
        "address": "Tạp Hóa Thiện Chí, Đường Tôn Thất Đạm, Phường Bến Nghé, Quận 1, Hồ Chí Minh, Việt Nam",
        "country_code": "VNM",
        "country_name": "Việt Nam",
        "city": "Hồ Chí Minh",
        "district": "Quận 1",
        "ward": "Phường Bến Nghé",
        "street": "Đường Tôn Thất Đạm",
        "postal_code": "71006",
        "categories": [
            {
                "name": "Cửa hàng tiện lợi"
            }
        ]
    },
    {
        "name": "Siêu Thị Tạp Hóa Happy Mart",
        "latitude": 10.78281,
        "longitude": 106.70187,
        "address": "Siêu Thị Tạp Hóa Happy Mart, 31 Đường Nguyễn Du, Phường Bến Nghé, Quận 1, Hồ Chí Minh, Việt Nam",
        "country_code": "VNM",
        "country_name": "Việt Nam",
        "city": "Hồ Chí Minh",
        "district": "Quận 1",
        "ward": "Phường Bến Nghé",
        "street": "Đường Nguyễn Du",
        "postal_code": "71006",
        "categories": [
            {
                "name": "Cửa hàng tiện lợi"
            }
        ]
    },
    {
        "name": "Tạp Hóa Tùng Châu",
        "latitude": 10.77225,
        "longitude": 106.7028,
        "address": "Tạp Hóa Tùng Châu, Đường Tôn Thất Đạm, Phường Bến Nghé, Quận 1, Hồ Chí Minh, Việt Nam",
        "country_code": "VNM",
        "country_name": "Việt Nam",
        "city": "Hồ Chí Minh",
        "district": "Quận 1",
        "ward": "Phường Bến Nghé",
        "street": "Đường Tôn Thất Đạm",
        "postal_code": "71006",
        "categories": [
            {
                "name": "Cửa hàng tiện lợi"
            }
        ]
    },
    {
        "name": "B's Mart - Trương Định",
        "latitude": 10.77387,
        "longitude": 106.69891,
        "address": "B's Mart - Trương Định, 43 Đường Trương Định, Phường Bến Thành, Quận 1, Hồ Chí Minh, Việt Nam",
        "country_code": "VNM",
        "country_name": "Việt Nam",
        "city": "Hồ Chí Minh",
        "district": "Quận 1",
        "ward": "Phường Bến Thành",
        "street": "Đường Trương Định",
        "postal_code": "71009",
        "categories": [
            {
                "name": "Cửa hàng tiện lợi"
            }
        ]
    },
    {
        "name": "Phương Ngọc",
        "latitude": 10.77221,
        "longitude": 106.70282,
        "address": "Phương Ngọc, 115 Hẻm 126 Đường Tôn Thất Đạm, Phường Bến Nghé, Quận 1, Hồ Chí Minh, Việt Nam",
        "country_code": "VNM",
        "country_name": "Việt Nam",
        "city": "Hồ Chí Minh",
        "district": "Quận 1",
        "ward": "Phường Bến Nghé",
        "street": "Hẻm 126 Đường Tôn Thất Đạm",
        "postal_code": "71006",
        "categories": [
            {
                "name": "Cửa hàng tiện lợi"
            },
            {
                "name": "Dịch vụ kinh doanh"
            }
        ]
    },
    {
        "name": "Satrafoods 74 Lê Lợi",
        "latitude": 10.77317,
        "longitude": 106.69967,
        "address": "Satrafoods 74 Lê Lợi, 74 Hẻm 88 Lê Lợi, Phường Bến Thành, Quận 1, Hồ Chí Minh, Việt Nam",
        "country_code": "VNM",
        "country_name": "Việt Nam",
        "city": "Hồ Chí Minh",
        "district": "Quận 1",
        "ward": "Phường Bến Thành",
        "street": "Hẻm 88 Lê Lợi",
        "postal_code": "71009",
        "categories": [
            {
                "name": "Cửa hàng tiện lợi"
            },
            {
                "name": "Siêu thị"
            }
        ]
    },
    {
        "name": "B's Mart Cao Bá Nhạ",
        "latitude": 10.7738,
        "longitude": 106.69881,
        "address": "B's Mart Cao Bá Nhạ, 165-167 Đường Lê Thánh Tôn, Phường Bến Thành, Quận 1, Hồ Chí Minh, Việt Nam",
        "country_code": "VNM",
        "country_name": "Việt Nam",
        "city": "Hồ Chí Minh",
        "district": "Quận 1",
        "ward": "Phường Bến Thành",
        "street": "Đường Lê Thánh Tôn",
        "postal_code": "71009",
        "categories": [
            {
                "name": "Cửa hàng tiện lợi"
            }
        ]
    },
    {
        "name": "B's Mart - Lê Thánh Tôn",
        "latitude": 10.7738,
        "longitude": 106.69881,
        "address": "B's Mart - Lê Thánh Tôn, 165-167 Đường Lê Thánh Tôn, Phường Bến Thành, Quận 1, Hồ Chí Minh, Việt Nam",
        "country_code": "VNM",
        "country_name": "Việt Nam",
        "city": "Hồ Chí Minh",
        "district": "Quận 1",
        "ward": "Phường Bến Thành",
        "street": "Đường Lê Thánh Tôn",
        "postal_code": "71009",
        "categories": [
            {
                "name": "Cửa hàng tiện lợi"
            }
        ]
    },
    {
        "name": "Shop Phan Yến",
        "latitude": 10.77215,
        "longitude": 106.70201,
        "address": "Shop Phan Yến, 92 Đường Pasteur, Phường Bến Nghé, Quận 1, Hồ Chí Minh, Việt Nam",
        "country_code": "VNM",
        "country_name": "Việt Nam",
        "city": "Hồ Chí Minh",
        "district": "Quận 1",
        "ward": "Phường Bến Nghé",
        "street": "Đường Pasteur",
        "postal_code": "71006",
        "categories": [
            {
                "name": "Cửa hàng tiện lợi"
            }
        ]
    },
    {
        "name": "Tạp Hóa Lương",
        "latitude": 10.77204,
        "longitude": 106.70303,
        "address": "Tạp Hóa Lương, 110 Hẻm 126 Đường Tôn Thất Đạm, Phường Bến Nghé, Quận 1, Hồ Chí Minh, Việt Nam",
        "country_code": "VNM",
        "country_name": "Việt Nam",
        "city": "Hồ Chí Minh",
        "district": "Quận 1",
        "ward": "Phường Bến Nghé",
        "street": "Hẻm 126 Đường Tôn Thất Đạm",
        "postal_code": "71006",
        "categories": [
            {
                "name": "Cửa hàng tiện lợi"
            }
        ]
    },
    {
        "name": "Nutri Nest-173 Ltt",
        "latitude": 10.77372,
        "longitude": 106.69868,
        "address": "Nutri Nest-173 Ltt, 173 Đường Lê Thánh Tôn, Phường Bến Thành, Quận 1, Hồ Chí Minh, Việt Nam",
        "country_code": "VNM",
        "country_name": "Việt Nam",
        "city": "Hồ Chí Minh",
        "district": "Quận 1",
        "ward": "Phường Bến Thành",
        "street": "Đường Lê Thánh Tôn",
        "postal_code": "71009",
        "categories": [
            {
                "name": "Cửa hàng tiện lợi"
            },
            {
                "name": "Quầy hàng đặc sản"
            }
        ]
    },
    {
        "name": "Gs25",
        "latitude": 10.78227,
        "longitude": 106.70598,
        "address": "Gs25, 17/2 Đường Lê Thánh Tôn, Phường Bến Nghé, Quận 1, Hồ Chí Minh, Việt Nam",
        "country_code": "VNM",
        "country_name": "Việt Nam",
        "city": "Hồ Chí Minh",
        "district": "Quận 1",
        "ward": "Phường Bến Nghé",
        "street": "Đường Lê Thánh Tôn",
        "postal_code": "71006",
        "categories": [
            {
                "name": "Cửa hàng tiện lợi"
            }
        ]
    },
    {
        "name": "Cửa Hàng Bách Hóa Tổng Hợp",
        "latitude": 10.77194,
        "longitude": 106.70395,
        "address": "Cửa Hàng Bách Hóa Tổng Hợp, 54 Đường Hồ Tùng Mậu, Phường Bến Nghé, Quận 1, Hồ Chí Minh, Việt Nam",
        "country_code": "VNM",
        "country_name": "Việt Nam",
        "city": "Hồ Chí Minh",
        "district": "Quận 1",
        "ward": "Phường Bến Nghé",
        "street": "Đường Hồ Tùng Mậu",
        "postal_code": "71006",
        "categories": [
            {
                "name": "Cửa hàng tiện lợi"
            }
        ]
    },
    {
        "name": "Mini Stop",
        "latitude": 10.78264,
        "longitude": 106.70567,
        "address": "Mini Stop, Đường Tôn Đức Thắng, Phường Bến Nghé, Quận 1, Hồ Chí Minh, Việt Nam",
        "country_code": "VNM",
        "country_name": "Việt Nam",
        "city": "Hồ Chí Minh",
        "district": "Quận 1",
        "ward": "Phường Bến Nghé",
        "street": "Đường Tôn Đức Thắng",
        "postal_code": "71006",
        "categories": [
            {
                "name": "Cửa hàng tiện lợi"
            }
        ]
    },
    {
        "name": "Circle K",
        "latitude": 10.77187,
        "longitude": 106.70379,
        "address": "Circle K, Đường Hồ Tùng Mậu, Phường Bến Nghé, Quận 1, Hồ Chí Minh, Việt Nam",
        "country_code": "VNM",
        "country_name": "Việt Nam",
        "city": "Hồ Chí Minh",
        "district": "Quận 1",
        "ward": "Phường Bến Nghé",
        "street": "Đường Hồ Tùng Mậu",
        "postal_code": "71006",
        "categories": [
            {
                "name": "Cửa hàng tiện lợi"
            }
        ]
    },
    {
        "name": "Cửa Hàng Tiện Lợi Circle K",
        "latitude": 10.77185,
        "longitude": 106.70391,
        "address": "Cửa Hàng Tiện Lợi Circle K, Đường Hồ Tùng Mậu, Phường Bến Nghé, Quận 1, Hồ Chí Minh, Việt Nam",
        "country_code": "VNM",
        "country_name": "Việt Nam",
        "city": "Hồ Chí Minh",
        "district": "Quận 1",
        "ward": "Phường Bến Nghé",
        "street": "Đường Hồ Tùng Mậu",
        "postal_code": "71006",
        "categories": [
            {
                "name": "Cửa hàng tiện lợi"
            }
        ]
    },
    {
        "name": "Circle K",
        "latitude": 10.77569,
        "longitude": 106.69714,
        "address": "Circle K, Đường Nguyễn Trung Trực, Phường Bến Thành, Quận 1, Hồ Chí Minh, Việt Nam",
        "country_code": "VNM",
        "country_name": "Việt Nam",
        "city": "Hồ Chí Minh",
        "district": "Quận 1",
        "ward": "Phường Bến Thành",
        "street": "Đường Nguyễn Trung Trực",
        "postal_code": "71009",
        "categories": [
            {
                "name": "Cửa hàng tiện lợi"
            }
        ]
    },
    {
        "name": "Vinmart+ Sh10 Tdt Hcm",
        "latitude": 10.78208,
        "longitude": 106.70678,
        "address": "Vinmart+ Sh10 Tdt Hcm, Đường Tôn Đức Thắng, Phường Bến Nghé, Quận 1, Hồ Chí Minh, Việt Nam",
        "country_code": "VNM",
        "country_name": "Việt Nam",
        "city": "Hồ Chí Minh",
        "district": "Quận 1",
        "ward": "Phường Bến Nghé",
        "street": "Đường Tôn Đức Thắng",
        "postal_code": "71006",
        "categories": [
            {
                "name": "Cửa hàng tiện lợi"
            }
        ]
    },
    {
        "name": "Sgh Mini Mart",
        "latitude": 10.77241,
        "longitude": 106.69957,
        "address": "Sgh Mini Mart, Đường Lê Lợi, Phường Bến Thành, Quận 1, Hồ Chí Minh, Việt Nam",
        "country_code": "VNM",
        "country_name": "Việt Nam",
        "city": "Hồ Chí Minh",
        "district": "Quận 1",
        "ward": "Phường Bến Thành",
        "street": "Đường Lê Lợi",
        "postal_code": "71009",
        "categories": [
            {
                "name": "Cửa hàng tiện lợi"
            }
        ]
    },
    {
        "name": "Shop Thanh Nhàn",
        "latitude": 10.77148,
        "longitude": 106.7031,
        "address": "Shop Thanh Nhàn, Đường Tôn Thất Đạm, Phường Bến Nghé, Quận 1, Hồ Chí Minh, Việt Nam",
        "country_code": "VNM",
        "country_name": "Việt Nam",
        "city": "Hồ Chí Minh",
        "district": "Quận 1",
        "ward": "Phường Bến Nghé",
        "street": "Đường Tôn Thất Đạm",
        "postal_code": "71006",
        "categories": [
            {
                "name": "Cửa hàng tiện lợi"
            }
        ]
    },
    {
        "name": "Family Mart",
        "latitude": 10.77145,
        "longitude": 106.70236,
        "address": "Family Mart, 58 Đường Pasteur, Phường Bến Nghé, Quận 1, Hồ Chí Minh, Việt Nam",
        "country_code": "VNM",
        "country_name": "Việt Nam",
        "city": "Hồ Chí Minh",
        "district": "Quận 1",
        "ward": "Phường Bến Nghé",
        "street": "Đường Pasteur",
        "postal_code": "71006",
        "categories": [
            {
                "name": "Cửa hàng tiện lợi"
            }
        ]
    },
    {
        "name": "Family Mart",
        "latitude": 10.77145,
        "longitude": 106.70236,
        "address": "Family Mart, 58 Đường Pasteur, Phường Bến Nghé, Quận 1, Hồ Chí Minh, Việt Nam",
        "country_code": "VNM",
        "country_name": "Việt Nam",
        "city": "Hồ Chí Minh",
        "district": "Quận 1",
        "ward": "Phường Bến Nghé",
        "street": "Đường Pasteur",
        "postal_code": "71006",
        "categories": [
            {
                "name": "Cửa hàng tiện lợi"
            }
        ]
    },
    {
        "name": "Vinmart",
        "latitude": 10.77121,
        "longitude": 106.70219,
        "address": "Vinmart, Đường Hàm Nghi, Phường Bến Nghé, Quận 1, Hồ Chí Minh, Việt Nam",
        "country_code": "VNM",
        "country_name": "Việt Nam",
        "city": "Hồ Chí Minh",
        "district": "Quận 1",
        "ward": "Phường Bến Nghé",
        "street": "Đường Hàm Nghi",
        "postal_code": "71006",
        "categories": [
            {
                "name": "Cửa hàng tiện lợi"
            }
        ]
    },
    {
        "name": "Ecoshop Saigon",
        "latitude": 10.77248,
        "longitude": 106.69881,
        "address": "Ecoshop Saigon, Đường Phan Bội Châu, Phường Bến Thành, Quận 1, Hồ Chí Minh, Việt Nam",
        "country_code": "VNM",
        "country_name": "Việt Nam",
        "city": "Hồ Chí Minh",
        "district": "Quận 1",
        "ward": "Phường Bến Thành",
        "street": "Đường Phan Bội Châu",
        "postal_code": "71009",
        "categories": [
            {
                "name": "Cửa hàng tiện lợi"
            },
            {
                "name": "Nhà hàng"
            },
            {
                "name": "Đặc sản & Đồ uống"
            },
            {
                "name": "Quầy hàng đặc sản"
            },
            {
                "name": "Hàng tiêu dùng"
            }
        ]
    },
    {
        "name": "WinMart+",
        "latitude": 10.77115,
        "longitude": 106.7022,
        "address": "WinMart+, Đường Hàm Nghi, Phường Bến Nghé, Quận 1, Hồ Chí Minh, Việt Nam",
        "country_code": "VNM",
        "country_name": "Việt Nam",
        "city": "Hồ Chí Minh",
        "district": "Quận 1",
        "ward": "Phường Bến Nghé",
        "street": "Đường Hàm Nghi",
        "postal_code": "71006",
        "categories": [
            {
                "name": "Cửa hàng tiện lợi"
            }
        ]
    },
    {
        "name": "Tiến Phát",
        "latitude": 10.7711,
        "longitude": 106.70297,
        "address": "Tiến Phát, 100 Hẻm 110 Đường Hàm Nghi, Phường Bến Nghé, Quận 1, Hồ Chí Minh, Việt Nam",
        "country_code": "VNM",
        "country_name": "Việt Nam",
        "city": "Hồ Chí Minh",
        "district": "Quận 1",
        "ward": "Phường Bến Nghé",
        "street": "Hẻm 110 Đường Hàm Nghi",
        "postal_code": "71006",
        "categories": [
            {
                "name": "Cửa hàng tiện lợi"
            },
            {
                "name": "Siêu thị"
            }
        ]
    },
    {
        "name": "Mini Stop",
        "latitude": 10.77411,
        "longitude": 106.69716,
        "address": "Mini Stop, Đường Lý Tự Trọng, Phường Bến Thành, Quận 1, Hồ Chí Minh, Việt Nam",
        "country_code": "VNM",
        "country_name": "Việt Nam",
        "city": "Hồ Chí Minh",
        "district": "Quận 1",
        "ward": "Phường Bến Thành",
        "street": "Đường Lý Tự Trọng",
        "postal_code": "71009",
        "categories": [
            {
                "name": "Cửa hàng tiện lợi"
            }
        ]
    },
    {
        "name": "Thái Hòa",
        "latitude": 10.77109,
        "longitude": 106.70375,
        "address": "Thái Hòa, 60 Đường Hàm Nghi, Phường Bến Nghé, Quận 1, Hồ Chí Minh, Việt Nam",
        "country_code": "VNM",
        "country_name": "Việt Nam",
        "city": "Hồ Chí Minh",
        "district": "Quận 1",
        "ward": "Phường Bến Nghé",
        "street": "Đường Hàm Nghi",
        "postal_code": "71006",
        "categories": [
            {
                "name": "Cửa hàng tiện lợi"
            },
            {
                "name": "Cửa hàng bách hóa"
            },
            {
                "name": "Siêu thị"
            },
            {
                "name": "Rượu bia"
            },
            {
                "name": "Hàng tiêu dùng"
            },
            {
                "name": "Cửa hàng chuyên dụng"
            }
        ]
    },
    {
        "name": "Cửa Hàng Family Mart",
        "latitude": 10.78371,
        "longitude": 106.70527,
        "address": "Cửa Hàng Family Mart, 5/1 Đường Nguyễn Trung Ngạn, Phường Bến Nghé, Quận 1, Hồ Chí Minh, Việt Nam",
        "country_code": "VNM",
        "country_name": "Việt Nam",
        "city": "Hồ Chí Minh",
        "district": "Quận 1",
        "ward": "Phường Bến Nghé",
        "street": "Đường Nguyễn Trung Ngạn",
        "postal_code": "71006",
        "categories": [
            {
                "name": "Cửa hàng tiện lợi"
            }
        ]
    },
    {
        "name": "Tạp Hóa",
        "latitude": 10.78373,
        "longitude": 106.70544,
        "address": "Tạp Hóa, Đường Nguyễn Trung Ngạn, Phường Bến Nghé, Quận 1, Hồ Chí Minh, Việt Nam",
        "country_code": "VNM",
        "country_name": "Việt Nam",
        "city": "Hồ Chí Minh",
        "district": "Quận 1",
        "ward": "Phường Bến Nghé",
        "street": "Đường Nguyễn Trung Ngạn",
        "postal_code": "71006",
        "categories": [
            {
                "name": "Cửa hàng tiện lợi"
            },
            {
                "name": "Nhà hàng"
            },
            {
                "name": "Siêu thị"
            }
        ]
    },
    {
        "name": "Cửa Hàng Circle K",
        "latitude": 10.77427,
        "longitude": 106.69688,
        "address": "Cửa Hàng Circle K, 40 Hẻm 65 Thủ Khoa Huân, Phường Bến Thành, Quận 1, Hồ Chí Minh, Việt Nam",
        "country_code": "VNM",
        "country_name": "Việt Nam",
        "city": "Hồ Chí Minh",
        "district": "Quận 1",
        "ward": "Phường Bến Thành",
        "street": "Hẻm 65 Thủ Khoa Huân",
        "postal_code": "71009",
        "categories": [
            {
                "name": "Cửa hàng tiện lợi"
            }
        ]
    },
    {
        "name": "GS25 Phạm Ngọc Thạch",
        "latitude": 10.78137,
        "longitude": 106.69702,
        "address": "GS25 Phạm Ngọc Thạch, Đường Phạm Ngọc Thạch, Phường Bến Nghé, Quận 1, Hồ Chí Minh, Việt Nam",
        "country_code": "VNM",
        "country_name": "Việt Nam",
        "city": "Hồ Chí Minh",
        "district": "Quận 1",
        "ward": "Phường Bến Nghé",
        "street": "Đường Phạm Ngọc Thạch",
        "postal_code": "71006",
        "categories": [
            {
                "name": "Cửa hàng tiện lợi"
            }
        ]
    },
    {
        "name": "Cửa Hàng Tiện Lợi GS25",
        "latitude": 10.78159,
        "longitude": 106.69714,
        "address": "Cửa Hàng Tiện Lợi GS25, Đường Phạm Ngọc Thạch, Phường Bến Nghé, Quận 1, Hồ Chí Minh, Việt Nam",
        "country_code": "VNM",
        "country_name": "Việt Nam",
        "city": "Hồ Chí Minh",
        "district": "Quận 1",
        "ward": "Phường Bến Nghé",
        "street": "Đường Phạm Ngọc Thạch",
        "postal_code": "71006",
        "categories": [
            {
                "name": "Cửa hàng tiện lợi"
            }
        ]
    },
    {
        "name": "Tiện Ích Foodco Mart",
        "latitude": 10.77068,
        "longitude": 106.7036,
        "address": "Tiện Ích Foodco Mart, 77B Đường Hàm Nghi, Phường Nguyễn Thái Bình, Quận 1, Hồ Chí Minh, Việt Nam",
        "country_code": "VNM",
        "country_name": "Việt Nam",
        "city": "Hồ Chí Minh",
        "district": "Quận 1",
        "ward": "Phường Nguyễn Thái Bình",
        "street": "Đường Hàm Nghi",
        "postal_code": "71010",
        "categories": [
            {
                "name": "Cửa hàng tiện lợi"
            },
            {
                "name": "Siêu thị"
            }
        ]
    },
    {
        "name": "Cửa Hàng Tiện Ích",
        "latitude": 10.77068,
        "longitude": 106.70367,
        "address": "Cửa Hàng Tiện Ích, 77 Đường Hàm Nghi, Phường Nguyễn Thái Bình, Quận 1, Hồ Chí Minh, Việt Nam",
        "country_code": "VNM",
        "country_name": "Việt Nam",
        "city": "Hồ Chí Minh",
        "district": "Quận 1",
        "ward": "Phường Nguyễn Thái Bình",
        "street": "Đường Hàm Nghi",
        "postal_code": "71010",
        "categories": [
            {
                "name": "Cửa hàng tiện lợi"
            }
        ]
    },
    {
        "name": "Shop & Go",
        "latitude": 10.78226,
        "longitude": 106.69753,
        "address": "Shop & Go, Đường Nguyễn Thị Minh Khai, Phường Bến Nghé, Quận 1, Hồ Chí Minh, Việt Nam",
        "country_code": "VNM",
        "country_name": "Việt Nam",
        "city": "Hồ Chí Minh",
        "district": "Quận 1",
        "ward": "Phường Bến Nghé",
        "street": "Đường Nguyễn Thị Minh Khai",
        "postal_code": "71006",
        "categories": [
            {
                "name": "Cửa hàng tiện lợi"
            }
        ]
    },
    {
        "name": "Tạp Hóa Minh Anh",
        "latitude": 10.77067,
        "longitude": 106.70415,
        "address": "Tạp Hóa Minh Anh, 55 Đường Hàm Nghi, Phường Nguyễn Thái Bình, Quận 1, Hồ Chí Minh, Việt Nam",
        "country_code": "VNM",
        "country_name": "Việt Nam",
        "city": "Hồ Chí Minh",
        "district": "Quận 1",
        "ward": "Phường Nguyễn Thái Bình",
        "street": "Đường Hàm Nghi",
        "postal_code": "71010",
        "categories": [
            {
                "name": "Cửa hàng tiện lợi"
            }
        ]
    },
    {
        "name": "Family Mart",
        "latitude": 10.77365,
        "longitude": 106.69681,
        "address": "Family Mart, 222 Đường Lý Tự Trọng, Phường Bến Thành, Quận 1, Hồ Chí Minh, Việt Nam",
        "country_code": "VNM",
        "country_name": "Việt Nam",
        "city": "Hồ Chí Minh",
        "district": "Quận 1",
        "ward": "Phường Bến Thành",
        "street": "Đường Lý Tự Trọng",
        "postal_code": "71009",
        "categories": [
            {
                "name": "Cửa hàng tiện lợi"
            }
        ]
    },
    {
        "name": "Food Store Phương Hà II",
        "latitude": 10.77059,
        "longitude": 106.70404,
        "address": "Food Store Phương Hà II, 69-71 Đường Hàm Nghi, Phường Nguyễn Thái Bình, Quận 1, Hồ Chí Minh, Việt Nam",
        "country_code": "VNM",
        "country_name": "Việt Nam",
        "city": "Hồ Chí Minh",
        "district": "Quận 1",
        "ward": "Phường Nguyễn Thái Bình",
        "street": "Đường Hàm Nghi",
        "postal_code": "71010",
        "categories": [
            {
                "name": "Cửa hàng tiện lợi"
            },
            {
                "name": "Dịch vụ kinh doanh"
            }
        ]
    },
    {
        "name": "7-Eleven-Nguyễn Thị Minh Khai",
        "latitude": 10.78186,
        "longitude": 106.69705,
        "address": "7-Eleven-Nguyễn Thị Minh Khai, 82 Đường Nguyễn Thị Minh Khai, Phường Võ Thị Sáu, Quận 3, Hồ Chí Minh, Việt Nam",
        "country_code": "VNM",
        "country_name": "Việt Nam",
        "city": "Hồ Chí Minh",
        "district": "Quận 3",
        "ward": "Phường Võ Thị Sáu",
        "street": "Đường Nguyễn Thị Minh Khai",
        "postal_code": "72415",
        "categories": [
            {
                "name": "Cửa hàng tiện lợi"
            }
        ]
    },
    {
        "name": "Satrafoods Lê Thánh Tôn",
        "latitude": 10.77281,
        "longitude": 106.69704,
        "address": "Satrafoods Lê Thánh Tôn, 204-206 Đường Lê Thánh Tôn, Phường Bến Thành, Quận 1, Hồ Chí Minh, Việt Nam",
        "country_code": "VNM",
        "country_name": "Việt Nam",
        "city": "Hồ Chí Minh",
        "district": "Quận 1",
        "ward": "Phường Bến Thành",
        "street": "Đường Lê Thánh Tôn",
        "postal_code": "71009",
        "categories": [
            {
                "name": "Cửa hàng tiện lợi"
            }
        ]
    },
    {
        "name": "Cty Cp Dt Xnk Ttp",
        "latitude": 10.77087,
        "longitude": 106.69944,
        "address": "Cty Cp Dt Xnk Ttp, 171 Đường Hàm Nghi, Phường Nguyễn Thái Bình, Quận 1, Hồ Chí Minh, Việt Nam",
        "country_code": "VNM",
        "country_name": "Việt Nam",
        "city": "Hồ Chí Minh",
        "district": "Quận 1",
        "ward": "Phường Nguyễn Thái Bình",
        "street": "Đường Hàm Nghi",
        "postal_code": "71010",
        "categories": [
            {
                "name": "Cửa hàng tiện lợi"
            },
            {
                "name": "Quầy hàng đặc sản"
            }
        ]
    },
    {
        "name": "Shop Rượu Minh Xuân Cảnh",
        "latitude": 10.77048,
        "longitude": 106.70036,
        "address": "Shop Rượu Minh Xuân Cảnh, Đường Lê Công Kiều, Phường Nguyễn Thái Bình, Quận 1, Hồ Chí Minh, Việt Nam",
        "country_code": "VNM",
        "country_name": "Việt Nam",
        "city": "Hồ Chí Minh",
        "district": "Quận 1",
        "ward": "Phường Nguyễn Thái Bình",
        "street": "Đường Lê Công Kiều",
        "postal_code": "71010",
        "categories": [
            {
                "name": "Cửa hàng tiện lợi"
            }
        ]
    },
    {
        "name": "Hộ Kinh Doanh Bảo Hiên Rồng Vàng",
        "latitude": 10.7734,
        "longitude": 106.69637,
        "address": "Hộ Kinh Doanh Bảo Hiên Rồng Vàng, 167 Đường Lý Tự Trọng, Phường Bến Thành, Quận 1, Hồ Chí Minh, Việt Nam",
        "country_code": "VNM",
        "country_name": "Việt Nam",
        "city": "Hồ Chí Minh",
        "district": "Quận 1",
        "ward": "Phường Bến Thành",
        "street": "Đường Lý Tự Trọng",
        "postal_code": "71009",
        "categories": [
            {
                "name": "Cửa hàng tiện lợi"
            },
            {
                "name": "Quán ăn bình dân"
            },
            {
                "name": "Siêu thị"
            }
        ]
    }
]
