[
    {
        "name": "Paris Baguette",
        "latitude": 10.77779,
        "longitude": 106.70229,
        "address": "Paris Baguette, Lê Thánh Tôn, Phường Bến Nghé, Quận 1, Hồ Chí Minh, Việt Nam",
        "country_code": "VNM",
        "country_name": "Việt Nam",
        "city": "Hồ Chí Minh",
        "district": "Quận 1",
        "ward": "Phường Bến Nghé",
        "street": "Lê Thánh Tôn",
        "postal_code": "71006",
        "categories": [
            {
                "name": "Quán cà phê"
            },
            {
                "name": "Nhà hàng"
            },
            {
                "name": "Cafeteria"
            },
            {
                "name": "Hiệu bánh"
            },
            {
                "name": "Cửa hàng chuyên dụng"
            }
        ]
    },
    {
        "name": "Aldo Vincom Đồng Khởi",
        "latitude": 10.7779,
        "longitude": 106.70233,
        "address": "Aldo Vincom Đồng Khởi, 70 Đường Lê Thánh Tôn, Phường Bến Nghé, Quận 1, Hồ Chí Minh, Việt Nam",
        "country_code": "VNM",
        "country_name": "Việt Nam",
        "city": "Hồ Chí Minh",
        "district": "Quận 1",
        "ward": "Phường Bến Nghé",
        "street": "Đường Lê Thánh Tôn",
        "postal_code": "71006",
        "categories": [
            {
                "name": "Thợ kim hoàn"
            },
            {
                "name": "Siêu thị"
            },
            {
                "name": "Hiệu bánh"
            },
            {
                "name": "Cửa hàng điện tử gia dụng"
            },
            {
                "name": "Cửa hàng bán lẻ điện thoại di động"
            },
            {
                "name": "Phụ kiện nội thất và gia đình"
            },
            {
                "name": "Hiệu sách"
            },
            {
                "name": "Hàng tiêu dùng"
            },
            {
                "name": "Cửa hàng chuyên dụng"
            },
            {
                "name": "Cắt tóc & Tạo mẫu"
            },
            {
                "name": "Dịch vụ khách hàng"
            },
            {
                "name": "Dịch vụ sửa chữa"
            }
        ]
    },
    {
        "name": "Pat A Chou",
        "latitude": 10.77829,
        "longitude": 106.70322,
        "address": "Pat A Chou, 74B Đường Hai Bà Trưng, Phường Bến Nghé, Quận 1, Hồ Chí Minh, Việt Nam",
        "country_code": "VNM",
        "country_name": "Việt Nam",
        "city": "Hồ Chí Minh",
        "district": "Quận 1",
        "ward": "Phường Bến Nghé",
        "street": "Đường Hai Bà Trưng",
        "postal_code": "71006",
        "categories": [
            {
                "name": "Hiệu bánh"
            },
            {
                "name": "Nhà hàng"
            },
            {
                "name": "Cửa hàng chuyên dụng"
            }
        ]
    },
    {
        "name": "Hoàng Yến Buffet - Vincom B",
        "latitude": 10.77809,
        "longitude": 106.70214,
        "address": "Hoàng Yến Buffet - Vincom B, 72 Đường Lê Thánh Tôn, Phường Bến Nghé, Quận 1, Hồ Chí Minh, Việt Nam",
        "country_code": "VNM",
        "country_name": "Việt Nam",
        "city": "Hồ Chí Minh",
        "district": "Quận 1",
        "ward": "Phường Bến Nghé",
        "street": "Đường Lê Thánh Tôn",
        "postal_code": "71006",
        "categories": [
            {
                "name": "Hiệu bánh"
            }
        ]
    },
    {
        "name": "Bánh Mì Sun Merry - Vincom Center A",
        "latitude": 10.77672,
        "longitude": 106.70218,
        "address": "Bánh Mì Sun Merry - Vincom Center A, Đường Đồng Khởi, Phường Bến Nghé, Quận 1, Hồ Chí Minh, Việt Nam",
        "country_code": "VNM",
        "country_name": "Việt Nam",
        "city": "Hồ Chí Minh",
        "district": "Quận 1",
        "ward": "Phường Bến Nghé",
        "street": "Đường Đồng Khởi",
        "postal_code": "71006",
        "categories": [
            {
                "name": "Hiệu bánh"
            },
            {
                "name": "Nhà hàng"
            },
            {
                "name": "Cà Phê/Trà"
            },
            {
                "name": "Quán cà phê"
            }
        ]
    },
    {
        "name": "Baked Box",
        "latitude": 10.7788,
        "longitude": 106.70277,
        "address": "Baked Box, Đường Hai Bà Trưng, Phường Bến Nghé, Quận 1, Hồ Chí Minh, Việt Nam",
        "country_code": "VNM",
        "country_name": "Việt Nam",
        "city": "Hồ Chí Minh",
        "district": "Quận 1",
        "ward": "Phường Bến Nghé",
        "street": "Đường Hai Bà Trưng",
        "postal_code": "71006",
        "categories": [
            {
                "name": "Hiệu bánh"
            }
        ]
    },
    {
        "name": "The Pastry Boutique At Park Hyatt Saigon",
        "latitude": 10.77731,
        "longitude": 106.70411,
        "address": "The Pastry Boutique At Park Hyatt Saigon, 1 Công Trường Lam Sơn, Phường Bến Nghé, Quận 1, Hồ Chí Minh, Việt Nam",
        "country_code": "VNM",
        "country_name": "Việt Nam",
        "city": "Hồ Chí Minh",
        "district": "Quận 1",
        "ward": "Phường Bến Nghé",
        "street": "Công Trường Lam Sơn",
        "postal_code": "71006",
        "categories": [
            {
                "name": "Hiệu bánh"
            }
        ]
    },
    {
        "name": "The Cake Factory",
        "latitude": 10.77867,
        "longitude": 106.70171,
        "address": "The Cake Factory, 43 Đường Lý Tự Trọng, Phường Bến Nghé, Quận 1, Hồ Chí Minh, Việt Nam",
        "country_code": "VNM",
        "country_name": "Việt Nam",
        "city": "Hồ Chí Minh",
        "district": "Quận 1",
        "ward": "Phường Bến Nghé",
        "street": "Đường Lý Tự Trọng",
        "postal_code": "71006",
        "categories": [
            {
                "name": "Hiệu bánh"
            },
            {
                "name": "Nhà hàng"
            }
        ]
    },
    {
        "name": "Hộ Kinh Doanh Nguyễn Thái Bình",
        "latitude": 10.77602,
        "longitude": 106.70094,
        "address": "Hộ Kinh Doanh Nguyễn Thái Bình, Đường Lê Thánh Tôn, Phường Bến Nghé, Quận 1, Hồ Chí Minh, Việt Nam",
        "country_code": "VNM",
        "country_name": "Việt Nam",
        "city": "Hồ Chí Minh",
        "district": "Quận 1",
        "ward": "Phường Bến Nghé",
        "street": "Đường Lê Thánh Tôn",
        "postal_code": "71006",
        "categories": [
            {
                "name": "Hiệu bánh"
            },
            {
                "name": "Quầy hàng đặc sản"
            }
        ]
    },
    {
        "name": "Brodard Bakery - 104 Mạc Thị Bưởi",
        "latitude": 10.77516,
        "longitude": 106.70326,
        "address": "Brodard Bakery - 104 Mạc Thị Bưởi, 11 Đường Nguyễn Thiệp, Phường Bến Nghé, Quận 1, Hồ Chí Minh, Việt Nam",
        "country_code": "VNM",
        "country_name": "Việt Nam",
        "city": "Hồ Chí Minh",
        "district": "Quận 1",
        "ward": "Phường Bến Nghé",
        "street": "Đường Nguyễn Thiệp",
        "postal_code": "71006",
        "categories": [
            {
                "name": "Cửa hàng chuyên dụng"
            },
            {
                "name": "Nhà hàng"
            },
            {
                "name": "Hiệu bánh"
            },
            {
                "name": "Dịch vụ B2B"
            }
        ]
    },
    {
        "name": "Jeff De Bruges",
        "latitude": 10.77638,
        "longitude": 106.70505,
        "address": "Jeff De Bruges, 11 Đường Đông Du, Phường Bến Nghé, Quận 1, Hồ Chí Minh, Việt Nam",
        "country_code": "VNM",
        "country_name": "Việt Nam",
        "city": "Hồ Chí Minh",
        "district": "Quận 1",
        "ward": "Phường Bến Nghé",
        "street": "Đường Đông Du",
        "postal_code": "71006",
        "categories": [
            {
                "name": "Hiệu bánh"
            },
            {
                "name": "Nhà hàng"
            }
        ]
    },
    {
        "name": "Sugar",
        "latitude": 10.77442,
        "longitude": 106.70386,
        "address": "Sugar, 100 Hẻm 71 Mạc Thị Bưởi, Phường Bến Nghé, Quận 1, Hồ Chí Minh, Việt Nam",
        "country_code": "VNM",
        "country_name": "Việt Nam",
        "city": "Hồ Chí Minh",
        "district": "Quận 1",
        "ward": "Phường Bến Nghé",
        "street": "Hẻm 71 Mạc Thị Bưởi",
        "postal_code": "71006",
        "categories": [
            {
                "name": "Hiệu bánh"
            },
            {
                "name": "Quán cà phê"
            },
            {
                "name": "Bar hoặc Quán rượu"
            }
        ]
    },
    {
        "name": "Làm Đẹp",
        "latitude": 10.77492,
        "longitude": 106.70068,
        "address": "Làm Đẹp, 67 Đường Pasteur, Phường Bến Nghé, Quận 1, Hồ Chí Minh, Việt Nam",
        "country_code": "VNM",
        "country_name": "Việt Nam",
        "city": "Hồ Chí Minh",
        "district": "Quận 1",
        "ward": "Phường Bến Nghé",
        "street": "Đường Pasteur",
        "postal_code": "71006",
        "categories": [
            {
                "name": "Hiệu bánh"
            },
            {
                "name": "Cắt tóc & Tạo mẫu"
            }
        ]
    },
    {
        "name": "Quán cà phê Lu Coffee",
        "latitude": 10.78103,
        "longitude": 106.70356,
        "address": "Quán cà phê Lu Coffee, Đường Lý Tự Trọng, Phường Bến Nghé, Quận 1, Hồ Chí Minh, Việt Nam",
        "country_code": "VNM",
        "country_name": "Việt Nam",
        "city": "Hồ Chí Minh",
        "district": "Quận 1",
        "ward": "Phường Bến Nghé",
        "street": "Đường Lý Tự Trọng",
        "postal_code": "71006",
        "categories": [
            {
                "name": "Hiệu bánh"
            },
            {
                "name": "Nhà hàng"
            }
        ]
    },
    {
        "name": "Tiệm Bánh Barcook",
        "latitude": 10.7741,
        "longitude": 106.70395,
        "address": "Tiệm Bánh Barcook, 54 Đường Nguyễn Huệ, Phường Bến Nghé, Quận 1, Hồ Chí Minh, Việt Nam",
        "country_code": "VNM",
        "country_name": "Việt Nam",
        "city": "Hồ Chí Minh",
        "district": "Quận 1",
        "ward": "Phường Bến Nghé",
        "street": "Đường Nguyễn Huệ",
        "postal_code": "71006",
        "categories": [
            {
                "name": "Hiệu bánh"
            },
            {
                "name": "Nhà hàng"
            }
        ]
    },
    {
        "name": "Tiệm Bánh Dosh",
        "latitude": 10.77402,
        "longitude": 106.70419,
        "address": "Tiệm Bánh Dosh, 42 Đường Nguyễn Huệ, Phường Bến Nghé, Quận 1, Hồ Chí Minh, Việt Nam",
        "country_code": "VNM",
        "country_name": "Việt Nam",
        "city": "Hồ Chí Minh",
        "district": "Quận 1",
        "ward": "Phường Bến Nghé",
        "street": "Đường Nguyễn Huệ",
        "postal_code": "71006",
        "categories": [
            {
                "name": "Hiệu bánh"
            },
            {
                "name": "Nhà hàng"
            },
            {
                "name": "Cửa hàng kẹo"
            }
        ]
    },
    {
        "name": "TATA Bakery",
        "latitude": 10.77426,
        "longitude": 106.70064,
        "address": "TATA Bakery, 36 Hẻm 36 Đường Lê Lợi, Phường Bến Nghé, Quận 1, Hồ Chí Minh, Việt Nam",
        "country_code": "VNM",
        "country_name": "Việt Nam",
        "city": "Hồ Chí Minh",
        "district": "Quận 1",
        "ward": "Phường Bến Nghé",
        "street": "Hẻm 36 Đường Lê Lợi",
        "postal_code": "71006",
        "categories": [
            {
                "name": "Hiệu bánh"
            },
            {
                "name": "Nhà hàng"
            }
        ]
    },
    {
        "name": "Uncle Lu's Cheesecake",
        "latitude": 10.77347,
        "longitude": 106.70325,
        "address": "Uncle Lu's Cheesecake, 25 Đường Huỳnh Thúc Kháng, Phường Bến Nghé, Quận 1, Hồ Chí Minh, Việt Nam",
        "country_code": "VNM",
        "country_name": "Việt Nam",
        "city": "Hồ Chí Minh",
        "district": "Quận 1",
        "ward": "Phường Bến Nghé",
        "street": "Đường Huỳnh Thúc Kháng",
        "postal_code": "71006",
        "categories": [
            {
                "name": "Hiệu bánh"
            },
            {
                "name": "Nhà hàng"
            },
            {
                "name": "Cửa hàng chuyên dụng"
            }
        ]
    },
    {
        "name": "Brodard Bakery - Nguyễn Huệ",
        "latitude": 10.77345,
        "longitude": 106.70398,
        "address": "Brodard Bakery - Nguyễn Huệ, 95 Đường Nguyễn Huệ, Phường Bến Nghé, Quận 1, Hồ Chí Minh, Việt Nam",
        "country_code": "VNM",
        "country_name": "Việt Nam",
        "city": "Hồ Chí Minh",
        "district": "Quận 1",
        "ward": "Phường Bến Nghé",
        "street": "Đường Nguyễn Huệ",
        "postal_code": "71006",
        "categories": [
            {
                "name": "Hiệu bánh"
            },
            {
                "name": "Cửa hàng chuyên dụng"
            }
        ]
    },
    {
        "name": "Les G À SG",
        "latitude": 10.77382,
        "longitude": 106.70062,
        "address": "Les G À SG, 44 Đường Lê Lợi, Phường Bến Nghé, Quận 1, Hồ Chí Minh, Việt Nam",
        "country_code": "VNM",
        "country_name": "Việt Nam",
        "city": "Hồ Chí Minh",
        "district": "Quận 1",
        "ward": "Phường Bến Nghé",
        "street": "Đường Lê Lợi",
        "postal_code": "71006",
        "categories": [
            {
                "name": "Hiệu bánh"
            },
            {
                "name": "Quán ăn bình dân"
            },
            {
                "name": "Hàng tiêu dùng"
            }
        ]
    },
    {
        "name": "Pan & Cake",
        "latitude": 10.77324,
        "longitude": 106.70326,
        "address": "Pan & Cake, 122 Hẻm 117 Đường Hồ Tùng Mậu, Phường Bến Nghé, Quận 1, Hồ Chí Minh, Việt Nam",
        "country_code": "VNM",
        "country_name": "Việt Nam",
        "city": "Hồ Chí Minh",
        "district": "Quận 1",
        "ward": "Phường Bến Nghé",
        "street": "Hẻm 117 Đường Hồ Tùng Mậu",
        "postal_code": "71006",
        "categories": [
            {
                "name": "Hiệu bánh"
            },
            {
                "name": "Nhà hàng"
            },
            {
                "name": "Quán cà phê"
            }
        ]
    },
    {
        "name": "Tour Les Jour Lê Thánh Tôn",
        "latitude": 10.78193,
        "longitude": 106.7022,
        "address": "Tour Les Jour Lê Thánh Tôn, Hẻm 8 Đường Lê Thánh Tôn, Phường Bến Nghé, Quận 1, Hồ Chí Minh, Việt Nam",
        "country_code": "VNM",
        "country_name": "Việt Nam",
        "city": "Hồ Chí Minh",
        "district": "Quận 1",
        "ward": "Phường Bến Nghé",
        "street": "Hẻm 8 Đường Lê Thánh Tôn",
        "postal_code": "71006",
        "categories": [
            {
                "name": "Hiệu bánh"
            },
            {
                "name": "Cà Phê/Trà"
            },
            {
                "name": "Quán cà phê"
            }
        ]
    },
    {
        "name": "Pacey Cupcake 3A Tôn Đức Thắn",
        "latitude": 10.77959,
        "longitude": 106.70702,
        "address": "Pacey Cupcake 3A Tôn Đức Thắn, 3A Đường Tôn Đức Thắng, Phường Bến Nghé, Quận 1, Hồ Chí Minh, Việt Nam",
        "country_code": "VNM",
        "country_name": "Việt Nam",
        "city": "Hồ Chí Minh",
        "district": "Quận 1",
        "ward": "Phường Bến Nghé",
        "street": "Đường Tôn Đức Thắng",
        "postal_code": "71006",
        "categories": [
            {
                "name": "Hiệu bánh"
            },
            {
                "name": "Quán cà phê"
            },
            {
                "name": "Phòng trà"
            }
        ]
    },
    {
        "name": "The Dreamers Dessert Bar Bakery",
        "latitude": 10.77878,
        "longitude": 106.69812,
        "address": "The Dreamers Dessert Bar Bakery, Đường Hàn Thuyên, Phường Bến Nghé, Quận 1, Hồ Chí Minh, Việt Nam",
        "country_code": "VNM",
        "country_name": "Việt Nam",
        "city": "Hồ Chí Minh",
        "district": "Quận 1",
        "ward": "Phường Bến Nghé",
        "street": "Đường Hàn Thuyên",
        "postal_code": "71006",
        "categories": [
            {
                "name": "Cửa hàng chuyên dụng"
            },
            {
                "name": "Nhà hàng"
            },
            {
                "name": "Cửa hàng món ngon"
            },
            {
                "name": "Quán cà phê"
            },
            {
                "name": "Bar hoặc Quán rượu"
            },
            {
                "name": "Hiệu bánh"
            }
        ]
    },
    {
        "name": "Star Kitchen",
        "latitude": 10.78208,
        "longitude": 106.70473,
        "address": "Star Kitchen, Đường Lý Tự Trọng, Phường Bến Nghé, Quận 1, Hồ Chí Minh, Việt Nam",
        "country_code": "VNM",
        "country_name": "Việt Nam",
        "city": "Hồ Chí Minh",
        "district": "Quận 1",
        "ward": "Phường Bến Nghé",
        "street": "Đường Lý Tự Trọng",
        "postal_code": "71006",
        "categories": [
            {
                "name": "Hiệu bánh"
            },
            {
                "name": "Nhà hàng"
            }
        ]
    },
    {
        "name": "Breadtalk",
        "latitude": 10.77331,
        "longitude": 106.70036,
        "address": "Breadtalk, 65 Đường Lê Lợi, Phường Bến Nghé, Quận 1, Hồ Chí Minh, Việt Nam",
        "country_code": "VNM",
        "country_name": "Việt Nam",
        "city": "Hồ Chí Minh",
        "district": "Quận 1",
        "ward": "Phường Bến Nghé",
        "street": "Đường Lê Lợi",
        "postal_code": "71006",
        "categories": [
            {
                "name": "Hiệu bánh"
            }
        ]
    },
    {
        "name": "Star Kitchen",
        "latitude": 10.77322,
        "longitude": 106.70045,
        "address": "Star Kitchen, Đường Lê Lợi, Phường Bến Nghé, Quận 1, Hồ Chí Minh, Việt Nam",
        "country_code": "VNM",
        "country_name": "Việt Nam",
        "city": "Hồ Chí Minh",
        "district": "Quận 1",
        "ward": "Phường Bến Nghé",
        "street": "Đường Lê Lợi",
        "postal_code": "71006",
        "categories": [
            {
                "name": "Hiệu bánh"
            },
            {
                "name": "Nhà hàng"
            }
        ]
    },
    {
        "name": "Bread Papas",
        "latitude": 10.7732,
        "longitude": 106.7004,
        "address": "Bread Papas, 92-94 Đường Nam Kỳ Khởi Nghĩa, Phường Bến Thành, Quận 1, Hồ Chí Minh, Việt Nam",
        "country_code": "VNM",
        "country_name": "Việt Nam",
        "city": "Hồ Chí Minh",
        "district": "Quận 1",
        "ward": "Phường Bến Thành",
        "street": "Đường Nam Kỳ Khởi Nghĩa",
        "postal_code": "71009",
        "categories": [
            {
                "name": "Hiệu bánh"
            },
            {
                "name": "Nhà hàng"
            }
        ]
    },
    {
        "name": "Chimney Cakes",
        "latitude": 10.7732,
        "longitude": 106.7004,
        "address": "Chimney Cakes, 92-94 Đường Nam Kỳ Khởi Nghĩa, Phường Bến Thành, Quận 1, Hồ Chí Minh, Việt Nam",
        "country_code": "VNM",
        "country_name": "Việt Nam",
        "city": "Hồ Chí Minh",
        "district": "Quận 1",
        "ward": "Phường Bến Thành",
        "street": "Đường Nam Kỳ Khởi Nghĩa",
        "postal_code": "71009",
        "categories": [
            {
                "name": "Hiệu bánh"
            }
        ]
    },
    {
        "name": "Le Petit Roland - Cafe & Bánh Pháp",
        "latitude": 10.7815,
        "longitude": 106.70602,
        "address": "Le Petit Roland - Cafe & Bánh Pháp, 1 Hẻm 28 Đường Ngô Văn Năm, Phường Bến Nghé, Quận 1, Hồ Chí Minh, Việt Nam",
        "country_code": "VNM",
        "country_name": "Việt Nam",
        "city": "Hồ Chí Minh",
        "district": "Quận 1",
        "ward": "Phường Bến Nghé",
        "street": "Hẻm 28 Đường Ngô Văn Năm",
        "postal_code": "71006",
        "categories": [
            {
                "name": "Hiệu bánh"
            },
            {
                "name": "Nhà hàng"
            },
            {
                "name": "Quán cà phê"
            }
        ]
    },
    {
        "name": "Art Cacao At Le Méridien Saigon",
        "latitude": 10.7801,
        "longitude": 106.70745,
        "address": "Art Cacao At Le Méridien Saigon, Đường Ngô Văn Năm, Phường Bến Nghé, Quận 1, Hồ Chí Minh, Việt Nam",
        "country_code": "VNM",
        "country_name": "Việt Nam",
        "city": "Hồ Chí Minh",
        "district": "Quận 1",
        "ward": "Phường Bến Nghé",
        "street": "Đường Ngô Văn Năm",
        "postal_code": "71006",
        "categories": [
            {
                "name": "Hiệu bánh"
            },
            {
                "name": "Nhà hàng"
            },
            {
                "name": "Cửa hàng món ngon"
            },
            {
                "name": "Quán ăn nhanh"
            },
            {
                "name": "Dịch vụ ăn uống và thực phẩm"
            },
            {
                "name": "Cơ sở hoặc địa điểm thể thao"
            }
        ]
    },
    {
        "name": "Bake Cheese Tart Ngô Đức Kế",
        "latitude": 10.77231,
        "longitude": 106.70432,
        "address": "Bake Cheese Tart Ngô Đức Kế, 68 Đường Ngô Đức Kế, Phường Bến Nghé, Quận 1, Hồ Chí Minh, Việt Nam",
        "country_code": "VNM",
        "country_name": "Việt Nam",
        "city": "Hồ Chí Minh",
        "district": "Quận 1",
        "ward": "Phường Bến Nghé",
        "street": "Đường Ngô Đức Kế",
        "postal_code": "71006",
        "categories": [
            {
                "name": "Hiệu bánh"
            },
            {
                "name": "Nhà hàng"
            },
            {
                "name": "Cửa hàng kẹo"
            },
            {
                "name": "Cửa hàng chuyên dụng"
            }
        ]
    },
    {
        "name": "Grand Castella - Bánh Bông Lan Đài Loan - Hồ Tùng Mậu",
        "latitude": 10.77203,
        "longitude": 106.70371,
        "address": "Grand Castella - Bánh Bông Lan Đài Loan - Hồ Tùng Mậu, 75-77 Đường Hồ Tùng Mậu, Phường Bến Nghé, Quận 1, Hồ Chí Minh, Việt Nam",
        "country_code": "VNM",
        "country_name": "Việt Nam",
        "city": "Hồ Chí Minh",
        "district": "Quận 1",
        "ward": "Phường Bến Nghé",
        "street": "Đường Hồ Tùng Mậu",
        "postal_code": "71006",
        "categories": [
            {
                "name": "Hiệu bánh"
            },
            {
                "name": "Nhà hàng"
            },
            {
                "name": "Quán ăn nhanh"
            },
            {
                "name": "Quán cà phê"
            },
            {
                "name": "Phòng trà"
            }
        ]
    },
    {
        "name": "Ryoyu Bakery",
        "latitude": 10.78263,
        "longitude": 106.70562,
        "address": "Ryoyu Bakery, 23C Đường Tôn Đức Thắng, Phường Bến Nghé, Quận 1, Hồ Chí Minh, Việt Nam",
        "country_code": "VNM",
        "country_name": "Việt Nam",
        "city": "Hồ Chí Minh",
        "district": "Quận 1",
        "ward": "Phường Bến Nghé",
        "street": "Đường Tôn Đức Thắng",
        "postal_code": "71006",
        "categories": [
            {
                "name": "Hiệu bánh"
            },
            {
                "name": "Nhà hàng"
            },
            {
                "name": "Quán ăn nhanh"
            },
            {
                "name": "Quán cà phê"
            }
        ]
    },
    {
        "name": "Tiệm Bánh Hòa Lợi",
        "latitude": 10.7729,
        "longitude": 106.69866,
        "address": "Tiệm Bánh Hòa Lợi, 47 Đường Lưu Văn Lang, Phường Bến Thành, Quận 1, Hồ Chí Minh, Việt Nam",
        "country_code": "VNM",
        "country_name": "Việt Nam",
        "city": "Hồ Chí Minh",
        "district": "Quận 1",
        "ward": "Phường Bến Thành",
        "street": "Đường Lưu Văn Lang",
        "postal_code": "71009",
        "categories": [
            {
                "name": "Cửa hàng chuyên dụng"
            },
            {
                "name": "Hiệu bánh"
            },
            {
                "name": "Hoa & Đồ trang sức"
            }
        ]
    },
    {
        "name": "Petite Cafe",
        "latitude": 10.77119,
        "longitude": 106.70293,
        "address": "Petite Cafe, Đường Hàm Nghi, Phường Bến Nghé, Quận 1, Hồ Chí Minh, Việt Nam",
        "country_code": "VNM",
        "country_name": "Việt Nam",
        "city": "Hồ Chí Minh",
        "district": "Quận 1",
        "ward": "Phường Bến Nghé",
        "street": "Đường Hàm Nghi",
        "postal_code": "71006",
        "categories": [
            {
                "name": "Hiệu bánh"
            }
        ]
    },
    {
        "name": "Cửa Hàng Dallas",
        "latitude": 10.77118,
        "longitude": 106.70308,
        "address": "Cửa Hàng Dallas, Đường Hàm Nghi, Phường Bến Nghé, Quận 1, Hồ Chí Minh, Việt Nam",
        "country_code": "VNM",
        "country_name": "Việt Nam",
        "city": "Hồ Chí Minh",
        "district": "Quận 1",
        "ward": "Phường Bến Nghé",
        "street": "Đường Hàm Nghi",
        "postal_code": "71006",
        "categories": [
            {
                "name": "Hiệu bánh"
            }
        ]
    },
    {
        "name": "Tiệm Bánh Givral Bakery",
        "latitude": 10.77113,
        "longitude": 106.70261,
        "address": "Tiệm Bánh Givral Bakery, 114 Đường Hàm Nghi, Phường Bến Nghé, Quận 1, Hồ Chí Minh, Việt Nam",
        "country_code": "VNM",
        "country_name": "Việt Nam",
        "city": "Hồ Chí Minh",
        "district": "Quận 1",
        "ward": "Phường Bến Nghé",
        "street": "Đường Hàm Nghi",
        "postal_code": "71006",
        "categories": [
            {
                "name": "Cửa hàng chuyên dụng"
            },
            {
                "name": "Hiệu bánh"
            }
        ]
    },
    {
        "name": "Sunrise Bakery - Nguyễn Trung Ngạn",
        "latitude": 10.78369,
        "longitude": 106.70524,
        "address": "Sunrise Bakery - Nguyễn Trung Ngạn, Đường Tôn Đức Thắng, Phường Bến Nghé, Quận 1, Hồ Chí Minh, Việt Nam",
        "country_code": "VNM",
        "country_name": "Việt Nam",
        "city": "Hồ Chí Minh",
        "district": "Quận 1",
        "ward": "Phường Bến Nghé",
        "street": "Đường Tôn Đức Thắng",
        "postal_code": "71006",
        "categories": [
            {
                "name": "Hiệu bánh"
            }
        ]
    },
    {
        "name": "Paris Baguette",
        "latitude": 10.7829,
        "longitude": 106.69848,
        "address": "Paris Baguette, Đường Nguyễn Thị Minh Khai, Phường Đa Kao, Quận 1, Hồ Chí Minh, Việt Nam",
        "country_code": "VNM",
        "country_name": "Việt Nam",
        "city": "Hồ Chí Minh",
        "district": "Quận 1",
        "ward": "Phường Đa Kao",
        "street": "Đường Nguyễn Thị Minh Khai",
        "postal_code": "71007",
        "categories": [
            {
                "name": "Hiệu bánh"
            },
            {
                "name": "Cửa hàng chuyên dụng"
            }
        ]
    },
    {
        "name": "Tiệm Bánh Patachou",
        "latitude": 10.78266,
        "longitude": 106.69816,
        "address": "Tiệm Bánh Patachou, 135 Đường Hai Bà Trưng, Phường Bến Nghé, Quận 1, Hồ Chí Minh, Việt Nam",
        "country_code": "VNM",
        "country_name": "Việt Nam",
        "city": "Hồ Chí Minh",
        "district": "Quận 1",
        "ward": "Phường Bến Nghé",
        "street": "Đường Hai Bà Trưng",
        "postal_code": "71006",
        "categories": [
            {
                "name": "Hiệu bánh"
            }
        ]
    },
    {
        "name": "Satra Bakery & Cafe Phan Chu Trinh",
        "latitude": 10.77201,
        "longitude": 106.69764,
        "address": "Satra Bakery & Cafe Phan Chu Trinh, 15 Đường Phan Chu Trinh, Phường Bến Thành, Quận 1, Hồ Chí Minh, Việt Nam",
        "country_code": "VNM",
        "country_name": "Việt Nam",
        "city": "Hồ Chí Minh",
        "district": "Quận 1",
        "ward": "Phường Bến Thành",
        "street": "Đường Phan Chu Trinh",
        "postal_code": "71009",
        "categories": [
            {
                "name": "Hiệu bánh"
            },
            {
                "name": "Nhà hàng"
            },
            {
                "name": "Quán cà phê"
            },
            {
                "name": "Dịch vụ B2B"
            }
        ]
    },
    {
        "name": "Kinh Đô Bakery",
        "latitude": 10.78352,
        "longitude": 106.69761,
        "address": "Kinh Đô Bakery, 128A Đường Hai Bà Trưng, Phường Đa Kao, Quận 1, Hồ Chí Minh, Việt Nam",
        "country_code": "VNM",
        "country_name": "Việt Nam",
        "city": "Hồ Chí Minh",
        "district": "Quận 1",
        "ward": "Phường Đa Kao",
        "street": "Đường Hai Bà Trưng",
        "postal_code": "71007",
        "categories": [
            {
                "name": "Cửa hàng chuyên dụng"
            },
            {
                "name": "Nhà hàng"
            },
            {
                "name": "Hiệu bánh"
            }
        ]
    },
    {
        "name": "Tiệm Bánh Jsdonut",
        "latitude": 10.78472,
        "longitude": 106.69951,
        "address": "Tiệm Bánh Jsdonut, 19 Đường Mạc Đĩnh Chi, Phường Đa Kao, Quận 1, Hồ Chí Minh, Việt Nam",
        "country_code": "VNM",
        "country_name": "Việt Nam",
        "city": "Hồ Chí Minh",
        "district": "Quận 1",
        "ward": "Phường Đa Kao",
        "street": "Đường Mạc Đĩnh Chi",
        "postal_code": "71007",
        "categories": [
            {
                "name": "Hiệu bánh"
            },
            {
                "name": "Nhà hàng"
            }
        ]
    },
    {
        "name": "Une Journée À Paris Cafe",
        "latitude": 10.77248,
        "longitude": 106.69674,
        "address": "Une Journée À Paris Cafe, Đường Lê Thánh Tôn, Phường Bến Thành, Quận 1, Hồ Chí Minh, Việt Nam",
        "country_code": "VNM",
        "country_name": "Việt Nam",
        "city": "Hồ Chí Minh",
        "district": "Quận 1",
        "ward": "Phường Bến Thành",
        "street": "Đường Lê Thánh Tôn",
        "postal_code": "71009",
        "categories": [
            {
                "name": "Hiệu bánh"
            },
            {
                "name": "Nhà hàng"
            },
            {
                "name": "Cà Phê/Trà"
            },
            {
                "name": "Cửa hàng chuyên dụng"
            }
        ]
    },
    {
        "name": "Breadtalk 106 Nguyễn Thị Minh Khai - Q3",
        "latitude": 10.77983,
        "longitude": 106.69511,
        "address": "Breadtalk 106 Nguyễn Thị Minh Khai - Q3, 106 Đường Nguyễn Thị Minh Khai, Phường Võ Thị Sáu, Quận 3, Hồ Chí Minh, Việt Nam",
        "country_code": "VNM",
        "country_name": "Việt Nam",
        "city": "Hồ Chí Minh",
        "district": "Quận 3",
        "ward": "Phường Võ Thị Sáu",
        "street": "Đường Nguyễn Thị Minh Khai",
        "postal_code": "72415",
        "categories": [
            {
                "name": "Hiệu bánh"
            }
        ]
    },
    {
        "name": "Clover Cafe & Crepes",
        "latitude": 10.78515,
        "longitude": 106.70035,
        "address": "Clover Cafe & Crepes, Đường Nguyễn Thị Minh Khai, Phường Đa Kao, Quận 1, Hồ Chí Minh, Việt Nam",
        "country_code": "VNM",
        "country_name": "Việt Nam",
        "city": "Hồ Chí Minh",
        "district": "Quận 1",
        "ward": "Phường Đa Kao",
        "street": "Đường Nguyễn Thị Minh Khai",
        "postal_code": "71007",
        "categories": [
            {
                "name": "Quán cà phê"
            },
            {
                "name": "Quán ăn bình dân"
            },
            {
                "name": "Cà Phê/Trà"
            },
            {
                "name": "Hiệu bánh"
            }
        ]
    },
    {
        "name": "Tươi & Ngon",
        "latitude": 10.78556,
        "longitude": 106.70063,
        "address": "Tươi & Ngon, 15L Đường Nguyễn Thị Minh Khai, Phường Đa Kao, Quận 1, Hồ Chí Minh, Việt Nam",
        "country_code": "VNM",
        "country_name": "Việt Nam",
        "city": "Hồ Chí Minh",
        "district": "Quận 1",
        "ward": "Phường Đa Kao",
        "street": "Đường Nguyễn Thị Minh Khai",
        "postal_code": "71007",
        "categories": [
            {
                "name": "Hiệu bánh"
            },
            {
                "name": "Cửa hàng tiện lợi"
            },
            {
                "name": "Đặc sản & Đồ uống"
            },
            {
                "name": "Cửa hàng thịt"
            }
        ]
    },
    {
        "name": "Tiệm Bánh Ngọc Sáng",
        "latitude": 10.77298,
        "longitude": 106.69581,
        "address": "Tiệm Bánh Ngọc Sáng, 199 Hẻm 176 Đường Lý Tự Trọng, Phường Bến Thành, Quận 1, Hồ Chí Minh, Việt Nam",
        "country_code": "VNM",
        "country_name": "Việt Nam",
        "city": "Hồ Chí Minh",
        "district": "Quận 1",
        "ward": "Phường Bến Thành",
        "street": "Hẻm 176 Đường Lý Tự Trọng",
        "postal_code": "71009",
        "categories": [
            {
                "name": "Cửa hàng chuyên dụng"
            },
            {
                "name": "Hiệu bánh"
            }
        ]
    },
    {
        "name": "Bánh Mì Hồng Liên",
        "latitude": 10.78567,
        "longitude": 106.70075,
        "address": "Bánh Mì Hồng Liên, 18A1 Hẻm 18A Nguyễn Thị Minh Khai, Phường Đa Kao, Quận 1, Hồ Chí Minh, Việt Nam",
        "country_code": "VNM",
        "country_name": "Việt Nam",
        "city": "Hồ Chí Minh",
        "district": "Quận 1",
        "ward": "Phường Đa Kao",
        "street": "Hẻm 18A Nguyễn Thị Minh Khai",
        "postal_code": "71007",
        "categories": [
            {
                "name": "Cửa hàng chuyên dụng"
            },
            {
                "name": "Cà Phê/Trà"
            },
            {
                "name": "Quán cà phê"
            },
            {
                "name": "Hiệu bánh"
            }
        ]
    },
    {
        "name": "Bánh Mì Hồng Liên",
        "latitude": 10.78577,
        "longitude": 106.70069,
        "address": "Bánh Mì Hồng Liên, Đường Nguyễn Thị Minh Khai, Phường Đa Kao, Quận 1, Hồ Chí Minh, Việt Nam",
        "country_code": "VNM",
        "country_name": "Việt Nam",
        "city": "Hồ Chí Minh",
        "district": "Quận 1",
        "ward": "Phường Đa Kao",
        "street": "Đường Nguyễn Thị Minh Khai",
        "postal_code": "71007",
        "categories": [
            {
                "name": "Hiệu bánh"
            }
        ]
    },
    {
        "name": "Mì Quảng Cơm Gà",
        "latitude": 10.78589,
        "longitude": 106.70105,
        "address": "Mì Quảng Cơm Gà, Đường Nguyễn Thị Minh Khai, Phường Đa Kao, Quận 1, Hồ Chí Minh, Việt Nam",
        "country_code": "VNM",
        "country_name": "Việt Nam",
        "city": "Hồ Chí Minh",
        "district": "Quận 1",
        "ward": "Phường Đa Kao",
        "street": "Đường Nguyễn Thị Minh Khai",
        "postal_code": "71007",
        "categories": [
            {
                "name": "Hiệu bánh"
            },
            {
                "name": "Nhà hàng"
            },
            {
                "name": "Quán ăn bình dân"
            },
            {
                "name": "Đặc sản & Đồ uống"
            },
            {
                "name": "Siêu thị"
            },
            {
                "name": "Cửa hàng chuyên dụng"
            }
        ]
    },
    {
        "name": "Crumbs Bakery",
        "latitude": 10.77244,
        "longitude": 106.69575,
        "address": "Crumbs Bakery, 54 Đường Trương Định, Phường Bến Thành, Quận 1, Hồ Chí Minh, Việt Nam",
        "country_code": "VNM",
        "country_name": "Việt Nam",
        "city": "Hồ Chí Minh",
        "district": "Quận 1",
        "ward": "Phường Bến Thành",
        "street": "Đường Trương Định",
        "postal_code": "71009",
        "categories": [
            {
                "name": "Hiệu bánh"
            },
            {
                "name": "Nhà hàng"
            }
        ]
    },
    {
        "name": "Bánh Kem Lạnh We Make People Happy",
        "latitude": 10.77126,
        "longitude": 106.69641,
        "address": "Bánh Kem Lạnh We Make People Happy, Đường Phạm Hồng Thái, Phường Bến Thành, Quận 1, Hồ Chí Minh, Việt Nam",
        "country_code": "VNM",
        "country_name": "Việt Nam",
        "city": "Hồ Chí Minh",
        "district": "Quận 1",
        "ward": "Phường Bến Thành",
        "street": "Đường Phạm Hồng Thái",
        "postal_code": "71009",
        "categories": [
            {
                "name": "Hiệu bánh"
            }
        ]
    },
    {
        "name": "Bánh Mì Hà Nội Bảo Thy",
        "latitude": 10.76896,
        "longitude": 106.69951,
        "address": "Bánh Mì Hà Nội Bảo Thy, Đường Nguyễn Thái Bình, Phường Nguyễn Thái Bình, Quận 1, Hồ Chí Minh, Việt Nam",
        "country_code": "VNM",
        "country_name": "Việt Nam",
        "city": "Hồ Chí Minh",
        "district": "Quận 1",
        "ward": "Phường Nguyễn Thái Bình",
        "street": "Đường Nguyễn Thái Bình",
        "postal_code": "71010",
        "categories": [
            {
                "name": "Hiệu bánh"
            }
        ]
    },
    {
        "name": "Cơm Bình Dân 18A",
        "latitude": 10.78626,
        "longitude": 106.69963,
        "address": "Cơm Bình Dân 18A, 18A Đường Nguyễn Thị Minh Khai, Phường Đa Kao, Quận 1, Hồ Chí Minh, Việt Nam",
        "country_code": "VNM",
        "country_name": "Việt Nam",
        "city": "Hồ Chí Minh",
        "district": "Quận 1",
        "ward": "Phường Đa Kao",
        "street": "Đường Nguyễn Thị Minh Khai",
        "postal_code": "71007",
        "categories": [
            {
                "name": "Hiệu bánh"
            },
            {
                "name": "Nhà hàng"
            }
        ]
    },
    {
        "name": "Nữ Hoàng Bánh Mì",
        "latitude": 10.76877,
        "longitude": 106.69944,
        "address": "Nữ Hoàng Bánh Mì, 109 Đường Nguyễn Thái Bình, Phường Nguyễn Thái Bình, Quận 1, Hồ Chí Minh, Việt Nam",
        "country_code": "VNM",
        "country_name": "Việt Nam",
        "city": "Hồ Chí Minh",
        "district": "Quận 1",
        "ward": "Phường Nguyễn Thái Bình",
        "street": "Đường Nguyễn Thái Bình",
        "postal_code": "71010",
        "categories": [
            {
                "name": "Cửa hàng chuyên dụng"
            },
            {
                "name": "Nhà hàng"
            },
            {
                "name": "Chợ/Gian hàng ẩm thực"
            },
            {
                "name": "Hiệu bánh"
            }
        ]
    },
    {
        "name": "I Cake You",
        "latitude": 10.7691,
        "longitude": 106.69832,
        "address": "I Cake You, 141-143 Đường Calmette, Phường Nguyễn Thái Bình, Quận 1, Hồ Chí Minh, Việt Nam",
        "country_code": "VNM",
        "country_name": "Việt Nam",
        "city": "Hồ Chí Minh",
        "district": "Quận 1",
        "ward": "Phường Nguyễn Thái Bình",
        "street": "Đường Calmette",
        "postal_code": "71010",
        "categories": [
            {
                "name": "Hiệu bánh"
            },
            {
                "name": "Quán cà phê"
            }
        ]
    },
    {
        "name": "Shop Taylor Ralan",
        "latitude": 10.77236,
        "longitude": 106.69418,
        "address": "Shop Taylor Ralan, 5 Đường Đặng Trần Côn, Phường Bến Thành, Quận 1, Hồ Chí Minh, Việt Nam",
        "country_code": "VNM",
        "country_name": "Việt Nam",
        "city": "Hồ Chí Minh",
        "district": "Quận 1",
        "ward": "Phường Bến Thành",
        "street": "Đường Đặng Trần Côn",
        "postal_code": "71009",
        "categories": [
            {
                "name": "May mặc & Sửa đồ may mặc"
            },
            {
                "name": "Hiệu bánh"
            }
        ]
    },
    {
        "name": "Tour Les Jours Café",
        "latitude": 10.76922,
        "longitude": 106.69659,
        "address": "Tour Les Jours Café, 59 Đường Trần Hưng Đạo, Phường Nguyễn Thái Bình, Quận 1, Hồ Chí Minh, Việt Nam",
        "country_code": "VNM",
        "country_name": "Việt Nam",
        "city": "Hồ Chí Minh",
        "district": "Quận 1",
        "ward": "Phường Nguyễn Thái Bình",
        "street": "Đường Trần Hưng Đạo",
        "postal_code": "71010",
        "categories": [
            {
                "name": "Hiệu bánh"
            },
            {
                "name": "Quán cà phê"
            },
            {
                "name": "Cửa hàng chuyên dụng"
            }
        ]
    },
    {
        "name": "Pan & Cake",
        "latitude": 10.7675,
        "longitude": 106.7,
        "address": "Pan & Cake, 258 Hẻm 235 Nguyễn Công Trứ, Phường Nguyễn Thái Bình, Quận 1, Hồ Chí Minh, Việt Nam",
        "country_code": "VNM",
        "country_name": "Việt Nam",
        "city": "Hồ Chí Minh",
        "district": "Quận 1",
        "ward": "Phường Nguyễn Thái Bình",
        "street": "Hẻm 235 Nguyễn Công Trứ",
        "postal_code": "71010",
        "categories": [
            {
                "name": "Hiệu bánh"
            }
        ]
    },
    {
        "name": "Cô Nguyệt",
        "latitude": 10.7883,
        "longitude": 106.70317,
        "address": "Cô Nguyệt, 70000 Hẻm 12 Nguyễn Thị Minh Khai, Phường Đa Kao, Quận 1, Hồ Chí Minh, Việt Nam",
        "country_code": "VNM",
        "country_name": "Việt Nam",
        "city": "Hồ Chí Minh",
        "district": "Quận 1",
        "ward": "Phường Đa Kao",
        "street": "Hẻm 12 Nguyễn Thị Minh Khai",
        "postal_code": "71007",
        "categories": [
            {
                "name": "Hiệu bánh"
            },
            {
                "name": "Doanh nghiệp"
            }
        ]
    },
    {
        "name": "Món Ngon Hà Nội",
        "latitude": 10.7883,
        "longitude": 106.70317,
        "address": "Món Ngon Hà Nội, 70000 Hẻm 12 Nguyễn Thị Minh Khai, Phường Đa Kao, Quận 1, Hồ Chí Minh, Việt Nam",
        "country_code": "VNM",
        "country_name": "Việt Nam",
        "city": "Hồ Chí Minh",
        "district": "Quận 1",
        "ward": "Phường Đa Kao",
        "street": "Hẻm 12 Nguyễn Thị Minh Khai",
        "postal_code": "71007",
        "categories": [
            {
                "name": "Đặc sản & Đồ uống"
            },
            {
                "name": "Hiệu bánh"
            }
        ]
    },
    {
        "name": "Chewy Junior Nguyễn Đình Chiểu",
        "latitude": 10.78839,
        "longitude": 106.6994,
        "address": "Chewy Junior Nguyễn Đình Chiểu, 64 Đường Nguyễn Đình Chiểu, Phường Đa Kao, Quận 1, Hồ Chí Minh, Việt Nam",
        "country_code": "VNM",
        "country_name": "Việt Nam",
        "city": "Hồ Chí Minh",
        "district": "Quận 1",
        "ward": "Phường Đa Kao",
        "street": "Đường Nguyễn Đình Chiểu",
        "postal_code": "71007",
        "categories": [
            {
                "name": "Nhà hàng"
            },
            {
                "name": "Cà Phê/Trà"
            },
            {
                "name": "Quán cà phê"
            },
            {
                "name": "Hiệu bánh"
            }
        ]
    },
    {
        "name": "Bánh Mì Ăn Là Ghiền",
        "latitude": 10.77141,
        "longitude": 106.69281,
        "address": "Bánh Mì Ăn Là Ghiền, 10 Đường Lê Thị Riêng, Phường Bến Thành, Quận 1, Hồ Chí Minh, Việt Nam",
        "country_code": "VNM",
        "country_name": "Việt Nam",
        "city": "Hồ Chí Minh",
        "district": "Quận 1",
        "ward": "Phường Bến Thành",
        "street": "Đường Lê Thị Riêng",
        "postal_code": "71009",
        "categories": [
            {
                "name": "Quán cà phê"
            },
            {
                "name": "Chợ/Gian hàng ẩm thực"
            },
            {
                "name": "Hiệu bánh"
            }
        ]
    },
    {
        "name": "Bready Bánh Mì Tươi",
        "latitude": 10.78746,
        "longitude": 106.69659,
        "address": "Bready Bánh Mì Tươi, 62 Đường Mạc Đĩnh Chi, Phường Đa Kao, Quận 1, Hồ Chí Minh, Việt Nam",
        "country_code": "VNM",
        "country_name": "Việt Nam",
        "city": "Hồ Chí Minh",
        "district": "Quận 1",
        "ward": "Phường Đa Kao",
        "street": "Đường Mạc Đĩnh Chi",
        "postal_code": "71007",
        "categories": [
            {
                "name": "Cửa hàng chuyên dụng"
            },
            {
                "name": "Nhà hàng"
            },
            {
                "name": "Quán ăn bình dân"
            },
            {
                "name": "Đặc sản & Đồ uống"
            },
            {
                "name": "Hiệu bánh"
            }
        ]
    },
    {
        "name": "Burger Đĩa Bay",
        "latitude": 10.78752,
        "longitude": 106.69667,
        "address": "Burger Đĩa Bay, Đường Nguyễn Văn Thủ, Phường Đa Kao, Quận 1, Hồ Chí Minh, Việt Nam",
        "country_code": "VNM",
        "country_name": "Việt Nam",
        "city": "Hồ Chí Minh",
        "district": "Quận 1",
        "ward": "Phường Đa Kao",
        "street": "Đường Nguyễn Văn Thủ",
        "postal_code": "71007",
        "categories": [
            {
                "name": "Hiệu bánh"
            }
        ]
    },
    {
        "name": "Tous Les Jours",
        "latitude": 10.78873,
        "longitude": 106.69943,
        "address": "Tous Les Jours, Đường Đinh Tiên Hoàng, Phường Đa Kao, Quận 1, Hồ Chí Minh, Việt Nam",
        "country_code": "VNM",
        "country_name": "Việt Nam",
        "city": "Hồ Chí Minh",
        "district": "Quận 1",
        "ward": "Phường Đa Kao",
        "street": "Đường Đinh Tiên Hoàng",
        "postal_code": "71007",
        "categories": [
            {
                "name": "Hiệu bánh"
            },
            {
                "name": "Nhà hàng"
            }
        ]
    },
    {
        "name": "Tous Les Jours",
        "latitude": 10.78615,
        "longitude": 106.69428,
        "address": "Tous Les Jours, 180 Đường Hai Bà Trưng, Phường Đa Kao, Quận 1, Hồ Chí Minh, Việt Nam",
        "country_code": "VNM",
        "country_name": "Việt Nam",
        "city": "Hồ Chí Minh",
        "district": "Quận 1",
        "ward": "Phường Đa Kao",
        "street": "Đường Hai Bà Trưng",
        "postal_code": "71007",
        "categories": [
            {
                "name": "Nhà hàng"
            },
            {
                "name": "Quán cà phê"
            },
            {
                "name": "Hiệu bánh"
            },
            {
                "name": "Cửa hàng chuyên dụng"
            }
        ]
    },
    {
        "name": "Bread More Bánh Mì Hội An",
        "latitude": 10.76821,
        "longitude": 106.69504,
        "address": "Bread More Bánh Mì Hội An, 169 Đường Nguyễn Thái Học, Phường Phạm Ngũ Lão, Quận 1, Hồ Chí Minh, Việt Nam",
        "country_code": "VNM",
        "country_name": "Việt Nam",
        "city": "Hồ Chí Minh",
        "district": "Quận 1",
        "ward": "Phường Phạm Ngũ Lão",
        "street": "Đường Nguyễn Thái Học",
        "postal_code": "71012",
        "categories": [
            {
                "name": "Hiệu bánh"
            },
            {
                "name": "Nhà hàng"
            },
            {
                "name": "Quán ăn nhanh"
            }
        ]
    },
    {
        "name": "Cửa Hàng Bánh Kinh Đô",
        "latitude": 10.78649,
        "longitude": 106.69391,
        "address": "Cửa Hàng Bánh Kinh Đô, 196 Đường Hai Bà Trưng, Phường Đa Kao, Quận 1, Hồ Chí Minh, Việt Nam",
        "country_code": "VNM",
        "country_name": "Việt Nam",
        "city": "Hồ Chí Minh",
        "district": "Quận 1",
        "ward": "Phường Đa Kao",
        "street": "Đường Hai Bà Trưng",
        "postal_code": "71007",
        "categories": [
            {
                "name": "Hiệu bánh"
            },
            {
                "name": "Nhà hàng"
            }
        ]
    },
    {
        "name": "Tai Thong Mooncake",
        "latitude": 10.78963,
        "longitude": 106.69937,
        "address": "Tai Thong Mooncake, 9 Đường Phan Kế Bính, Phường Đa Kao, Quận 1, Hồ Chí Minh, Việt Nam",
        "country_code": "VNM",
        "country_name": "Việt Nam",
        "city": "Hồ Chí Minh",
        "district": "Quận 1",
        "ward": "Phường Đa Kao",
        "street": "Đường Phan Kế Bính",
        "postal_code": "71007",
        "categories": [
            {
                "name": "Hiệu bánh"
            },
            {
                "name": "Dịch vụ thương mại nhà hàng"
            }
        ]
    },
    {
        "name": "Bready Bánh Mì Tươi",
        "latitude": 10.77611,
        "longitude": 106.69015,
        "address": "Bready Bánh Mì Tươi, 99 Đường Võ Văn Tần, Phường Võ Thị Sáu, Quận 3, Hồ Chí Minh, Việt Nam",
        "country_code": "VNM",
        "country_name": "Việt Nam",
        "city": "Hồ Chí Minh",
        "district": "Quận 3",
        "ward": "Phường Võ Thị Sáu",
        "street": "Đường Võ Văn Tần",
        "postal_code": "72415",
        "categories": [
            {
                "name": "Hiệu bánh"
            },
            {
                "name": "Nhà hàng"
            }
        ]
    },
    {
        "name": "Sành Điệu Cafe",
        "latitude": 10.7726,
        "longitude": 106.69101,
        "address": "Sành Điệu Cafe, 2 Đường Bùi Thị Xuân, Phường Bến Thành, Quận 1, Hồ Chí Minh, Việt Nam",
        "country_code": "VNM",
        "country_name": "Việt Nam",
        "city": "Hồ Chí Minh",
        "district": "Quận 1",
        "ward": "Phường Bến Thành",
        "street": "Đường Bùi Thị Xuân",
        "postal_code": "71009",
        "categories": [
            {
                "name": "Hiệu bánh"
            },
            {
                "name": "Quán cà phê"
            },
            {
                "name": "Quán karaoke"
            },
            {
                "name": "Quán cà phê internet"
            }
        ]
    },
    {
        "name": "Cửa Hàng Bánh Kinh Đô",
        "latitude": 10.76659,
        "longitude": 106.69633,
        "address": "Cửa Hàng Bánh Kinh Đô, 84 Đường Nguyễn Thái Học, Phường Cầu Ông Lãnh, Quận 1, Hồ Chí Minh, Việt Nam",
        "country_code": "VNM",
        "country_name": "Việt Nam",
        "city": "Hồ Chí Minh",
        "district": "Quận 1",
        "ward": "Phường Cầu Ông Lãnh",
        "street": "Đường Nguyễn Thái Học",
        "postal_code": "71011",
        "categories": [
            {
                "name": "Hiệu bánh"
            },
            {
                "name": "Nhà hàng"
            }
        ]
    },
    {
        "name": "Tiệm Bánh K-do",
        "latitude": 10.78655,
        "longitude": 106.69341,
        "address": "Tiệm Bánh K-do, 205-207 Đường Hai Bà Trưng, Phường Võ Thị Sáu, Quận 3, Hồ Chí Minh, Việt Nam",
        "country_code": "VNM",
        "country_name": "Việt Nam",
        "city": "Hồ Chí Minh",
        "district": "Quận 3",
        "ward": "Phường Võ Thị Sáu",
        "street": "Đường Hai Bà Trưng",
        "postal_code": "72415",
        "categories": [
            {
                "name": "Hiệu bánh"
            },
            {
                "name": "Nhà hàng"
            }
        ]
    },
    {
        "name": "Breadaholics",
        "latitude": 10.77439,
        "longitude": 106.69006,
        "address": "Breadaholics, 224 Đường Nguyễn Thị Minh Khai, Phường Võ Thị Sáu, Quận 3, Hồ Chí Minh, Việt Nam",
        "country_code": "VNM",
        "country_name": "Việt Nam",
        "city": "Hồ Chí Minh",
        "district": "Quận 3",
        "ward": "Phường Võ Thị Sáu",
        "street": "Đường Nguyễn Thị Minh Khai",
        "postal_code": "72415",
        "categories": [
            {
                "name": "Hiệu bánh"
            },
            {
                "name": "Cắt tóc & Tạo mẫu"
            }
        ]
    },
    {
        "name": "Cửa Hàng Bánh Á Châu",
        "latitude": 10.77302,
        "longitude": 106.69047,
        "address": "Cửa Hàng Bánh Á Châu, 91B Đường Cách Mạng Tháng 8, Phường Bến Thành, Quận 1, Hồ Chí Minh, Việt Nam",
        "country_code": "VNM",
        "country_name": "Việt Nam",
        "city": "Hồ Chí Minh",
        "district": "Quận 1",
        "ward": "Phường Bến Thành",
        "street": "Đường Cách Mạng Tháng 8",
        "postal_code": "71009",
        "categories": [
            {
                "name": "Hiệu bánh"
            },
            {
                "name": "Nhà hàng"
            }
        ]
    },
    {
        "name": "Burger Đĩa Bay",
        "latitude": 10.79003,
        "longitude": 106.69904,
        "address": "Burger Đĩa Bay, 62 Hẻm 76/1 Đường Nguyễn Văn Thủ, Phường Đa Kao, Quận 1, Hồ Chí Minh, Việt Nam",
        "country_code": "VNM",
        "country_name": "Việt Nam",
        "city": "Hồ Chí Minh",
        "district": "Quận 1",
        "ward": "Phường Đa Kao",
        "street": "Hẻm 76/1 Đường Nguyễn Văn Thủ",
        "postal_code": "71007",
        "categories": [
            {
                "name": "Hiệu bánh"
            }
        ]
    },
    {
        "name": "Amore Bakery",
        "latitude": 10.76509,
        "longitude": 106.70648,
        "address": "Amore Bakery, Đường Hoàng Diệu, Phường 13, Quận 4, Hồ Chí Minh, Việt Nam",
        "country_code": "VNM",
        "country_name": "Việt Nam",
        "city": "Hồ Chí Minh",
        "district": "Quận 4",
        "ward": "Phường 13",
        "street": "Đường Hoàng Diệu",
        "postal_code": "72820",
        "categories": [
            {
                "name": "Hiệu bánh"
            }
        ]
    },
    {
        "name": "Chè",
        "latitude": 10.76741,
        "longitude": 106.6945,
        "address": "Chè, 34 Đường Trần Hưng Đạo, Phường Phạm Ngũ Lão, Quận 1, Hồ Chí Minh, Việt Nam",
        "country_code": "VNM",
        "country_name": "Việt Nam",
        "city": "Hồ Chí Minh",
        "district": "Quận 1",
        "ward": "Phường Phạm Ngũ Lão",
        "street": "Đường Trần Hưng Đạo",
        "postal_code": "71012",
        "categories": [
            {
                "name": "Hiệu bánh"
            },
            {
                "name": "Nhà hàng"
            }
        ]
    },
    {
        "name": "Monsieur Takano",
        "latitude": 10.78883,
        "longitude": 106.7098,
        "address": "Monsieur Takano, Đường Nguyễn Hữu Cảnh, Phường 19, Quận Bình Thạnh, Hồ Chí Minh, Việt Nam",
        "country_code": "VNM",
        "country_name": "Việt Nam",
        "city": "Hồ Chí Minh",
        "district": "Quận Bình Thạnh",
        "ward": "Phường 19",
        "street": "Đường Nguyễn Hữu Cảnh",
        "postal_code": "72323",
        "categories": [
            {
                "name": "Hiệu bánh"
            }
        ]
    },
    {
        "name": "Bánh Xèo Miền Trung",
        "latitude": 10.76495,
        "longitude": 106.70696,
        "address": "Bánh Xèo Miền Trung, 9 Đường Hoàng Diệu, Phường 13, Quận 4, Hồ Chí Minh, Việt Nam",
        "country_code": "VNM",
        "country_name": "Việt Nam",
        "city": "Hồ Chí Minh",
        "district": "Quận 4",
        "ward": "Phường 13",
        "street": "Đường Hoàng Diệu",
        "postal_code": "72820",
        "categories": [
            {
                "name": "Hiệu bánh"
            },
            {
                "name": "Nhà hàng"
            }
        ]
    },
    {
        "name": "CH Bánh Chewy Junior",
        "latitude": 10.76706,
        "longitude": 106.6945,
        "address": "CH Bánh Chewy Junior, 34 Đường Trần Hưng Đạo, Phường Cầu Ông Lãnh, Quận 1, Hồ Chí Minh, Việt Nam",
        "country_code": "VNM",
        "country_name": "Việt Nam",
        "city": "Hồ Chí Minh",
        "district": "Quận 1",
        "ward": "Phường Cầu Ông Lãnh",
        "street": "Đường Trần Hưng Đạo",
        "postal_code": "71011",
        "categories": [
            {
                "name": "Quán cà phê"
            },
            {
                "name": "Chợ/Gian hàng ẩm thực"
            },
            {
                "name": "Quán ăn nhanh"
            },
            {
                "name": "Hiệu bánh"
            },
            {
                "name": "Cửa hàng chuyên dụng"
            }
        ]
    },
    {
        "name": "Palais Des Douceurs",
        "latitude": 10.77001,
        "longitude": 106.69151,
        "address": "Palais Des Douceurs, 87 Đường Nguyễn Trãi, Phường Bến Thành, Quận 1, Hồ Chí Minh, Việt Nam",
        "country_code": "VNM",
        "country_name": "Việt Nam",
        "city": "Hồ Chí Minh",
        "district": "Quận 1",
        "ward": "Phường Bến Thành",
        "street": "Đường Nguyễn Trãi",
        "postal_code": "71009",
        "categories": [
            {
                "name": "Quán cà phê"
            },
            {
                "name": "Cà Phê/Trà"
            },
            {
                "name": "Hiệu bánh"
            }
        ]
    },
    {
        "name": "ABC Phạm Ngũ Lão",
        "latitude": 10.76838,
        "longitude": 106.6927,
        "address": "ABC Phạm Ngũ Lão, 223 Đường Phạm Ngũ Lão, Phường Phạm Ngũ Lão, Quận 1, Hồ Chí Minh, Việt Nam",
        "country_code": "VNM",
        "country_name": "Việt Nam",
        "city": "Hồ Chí Minh",
        "district": "Quận 1",
        "ward": "Phường Phạm Ngũ Lão",
        "street": "Đường Phạm Ngũ Lão",
        "postal_code": "71012",
        "categories": [
            {
                "name": "Hiệu bánh"
            }
        ]
    },
    {
        "name": "Sài Gòn Givral Bakery - Trần Hưng Đạo",
        "latitude": 10.76689,
        "longitude": 106.69423,
        "address": "Sài Gòn Givral Bakery - Trần Hưng Đạo, 40 Đường Trần Hưng Đạo, Phường Phạm Ngũ Lão, Quận 1, Hồ Chí Minh, Việt Nam",
        "country_code": "VNM",
        "country_name": "Việt Nam",
        "city": "Hồ Chí Minh",
        "district": "Quận 1",
        "ward": "Phường Phạm Ngũ Lão",
        "street": "Đường Trần Hưng Đạo",
        "postal_code": "71012",
        "categories": [
            {
                "name": "Cửa hàng chuyên dụng"
            },
            {
                "name": "Hiệu bánh"
            }
        ]
    },
    {
        "name": "La - Pâtisserie Bakery",
        "latitude": 10.79006,
        "longitude": 106.69712,
        "address": "La - Pâtisserie Bakery, 90 Đường Điện Biên Phủ, Phường Đa Kao, Quận 1, Hồ Chí Minh, Việt Nam",
        "country_code": "VNM",
        "country_name": "Việt Nam",
        "city": "Hồ Chí Minh",
        "district": "Quận 1",
        "ward": "Phường Đa Kao",
        "street": "Đường Điện Biên Phủ",
        "postal_code": "71007",
        "categories": [
            {
                "name": "Hiệu bánh"
            },
            {
                "name": "Nhà hàng"
            },
            {
                "name": "Phòng trà"
            }
        ]
    },
    {
        "name": "Bánh Ngọt Hạnh Dung",
        "latitude": 10.76433,
        "longitude": 106.70629,
        "address": "Bánh Ngọt Hạnh Dung, Hẻm 43 Hoàng Diệu, Phường 13, Quận 4, Hồ Chí Minh, Việt Nam",
        "country_code": "VNM",
        "country_name": "Việt Nam",
        "city": "Hồ Chí Minh",
        "district": "Quận 4",
        "ward": "Phường 13",
        "street": "Hẻm 43 Hoàng Diệu",
        "postal_code": "72820",
        "categories": [
            {
                "name": "Hiệu bánh"
            }
        ]
    },
    {
        "name": "Bánh Bông Lan Trứng Muối Pybo",
        "latitude": 10.76638,
        "longitude": 106.69459,
        "address": "Bánh Bông Lan Trứng Muối Pybo, 196 Đường Đề Thám, Phường Cầu Ông Lãnh, Quận 1, Hồ Chí Minh, Việt Nam",
        "country_code": "VNM",
        "country_name": "Việt Nam",
        "city": "Hồ Chí Minh",
        "district": "Quận 1",
        "ward": "Phường Cầu Ông Lãnh",
        "street": "Đường Đề Thám",
        "postal_code": "71011",
        "categories": [
            {
                "name": "Hiệu bánh"
            }
        ]
    },
    {
        "name": "Chez Nana",
        "latitude": 10.7895,
        "longitude": 106.69565,
        "address": "Chez Nana, 58 Hẻm 56 Huỳnh Khương Ninh, Phường Đa Kao, Quận 1, Hồ Chí Minh, Việt Nam",
        "country_code": "VNM",
        "country_name": "Việt Nam",
        "city": "Hồ Chí Minh",
        "district": "Quận 1",
        "ward": "Phường Đa Kao",
        "street": "Hẻm 56 Huỳnh Khương Ninh",
        "postal_code": "71007",
        "categories": [
            {
                "name": "Hiệu bánh"
            }
        ]
    },
    {
        "name": "4GS Texas Bakery",
        "latitude": 10.78995,
        "longitude": 106.69627,
        "address": "4GS Texas Bakery, 47BIS Đường Huỳnh Khương Ninh, Phường Đa Kao, Quận 1, Hồ Chí Minh, Việt Nam",
        "country_code": "VNM",
        "country_name": "Việt Nam",
        "city": "Hồ Chí Minh",
        "district": "Quận 1",
        "ward": "Phường Đa Kao",
        "street": "Đường Huỳnh Khương Ninh",
        "postal_code": "71007",
        "categories": [
            {
                "name": "Hiệu bánh"
            },
            {
                "name": "Nhà hàng"
            },
            {
                "name": "Quán ăn bình dân"
            },
            {
                "name": "Quán cà phê"
            }
        ]
    },
    {
        "name": "Tạp Hóa Bà Bi",
        "latitude": 10.77139,
        "longitude": 106.69003,
        "address": "Tạp Hóa Bà Bi, 23A Hẻm 23 Đường Bùi Thị Xuân, Phường Bến Thành, Quận 1, Hồ Chí Minh, Việt Nam",
        "country_code": "VNM",
        "country_name": "Việt Nam",
        "city": "Hồ Chí Minh",
        "district": "Quận 1",
        "ward": "Phường Bến Thành",
        "street": "Hẻm 23 Đường Bùi Thị Xuân",
        "postal_code": "71009",
        "categories": [
            {
                "name": "Hiệu bánh"
            },
            {
                "name": "Siêu thị"
            }
        ]
    },
    {
        "name": "BB Soya Pudding - Nguyễn Tất Thành",
        "latitude": 10.76426,
        "longitude": 106.70751,
        "address": "BB Soya Pudding - Nguyễn Tất Thành, 110 Hẻm 69 Nguyễn Tất Thành, Phường 13, Quận 4, Hồ Chí Minh, Việt Nam",
        "country_code": "VNM",
        "country_name": "Việt Nam",
        "city": "Hồ Chí Minh",
        "district": "Quận 4",
        "ward": "Phường 13",
        "street": "Hẻm 69 Nguyễn Tất Thành",
        "postal_code": "72820",
        "categories": [
            {
                "name": "Hiệu bánh"
            },
            {
                "name": "Nhà hàng"
            },
            {
                "name": "Quán cà phê"
            },
            {
                "name": "Cửa hàng kẹo"
            }
        ]
    },
    {
        "name": "Lò Bánh Mì Điện Ngọc Châu",
        "latitude": 10.76591,
        "longitude": 106.69471,
        "address": "Lò Bánh Mì Điện Ngọc Châu, 174 Đường Đề Thám, Phường Cầu Ông Lãnh, Quận 1, Hồ Chí Minh, Việt Nam",
        "country_code": "VNM",
        "country_name": "Việt Nam",
        "city": "Hồ Chí Minh",
        "district": "Quận 1",
        "ward": "Phường Cầu Ông Lãnh",
        "street": "Đường Đề Thám",
        "postal_code": "71011",
        "categories": [
            {
                "name": "Cửa hàng chuyên dụng"
            },
            {
                "name": "Hiệu bánh"
            }
        ]
    },
    {
        "name": "Abaymy",
        "latitude": 10.76566,
        "longitude": 106.69499,
        "address": "Abaymy, Đường Đề Thám, Phường Cầu Ông Lãnh, Quận 1, Hồ Chí Minh, Việt Nam",
        "country_code": "VNM",
        "country_name": "Việt Nam",
        "city": "Hồ Chí Minh",
        "district": "Quận 1",
        "ward": "Phường Cầu Ông Lãnh",
        "street": "Đường Đề Thám",
        "postal_code": "71011",
        "categories": [
            {
                "name": "Hiệu bánh"
            }
        ]
    }
]
