[
    {
        "name": "Esprit Parkson Ltt",
        "latitude": 10.77758,
        "longitude": 106.7024,
        "address": "Esprit Parkson Ltt, Đường Lê Thánh Tôn, Phường Bến Nghé, Quận 1, Hồ Chí Minh, Việt Nam",
        "country_code": "VNM",
        "country_name": "Việt Nam",
        "city": "Hồ Chí Minh",
        "district": "Quận 1",
        "ward": "Phường Bến Nghé",
        "street": "Đường Lê Thánh Tôn",
        "postal_code": "71006",
        "categories": [
            {
                "name": "Quần áo & Phụ kiện"
            }
        ]
    },
    {
        "name": "Minoshe",
        "latitude": 10.77773,
        "longitude": 106.70233,
        "address": "Minoshe, 35BIS Đường Lê Thánh Tôn, Phường Bến Nghé, Quận 1, Hồ Chí Minh, Việt Nam",
        "country_code": "VNM",
        "country_name": "Việt Nam",
        "city": "Hồ Chí Minh",
        "district": "Quận 1",
        "ward": "Phường Bến Nghé",
        "street": "Đường Lê Thánh Tôn",
        "postal_code": "71006",
        "categories": [
            {
                "name": "Quần áo & Phụ kiện"
            }
        ]
    },
    {
        "name": "Elle",
        "latitude": 10.77773,
        "longitude": 106.70233,
        "address": "Elle, Đường Lê Thánh Tôn, Phường Bến Nghé, Quận 1, Hồ Chí Minh, Việt Nam",
        "country_code": "VNM",
        "country_name": "Việt Nam",
        "city": "Hồ Chí Minh",
        "district": "Quận 1",
        "ward": "Phường Bến Nghé",
        "street": "Đường Lê Thánh Tôn",
        "postal_code": "71006",
        "categories": [
            {
                "name": "Quần áo & Phụ kiện"
            }
        ]
    },
    {
        "name": "Cửa Hàng Thời Trang Ols Đồng Khởi",
        "latitude": 10.77773,
        "longitude": 106.70233,
        "address": "Cửa Hàng Thời Trang Ols Đồng Khởi, 35BIS Đường Lê Thánh Tôn, Phường Bến Nghé, Quận 1, Hồ Chí Minh, Việt Nam",
        "country_code": "VNM",
        "country_name": "Việt Nam",
        "city": "Hồ Chí Minh",
        "district": "Quận 1",
        "ward": "Phường Bến Nghé",
        "street": "Đường Lê Thánh Tôn",
        "postal_code": "71006",
        "categories": [
            {
                "name": "Quần áo & Phụ kiện"
            }
        ]
    },
    {
        "name": "Cửa Hàng Thời Trang Umbrella",
        "latitude": 10.77773,
        "longitude": 106.70233,
        "address": "Cửa Hàng Thời Trang Umbrella, Đường Lê Thánh Tôn, Phường Bến Nghé, Quận 1, Hồ Chí Minh, Việt Nam",
        "country_code": "VNM",
        "country_name": "Việt Nam",
        "city": "Hồ Chí Minh",
        "district": "Quận 1",
        "ward": "Phường Bến Nghé",
        "street": "Đường Lê Thánh Tôn",
        "postal_code": "71006",
        "categories": [
            {
                "name": "Quần áo phụ nữ"
            },
            {
                "name": "Quần áo & Phụ kiện"
            }
        ]
    },
    {
        "name": "Bata Vincom Center Đồng Khởi",
        "latitude": 10.77773,
        "longitude": 106.70233,
        "address": "Bata Vincom Center Đồng Khởi, Đường Lê Thánh Tôn, Phường Bến Nghé, Quận 1, Hồ Chí Minh, Việt Nam",
        "country_code": "VNM",
        "country_name": "Việt Nam",
        "city": "Hồ Chí Minh",
        "district": "Quận 1",
        "ward": "Phường Bến Nghé",
        "street": "Đường Lê Thánh Tôn",
        "postal_code": "71006",
        "categories": [
            {
                "name": "Quần áo & Phụ kiện"
            },
            {
                "name": "Giày dép"
            },
            {
                "name": "Cửa hàng chuyên dụng"
            }
        ]
    },
    {
        "name": "H2o Workshop - Design Clothes",
        "latitude": 10.77773,
        "longitude": 106.70233,
        "address": "H2o Workshop - Design Clothes, 35BIS Đường Lê Thánh Tôn, Phường Bến Nghé, Quận 1, Hồ Chí Minh, Việt Nam",
        "country_code": "VNM",
        "country_name": "Việt Nam",
        "city": "Hồ Chí Minh",
        "district": "Quận 1",
        "ward": "Phường Bến Nghé",
        "street": "Đường Lê Thánh Tôn",
        "postal_code": "71006",
        "categories": [
            {
                "name": "Quần áo phụ nữ"
            },
            {
                "name": "Quần áo & Phụ kiện"
            }
        ]
    },
    {
        "name": "Cửa Hàng Lotteria Parkson Lê Thánh Tôn",
        "latitude": 10.77773,
        "longitude": 106.70233,
        "address": "Cửa Hàng Lotteria Parkson Lê Thánh Tôn, 35BIS Đường Lê Thánh Tôn, Phường Bến Nghé, Quận 1, Hồ Chí Minh, Việt Nam",
        "country_code": "VNM",
        "country_name": "Việt Nam",
        "city": "Hồ Chí Minh",
        "district": "Quận 1",
        "ward": "Phường Bến Nghé",
        "street": "Đường Lê Thánh Tôn",
        "postal_code": "71006",
        "categories": [
            {
                "name": "Quần áo & Phụ kiện"
            },
            {
                "name": "Giày dép"
            }
        ]
    },
    {
        "name": "Vincy",
        "latitude": 10.77773,
        "longitude": 106.70233,
        "address": "Vincy, Đường Lê Thánh Tôn, Phường Bến Nghé, Quận 1, Hồ Chí Minh, Việt Nam",
        "country_code": "VNM",
        "country_name": "Việt Nam",
        "city": "Hồ Chí Minh",
        "district": "Quận 1",
        "ward": "Phường Bến Nghé",
        "street": "Đường Lê Thánh Tôn",
        "postal_code": "71006",
        "categories": [
            {
                "name": "Quần áo phụ nữ"
            },
            {
                "name": "Quần áo & Phụ kiện"
            }
        ]
    },
    {
        "name": "Muji",
        "latitude": 10.77773,
        "longitude": 106.70233,
        "address": "Muji, Đường Lê Thánh Tôn, Phường Bến Nghé, Quận 1, Hồ Chí Minh, Việt Nam",
        "country_code": "VNM",
        "country_name": "Việt Nam",
        "city": "Hồ Chí Minh",
        "district": "Quận 1",
        "ward": "Phường Bến Nghé",
        "street": "Đường Lê Thánh Tôn",
        "postal_code": "71006",
        "categories": [
            {
                "name": "Quần áo & Phụ kiện"
            },
            {
                "name": "Phụ kiện nội thất và gia đình"
            }
        ]
    },
    {
        "name": "Thời Trang Bon Mua Boutique",
        "latitude": 10.77773,
        "longitude": 106.70233,
        "address": "Thời Trang Bon Mua Boutique, Đường Lê Thánh Tôn, Phường Bến Nghé, Quận 1, Hồ Chí Minh, Việt Nam",
        "country_code": "VNM",
        "country_name": "Việt Nam",
        "city": "Hồ Chí Minh",
        "district": "Quận 1",
        "ward": "Phường Bến Nghé",
        "street": "Đường Lê Thánh Tôn",
        "postal_code": "71006",
        "categories": [
            {
                "name": "Quần áo phụ nữ"
            },
            {
                "name": "Quần áo & Phụ kiện"
            },
            {
                "name": "Quần áo nam"
            }
        ]
    },
    {
        "name": "Thời Trang Diệu Thanh",
        "latitude": 10.77773,
        "longitude": 106.70233,
        "address": "Thời Trang Diệu Thanh, Đường Lê Thánh Tôn, Phường Bến Nghé, Quận 1, Hồ Chí Minh, Việt Nam",
        "country_code": "VNM",
        "country_name": "Việt Nam",
        "city": "Hồ Chí Minh",
        "district": "Quận 1",
        "ward": "Phường Bến Nghé",
        "street": "Đường Lê Thánh Tôn",
        "postal_code": "71006",
        "categories": [
            {
                "name": "Quần áo trẻ em"
            },
            {
                "name": "Quần áo & Phụ kiện"
            }
        ]
    },
    {
        "name": "Axara",
        "latitude": 10.77773,
        "longitude": 106.70233,
        "address": "Axara, Đường Lê Thánh Tôn, Phường Bến Nghé, Quận 1, Hồ Chí Minh, Việt Nam",
        "country_code": "VNM",
        "country_name": "Việt Nam",
        "city": "Hồ Chí Minh",
        "district": "Quận 1",
        "ward": "Phường Bến Nghé",
        "street": "Đường Lê Thánh Tôn",
        "postal_code": "71006",
        "categories": [
            {
                "name": "Quần áo phụ nữ"
            },
            {
                "name": "Quần áo & Phụ kiện"
            }
        ]
    },
    {
        "name": "Bossini",
        "latitude": 10.77773,
        "longitude": 106.70233,
        "address": "Bossini, Đường Lê Thánh Tôn, Phường Bến Nghé, Quận 1, Hồ Chí Minh, Việt Nam",
        "country_code": "VNM",
        "country_name": "Việt Nam",
        "city": "Hồ Chí Minh",
        "district": "Quận 1",
        "ward": "Phường Bến Nghé",
        "street": "Đường Lê Thánh Tôn",
        "postal_code": "71006",
        "categories": [
            {
                "name": "Quần áo & Phụ kiện"
            },
            {
                "name": "Quần áo nam"
            },
            {
                "name": "Quần áo phụ nữ"
            },
            {
                "name": "Quần áo trẻ em"
            }
        ]
    },
    {
        "name": "Vera",
        "latitude": 10.77774,
        "longitude": 106.70233,
        "address": "Vera, 35 Đường Lê Thánh Tôn, Phường Bến Nghé, Quận 1, Hồ Chí Minh, Việt Nam",
        "country_code": "VNM",
        "country_name": "Việt Nam",
        "city": "Hồ Chí Minh",
        "district": "Quận 1",
        "ward": "Phường Bến Nghé",
        "street": "Đường Lê Thánh Tôn",
        "postal_code": "71006",
        "categories": [
            {
                "name": "Quần áo & Phụ kiện"
            }
        ]
    },
    {
        "name": "Tammy",
        "latitude": 10.77751,
        "longitude": 106.70229,
        "address": "Tammy, Đường Lê Thánh Tôn, Phường Bến Nghé, Quận 1, Hồ Chí Minh, Việt Nam",
        "country_code": "VNM",
        "country_name": "Việt Nam",
        "city": "Hồ Chí Minh",
        "district": "Quận 1",
        "ward": "Phường Bến Nghé",
        "street": "Đường Lê Thánh Tôn",
        "postal_code": "71006",
        "categories": [
            {
                "name": "Quần áo & Phụ kiện"
            }
        ]
    },
    {
        "name": "Triumph",
        "latitude": 10.77751,
        "longitude": 106.70229,
        "address": "Triumph, Đường Lê Thánh Tôn, Phường Bến Nghé, Quận 1, Hồ Chí Minh, Việt Nam",
        "country_code": "VNM",
        "country_name": "Việt Nam",
        "city": "Hồ Chí Minh",
        "district": "Quận 1",
        "ward": "Phường Bến Nghé",
        "street": "Đường Lê Thánh Tôn",
        "postal_code": "71006",
        "categories": [
            {
                "name": "Quần áo phụ nữ"
            },
            {
                "name": "Quần áo & Phụ kiện"
            },
            {
                "name": "Hàng tiêu dùng"
            }
        ]
    },
    {
        "name": "Shop Quần Áo Casualist - Lê Thánh Tôn",
        "latitude": 10.77751,
        "longitude": 106.70229,
        "address": "Shop Quần Áo Casualist - Lê Thánh Tôn, Đường Lê Thánh Tôn, Phường Bến Nghé, Quận 1, Hồ Chí Minh, Việt Nam",
        "country_code": "VNM",
        "country_name": "Việt Nam",
        "city": "Hồ Chí Minh",
        "district": "Quận 1",
        "ward": "Phường Bến Nghé",
        "street": "Đường Lê Thánh Tôn",
        "postal_code": "71006",
        "categories": [
            {
                "name": "Quần áo & Phụ kiện"
            },
            {
                "name": "Quần áo nam"
            }
        ]
    },
    {
        "name": "Cửa Hàng Hikosen Cara",
        "latitude": 10.77751,
        "longitude": 106.70229,
        "address": "Cửa Hàng Hikosen Cara, Đường Lê Thánh Tôn, Phường Bến Nghé, Quận 1, Hồ Chí Minh, Việt Nam",
        "country_code": "VNM",
        "country_name": "Việt Nam",
        "city": "Hồ Chí Minh",
        "district": "Quận 1",
        "ward": "Phường Bến Nghé",
        "street": "Đường Lê Thánh Tôn",
        "postal_code": "71006",
        "categories": [
            {
                "name": "Quần áo & Phụ kiện"
            },
            {
                "name": "Quần áo trẻ em"
            },
            {
                "name": "Cửa hàng chuyên dụng"
            },
            {
                "name": "Hoa & Đồ trang sức"
            }
        ]
    },
    {
        "name": "72 Lê Thánh Tôn, Phường Bến Nghé, Q1, TPHCM",
        "latitude": 10.77751,
        "longitude": 106.70229,
        "address": "72 Lê Thánh Tôn, Phường Bến Nghé, Q1, TPHCM, Đường Lê Thánh Tôn, Phường Bến Nghé, Quận 1, Hồ Chí Minh, Việt Nam",
        "country_code": "VNM",
        "country_name": "Việt Nam",
        "city": "Hồ Chí Minh",
        "district": "Quận 1",
        "ward": "Phường Bến Nghé",
        "street": "Đường Lê Thánh Tôn",
        "postal_code": "71006",
        "categories": [
            {
                "name": "Quần áo & Phụ kiện"
            },
            {
                "name": "Quần áo phụ nữ"
            }
        ]
    },
    {
        "name": "Dkny",
        "latitude": 10.77751,
        "longitude": 106.70229,
        "address": "Dkny, Đường Lê Thánh Tôn, Phường Bến Nghé, Quận 1, Hồ Chí Minh, Việt Nam",
        "country_code": "VNM",
        "country_name": "Việt Nam",
        "city": "Hồ Chí Minh",
        "district": "Quận 1",
        "ward": "Phường Bến Nghé",
        "street": "Đường Lê Thánh Tôn",
        "postal_code": "71006",
        "categories": [
            {
                "name": "Quần áo & Phụ kiện"
            },
            {
                "name": "Quần áo phụ nữ"
            }
        ]
    },
    {
        "name": "Coast Vincom Đồng Khởi",
        "latitude": 10.77751,
        "longitude": 106.70229,
        "address": "Coast Vincom Đồng Khởi, Đường Lê Thánh Tôn, Phường Bến Nghé, Quận 1, Hồ Chí Minh, Việt Nam",
        "country_code": "VNM",
        "country_name": "Việt Nam",
        "city": "Hồ Chí Minh",
        "district": "Quận 1",
        "ward": "Phường Bến Nghé",
        "street": "Đường Lê Thánh Tôn",
        "postal_code": "71006",
        "categories": [
            {
                "name": "Quần áo & Phụ kiện"
            },
            {
                "name": "Quần áo phụ nữ"
            }
        ]
    },
    {
        "name": "Shop Thời Trang G2000",
        "latitude": 10.77751,
        "longitude": 106.70229,
        "address": "Shop Thời Trang G2000, Đường Lê Thánh Tôn, Phường Bến Nghé, Quận 1, Hồ Chí Minh, Việt Nam",
        "country_code": "VNM",
        "country_name": "Việt Nam",
        "city": "Hồ Chí Minh",
        "district": "Quận 1",
        "ward": "Phường Bến Nghé",
        "street": "Đường Lê Thánh Tôn",
        "postal_code": "71006",
        "categories": [
            {
                "name": "Quần áo & Phụ kiện"
            }
        ]
    },
    {
        "name": "Icb",
        "latitude": 10.77751,
        "longitude": 106.70229,
        "address": "Icb, Đường Lê Thánh Tôn, Phường Bến Nghé, Quận 1, Hồ Chí Minh, Việt Nam",
        "country_code": "VNM",
        "country_name": "Việt Nam",
        "city": "Hồ Chí Minh",
        "district": "Quận 1",
        "ward": "Phường Bến Nghé",
        "street": "Đường Lê Thánh Tôn",
        "postal_code": "71006",
        "categories": [
            {
                "name": "Quần áo & Phụ kiện"
            }
        ]
    },
    {
        "name": "An Phước-Pierre Cardin",
        "latitude": 10.77751,
        "longitude": 106.70229,
        "address": "An Phước-Pierre Cardin, Đường Lê Thánh Tôn, Phường Bến Nghé, Quận 1, Hồ Chí Minh, Việt Nam",
        "country_code": "VNM",
        "country_name": "Việt Nam",
        "city": "Hồ Chí Minh",
        "district": "Quận 1",
        "ward": "Phường Bến Nghé",
        "street": "Đường Lê Thánh Tôn",
        "postal_code": "71006",
        "categories": [
            {
                "name": "Quần áo nam"
            },
            {
                "name": "Quần áo & Phụ kiện"
            },
            {
                "name": "Quần áo phụ nữ"
            }
        ]
    },
    {
        "name": "Payless Shoesouse",
        "latitude": 10.77751,
        "longitude": 106.70229,
        "address": "Payless Shoesouse, Đường Lê Thánh Tôn, Phường Bến Nghé, Quận 1, Hồ Chí Minh, Việt Nam",
        "country_code": "VNM",
        "country_name": "Việt Nam",
        "city": "Hồ Chí Minh",
        "district": "Quận 1",
        "ward": "Phường Bến Nghé",
        "street": "Đường Lê Thánh Tôn",
        "postal_code": "71006",
        "categories": [
            {
                "name": "Quần áo & Phụ kiện"
            },
            {
                "name": "Giày dép"
            }
        ]
    },
    {
        "name": "Franco Sarto",
        "latitude": 10.77751,
        "longitude": 106.70229,
        "address": "Franco Sarto, Đường Lê Thánh Tôn, Phường Bến Nghé, Quận 1, Hồ Chí Minh, Việt Nam",
        "country_code": "VNM",
        "country_name": "Việt Nam",
        "city": "Hồ Chí Minh",
        "district": "Quận 1",
        "ward": "Phường Bến Nghé",
        "street": "Đường Lê Thánh Tôn",
        "postal_code": "71006",
        "categories": [
            {
                "name": "Quần áo & Phụ kiện"
            }
        ]
    },
    {
        "name": "Koko",
        "latitude": 10.77751,
        "longitude": 106.70229,
        "address": "Koko, Đường Lê Thánh Tôn, Phường Bến Nghé, Quận 1, Hồ Chí Minh, Việt Nam",
        "country_code": "VNM",
        "country_name": "Việt Nam",
        "city": "Hồ Chí Minh",
        "district": "Quận 1",
        "ward": "Phường Bến Nghé",
        "street": "Đường Lê Thánh Tôn",
        "postal_code": "71006",
        "categories": [
            {
                "name": "Quần áo & Phụ kiện"
            }
        ]
    },
    {
        "name": "Levi's Vincom Lê Thánh Tôn - Hồ Chí Minh",
        "latitude": 10.7779,
        "longitude": 106.70233,
        "address": "Levi's Vincom Lê Thánh Tôn - Hồ Chí Minh, 70 Đường Lê Thánh Tôn, Phường Bến Nghé, Quận 1, Hồ Chí Minh, Việt Nam",
        "country_code": "VNM",
        "country_name": "Việt Nam",
        "city": "Hồ Chí Minh",
        "district": "Quận 1",
        "ward": "Phường Bến Nghé",
        "street": "Đường Lê Thánh Tôn",
        "postal_code": "71006",
        "categories": [
            {
                "name": "Quần áo & Phụ kiện"
            },
            {
                "name": "Quần áo phụ nữ"
            }
        ]
    },
    {
        "name": "Cửa Hàng Furla",
        "latitude": 10.77759,
        "longitude": 106.70217,
        "address": "Cửa Hàng Furla, Đường Lê Thánh Tôn, Phường Bến Nghé, Quận 1, Hồ Chí Minh, Việt Nam",
        "country_code": "VNM",
        "country_name": "Việt Nam",
        "city": "Hồ Chí Minh",
        "district": "Quận 1",
        "ward": "Phường Bến Nghé",
        "street": "Đường Lê Thánh Tôn",
        "postal_code": "71006",
        "categories": [
            {
                "name": "Cửa hàng chuyên dụng"
            },
            {
                "name": "Quần áo & Phụ kiện"
            }
        ]
    },
    {
        "name": "Hello Weekend Market, Số 2 ĐTH, Q1, TP.HCM",
        "latitude": 10.77759,
        "longitude": 106.70217,
        "address": "Hello Weekend Market, Số 2 ĐTH, Q1, TP.HCM, Đường Lê Thánh Tôn, Phường Bến Nghé, Quận 1, Hồ Chí Minh, Việt Nam",
        "country_code": "VNM",
        "country_name": "Việt Nam",
        "city": "Hồ Chí Minh",
        "district": "Quận 1",
        "ward": "Phường Bến Nghé",
        "street": "Đường Lê Thánh Tôn",
        "postal_code": "71006",
        "categories": [
            {
                "name": "Quần áo & Phụ kiện"
            }
        ]
    },
    {
        "name": "Thời Trang Aino Sofia",
        "latitude": 10.77759,
        "longitude": 106.70217,
        "address": "Thời Trang Aino Sofia, Đường Lê Thánh Tôn, Phường Bến Nghé, Quận 1, Hồ Chí Minh, Việt Nam",
        "country_code": "VNM",
        "country_name": "Việt Nam",
        "city": "Hồ Chí Minh",
        "district": "Quận 1",
        "ward": "Phường Bến Nghé",
        "street": "Đường Lê Thánh Tôn",
        "postal_code": "71006",
        "categories": [
            {
                "name": "Quần áo phụ nữ"
            },
            {
                "name": "Quần áo & Phụ kiện"
            }
        ]
    },
    {
        "name": "United Colors Of Benetton",
        "latitude": 10.77759,
        "longitude": 106.70217,
        "address": "United Colors Of Benetton, Đường Lê Thánh Tôn, Phường Bến Nghé, Quận 1, Hồ Chí Minh, Việt Nam",
        "country_code": "VNM",
        "country_name": "Việt Nam",
        "city": "Hồ Chí Minh",
        "district": "Quận 1",
        "ward": "Phường Bến Nghé",
        "street": "Đường Lê Thánh Tôn",
        "postal_code": "71006",
        "categories": [
            {
                "name": "Quần áo nam"
            },
            {
                "name": "Quần áo & Phụ kiện"
            },
            {
                "name": "Quần áo phụ nữ"
            }
        ]
    },
    {
        "name": "Nike",
        "latitude": 10.77759,
        "longitude": 106.70217,
        "address": "Nike, Đường Lê Thánh Tôn, Phường Bến Nghé, Quận 1, Hồ Chí Minh, Việt Nam",
        "country_code": "VNM",
        "country_name": "Việt Nam",
        "city": "Hồ Chí Minh",
        "district": "Quận 1",
        "ward": "Phường Bến Nghé",
        "street": "Đường Lê Thánh Tôn",
        "postal_code": "71006",
        "categories": [
            {
                "name": "Cửa hàng dụng cụ thể thao"
            },
            {
                "name": "Quần áo & Phụ kiện"
            }
        ]
    },
    {
        "name": "Dior",
        "latitude": 10.77769,
        "longitude": 106.70217,
        "address": "Dior, Lê Thánh Tôn, Phường Bến Nghé, Quận 1, Hồ Chí Minh, Việt Nam",
        "country_code": "VNM",
        "country_name": "Việt Nam",
        "city": "Hồ Chí Minh",
        "district": "Quận 1",
        "ward": "Phường Bến Nghé",
        "street": "Lê Thánh Tôn",
        "postal_code": "71006",
        "categories": [
            {
                "name": "Quần áo & Phụ kiện"
            }
        ]
    },
    {
        "name": "5b Vieviehouse",
        "latitude": 10.778,
        "longitude": 106.7033,
        "address": "5b Vieviehouse, Đường Hai Bà Trưng, Phường Bến Nghé, Quận 1, Hồ Chí Minh, Việt Nam",
        "country_code": "VNM",
        "country_name": "Việt Nam",
        "city": "Hồ Chí Minh",
        "district": "Quận 1",
        "ward": "Phường Bến Nghé",
        "street": "Đường Hai Bà Trưng",
        "postal_code": "71006",
        "categories": [
            {
                "name": "Quần áo & Phụ kiện"
            }
        ]
    },
    {
        "name": "An Phước",
        "latitude": 10.77828,
        "longitude": 106.70299,
        "address": "An Phước, 45 Đường Lê Thánh Tôn, Phường Bến Nghé, Quận 1, Hồ Chí Minh, Việt Nam",
        "country_code": "VNM",
        "country_name": "Việt Nam",
        "city": "Hồ Chí Minh",
        "district": "Quận 1",
        "ward": "Phường Bến Nghé",
        "street": "Đường Lê Thánh Tôn",
        "postal_code": "71006",
        "categories": [
            {
                "name": "Quần áo & Phụ kiện"
            }
        ]
    },
    {
        "name": "N & M",
        "latitude": 10.77828,
        "longitude": 106.70299,
        "address": "N & M, 45 Đường Lê Thánh Tôn, Phường Bến Nghé, Quận 1, Hồ Chí Minh, Việt Nam",
        "country_code": "VNM",
        "country_name": "Việt Nam",
        "city": "Hồ Chí Minh",
        "district": "Quận 1",
        "ward": "Phường Bến Nghé",
        "street": "Đường Lê Thánh Tôn",
        "postal_code": "71006",
        "categories": [
            {
                "name": "Quần áo & Phụ kiện"
            }
        ]
    },
    {
        "name": "Ninomaxx",
        "latitude": 10.77828,
        "longitude": 106.70299,
        "address": "Ninomaxx, 45 Đường Lê Thánh Tôn, Phường Bến Nghé, Quận 1, Hồ Chí Minh, Việt Nam",
        "country_code": "VNM",
        "country_name": "Việt Nam",
        "city": "Hồ Chí Minh",
        "district": "Quận 1",
        "ward": "Phường Bến Nghé",
        "street": "Đường Lê Thánh Tôn",
        "postal_code": "71006",
        "categories": [
            {
                "name": "Quần áo & Phụ kiện"
            }
        ]
    },
    {
        "name": "Việt Mã",
        "latitude": 10.77828,
        "longitude": 106.70299,
        "address": "Việt Mã, 45 Đường Lê Thánh Tôn, Phường Bến Nghé, Quận 1, Hồ Chí Minh, Việt Nam",
        "country_code": "VNM",
        "country_name": "Việt Nam",
        "city": "Hồ Chí Minh",
        "district": "Quận 1",
        "ward": "Phường Bến Nghé",
        "street": "Đường Lê Thánh Tôn",
        "postal_code": "71006",
        "categories": [
            {
                "name": "Quần áo & Phụ kiện"
            }
        ]
    },
    {
        "name": "Biona Uomo",
        "latitude": 10.77828,
        "longitude": 106.70299,
        "address": "Biona Uomo, 45 Đường Lê Thánh Tôn, Phường Bến Nghé, Quận 1, Hồ Chí Minh, Việt Nam",
        "country_code": "VNM",
        "country_name": "Việt Nam",
        "city": "Hồ Chí Minh",
        "district": "Quận 1",
        "ward": "Phường Bến Nghé",
        "street": "Đường Lê Thánh Tôn",
        "postal_code": "71006",
        "categories": [
            {
                "name": "Quần áo & Phụ kiện"
            }
        ]
    },
    {
        "name": "F2 - Fashion & Freedom",
        "latitude": 10.77828,
        "longitude": 106.70299,
        "address": "F2 - Fashion & Freedom, Đường Lê Thánh Tôn, Phường Bến Nghé, Quận 1, Hồ Chí Minh, Việt Nam",
        "country_code": "VNM",
        "country_name": "Việt Nam",
        "city": "Hồ Chí Minh",
        "district": "Quận 1",
        "ward": "Phường Bến Nghé",
        "street": "Đường Lê Thánh Tôn",
        "postal_code": "71006",
        "categories": [
            {
                "name": "Quần áo & Phụ kiện"
            }
        ]
    },
    {
        "name": "United Colors Of Benetton - Hoang Phuc International",
        "latitude": 10.7781,
        "longitude": 106.70229,
        "address": "United Colors Of Benetton - Hoang Phuc International, Lê Thánh Tôn, Phường Bến Nghé, Quận 1, Hồ Chí Minh, Việt Nam",
        "country_code": "VNM",
        "country_name": "Việt Nam",
        "city": "Hồ Chí Minh",
        "district": "Quận 1",
        "ward": "Phường Bến Nghé",
        "street": "Lê Thánh Tôn",
        "postal_code": "71006",
        "categories": [
            {
                "name": "Quần áo & Phụ kiện"
            },
            {
                "name": "Quần áo nam"
            },
            {
                "name": "Quần áo phụ nữ"
            }
        ]
    },
    {
        "name": "Timberland",
        "latitude": 10.77762,
        "longitude": 106.70205,
        "address": "Timberland, Lê Thánh Tôn, Phường Bến Nghé, Quận 1, Hồ Chí Minh, Việt Nam",
        "country_code": "VNM",
        "country_name": "Việt Nam",
        "city": "Hồ Chí Minh",
        "district": "Quận 1",
        "ward": "Phường Bến Nghé",
        "street": "Lê Thánh Tôn",
        "postal_code": "71006",
        "categories": [
            {
                "name": "Quần áo & Phụ kiện"
            }
        ]
    },
    {
        "name": "Topshop Topman - Vinco",
        "latitude": 10.77762,
        "longitude": 106.70205,
        "address": "Topshop Topman - Vinco, Lê Thánh Tôn, Phường Bến Nghé, Quận 1, Hồ Chí Minh, Việt Nam",
        "country_code": "VNM",
        "country_name": "Việt Nam",
        "city": "Hồ Chí Minh",
        "district": "Quận 1",
        "ward": "Phường Bến Nghé",
        "street": "Lê Thánh Tôn",
        "postal_code": "71006",
        "categories": [
            {
                "name": "Quần áo & Phụ kiện"
            }
        ]
    },
    {
        "name": "Adidas",
        "latitude": 10.77748,
        "longitude": 106.70201,
        "address": "Adidas, 72 Đường Lê Thánh Tôn, Phường Bến Nghé, Quận 1, Hồ Chí Minh, Việt Nam",
        "country_code": "VNM",
        "country_name": "Việt Nam",
        "city": "Hồ Chí Minh",
        "district": "Quận 1",
        "ward": "Phường Bến Nghé",
        "street": "Đường Lê Thánh Tôn",
        "postal_code": "71006",
        "categories": [
            {
                "name": "Cửa hàng dụng cụ thể thao"
            },
            {
                "name": "Quần áo & Phụ kiện"
            }
        ]
    },
    {
        "name": "Giordano",
        "latitude": 10.77748,
        "longitude": 106.70201,
        "address": "Giordano, 72 Đường Lê Thánh Tôn, Phường Bến Nghé, Quận 1, Hồ Chí Minh, Việt Nam",
        "country_code": "VNM",
        "country_name": "Việt Nam",
        "city": "Hồ Chí Minh",
        "district": "Quận 1",
        "ward": "Phường Bến Nghé",
        "street": "Đường Lê Thánh Tôn",
        "postal_code": "71006",
        "categories": [
            {
                "name": "Quần áo & Phụ kiện"
            }
        ]
    },
    {
        "name": "Cửa Hàng Thời Trang Stradivarius",
        "latitude": 10.77748,
        "longitude": 106.70201,
        "address": "Cửa Hàng Thời Trang Stradivarius, 72 Đường Lê Thánh Tôn, Phường Bến Nghé, Quận 1, Hồ Chí Minh, Việt Nam",
        "country_code": "VNM",
        "country_name": "Việt Nam",
        "city": "Hồ Chí Minh",
        "district": "Quận 1",
        "ward": "Phường Bến Nghé",
        "street": "Đường Lê Thánh Tôn",
        "postal_code": "71006",
        "categories": [
            {
                "name": "Quần áo & Phụ kiện"
            },
            {
                "name": "Quần áo phụ nữ"
            }
        ]
    },
    {
        "name": "Cửa Hàng Thời Trang Massimo Dutti",
        "latitude": 10.77748,
        "longitude": 106.70201,
        "address": "Cửa Hàng Thời Trang Massimo Dutti, 72 Đường Lê Thánh Tôn, Phường Bến Nghé, Quận 1, Hồ Chí Minh, Việt Nam",
        "country_code": "VNM",
        "country_name": "Việt Nam",
        "city": "Hồ Chí Minh",
        "district": "Quận 1",
        "ward": "Phường Bến Nghé",
        "street": "Đường Lê Thánh Tôn",
        "postal_code": "71006",
        "categories": [
            {
                "name": "Quần áo & Phụ kiện"
            },
            {
                "name": "Quần áo nam"
            },
            {
                "name": "Quần áo phụ nữ"
            }
        ]
    },
    {
        "name": "Zara",
        "latitude": 10.77748,
        "longitude": 106.70201,
        "address": "Zara, 72 Đường Lê Thánh Tôn, Phường Bến Nghé, Quận 1, Hồ Chí Minh, Việt Nam",
        "country_code": "VNM",
        "country_name": "Việt Nam",
        "city": "Hồ Chí Minh",
        "district": "Quận 1",
        "ward": "Phường Bến Nghé",
        "street": "Đường Lê Thánh Tôn",
        "postal_code": "71006",
        "categories": [
            {
                "name": "Quần áo & Phụ kiện"
            },
            {
                "name": "Quần áo nam"
            },
            {
                "name": "Quần áo phụ nữ"
            },
            {
                "name": "Quần áo trẻ em"
            }
        ]
    },
    {
        "name": "Lê Thành Trung",
        "latitude": 10.77825,
        "longitude": 106.70327,
        "address": "Lê Thành Trung, Đường Hai Bà Trưng, Phường Bến Nghé, Quận 1, Hồ Chí Minh, Việt Nam",
        "country_code": "VNM",
        "country_name": "Việt Nam",
        "city": "Hồ Chí Minh",
        "district": "Quận 1",
        "ward": "Phường Bến Nghé",
        "street": "Đường Hai Bà Trưng",
        "postal_code": "71006",
        "categories": [
            {
                "name": "Quần áo & Phụ kiện"
            },
            {
                "name": "Hàng tiêu dùng"
            }
        ]
    },
    {
        "name": "Bán Buôn - Bán Lẻ Trái Cây Sạch Toàn Quốc",
        "latitude": 10.77825,
        "longitude": 106.70327,
        "address": "Bán Buôn - Bán Lẻ Trái Cây Sạch Toàn Quốc, Đường Hai Bà Trưng, Phường Bến Nghé, Quận 1, Hồ Chí Minh, Việt Nam",
        "country_code": "VNM",
        "country_name": "Việt Nam",
        "city": "Hồ Chí Minh",
        "district": "Quận 1",
        "ward": "Phường Bến Nghé",
        "street": "Đường Hai Bà Trưng",
        "postal_code": "71006",
        "categories": [
            {
                "name": "Quần áo & Phụ kiện"
            },
            {
                "name": "Hàng tiêu dùng"
            }
        ]
    },
    {
        "name": "Guess @ Vincom",
        "latitude": 10.77768,
        "longitude": 106.70199,
        "address": "Guess @ Vincom, Lê Thánh Tôn, Phường Bến Nghé, Quận 1, Hồ Chí Minh, Việt Nam",
        "country_code": "VNM",
        "country_name": "Việt Nam",
        "city": "Hồ Chí Minh",
        "district": "Quận 1",
        "ward": "Phường Bến Nghé",
        "street": "Lê Thánh Tôn",
        "postal_code": "71006",
        "categories": [
            {
                "name": "Quần áo & Phụ kiện"
            },
            {
                "name": "Quần áo phụ nữ"
            }
        ]
    },
    {
        "name": "Tiệm May Cao Cấp Byfas",
        "latitude": 10.77833,
        "longitude": 106.70315,
        "address": "Tiệm May Cao Cấp Byfas, 74C Đường Hai Bà Trưng, Phường Bến Nghé, Quận 1, Hồ Chí Minh, Việt Nam",
        "country_code": "VNM",
        "country_name": "Việt Nam",
        "city": "Hồ Chí Minh",
        "district": "Quận 1",
        "ward": "Phường Bến Nghé",
        "street": "Đường Hai Bà Trưng",
        "postal_code": "71006",
        "categories": [
            {
                "name": "Quần áo & Phụ kiện"
            },
            {
                "name": "Cửa hàng chuyên dụng"
            },
            {
                "name": "Quà tặng, đồ cổ và tác phẩm nghệ thuật"
            },
            {
                "name": "Dịch vụ B2B"
            },
            {
                "name": "May mặc & Sửa đồ may mặc"
            }
        ]
    },
    {
        "name": "Cửa Hàng Kiwi",
        "latitude": 10.77833,
        "longitude": 106.70315,
        "address": "Cửa Hàng Kiwi, 74C Đường Hai Bà Trưng, Phường Bến Nghé, Quận 1, Hồ Chí Minh, Việt Nam",
        "country_code": "VNM",
        "country_name": "Việt Nam",
        "city": "Hồ Chí Minh",
        "district": "Quận 1",
        "ward": "Phường Bến Nghé",
        "street": "Đường Hai Bà Trưng",
        "postal_code": "71006",
        "categories": [
            {
                "name": "Quần áo & Phụ kiện"
            },
            {
                "name": "Quần áo phụ nữ"
            }
        ]
    },
    {
        "name": "Nha Thiet Ke Cong Tri",
        "latitude": 10.77809,
        "longitude": 106.70214,
        "address": "Nha Thiet Ke Cong Tri, 72 Đường Lê Thánh Tôn, Phường Bến Nghé, Quận 1, Hồ Chí Minh, Việt Nam",
        "country_code": "VNM",
        "country_name": "Việt Nam",
        "city": "Hồ Chí Minh",
        "district": "Quận 1",
        "ward": "Phường Bến Nghé",
        "street": "Đường Lê Thánh Tôn",
        "postal_code": "71006",
        "categories": [
            {
                "name": "Quần áo & Phụ kiện"
            },
            {
                "name": "Giày dép"
            }
        ]
    },
    {
        "name": "Ovs",
        "latitude": 10.77809,
        "longitude": 106.70214,
        "address": "Ovs, 72 Đường Lê Thánh Tôn, Phường Bến Nghé, Quận 1, Hồ Chí Minh, Việt Nam",
        "country_code": "VNM",
        "country_name": "Việt Nam",
        "city": "Hồ Chí Minh",
        "district": "Quận 1",
        "ward": "Phường Bến Nghé",
        "street": "Đường Lê Thánh Tôn",
        "postal_code": "71006",
        "categories": [
            {
                "name": "Quần áo & Phụ kiện"
            }
        ]
    },
    {
        "name": "Havaianas",
        "latitude": 10.77809,
        "longitude": 106.70214,
        "address": "Havaianas, Đường Lê Thánh Tôn, Phường Bến Nghé, Quận 1, Hồ Chí Minh, Việt Nam",
        "country_code": "VNM",
        "country_name": "Việt Nam",
        "city": "Hồ Chí Minh",
        "district": "Quận 1",
        "ward": "Phường Bến Nghé",
        "street": "Đường Lê Thánh Tôn",
        "postal_code": "71006",
        "categories": [
            {
                "name": "Quần áo & Phụ kiện"
            },
            {
                "name": "Giày dép"
            },
            {
                "name": "Hàng tiêu dùng"
            }
        ]
    },
    {
        "name": "Payoo-Maison",
        "latitude": 10.77809,
        "longitude": 106.70214,
        "address": "Payoo-Maison, 72 Đường Lê Thánh Tôn, Phường Bến Nghé, Quận 1, Hồ Chí Minh, Việt Nam",
        "country_code": "VNM",
        "country_name": "Việt Nam",
        "city": "Hồ Chí Minh",
        "district": "Quận 1",
        "ward": "Phường Bến Nghé",
        "street": "Đường Lê Thánh Tôn",
        "postal_code": "71006",
        "categories": [
            {
                "name": "Quần áo & Phụ kiện"
            },
            {
                "name": "Giày dép"
            },
            {
                "name": "Hàng tiêu dùng"
            }
        ]
    },
    {
        "name": "Ninh Khương",
        "latitude": 10.77809,
        "longitude": 106.70214,
        "address": "Ninh Khương, 72 Đường Lê Thánh Tôn, Phường Bến Nghé, Quận 1, Hồ Chí Minh, Việt Nam",
        "country_code": "VNM",
        "country_name": "Việt Nam",
        "city": "Hồ Chí Minh",
        "district": "Quận 1",
        "ward": "Phường Bến Nghé",
        "street": "Đường Lê Thánh Tôn",
        "postal_code": "71006",
        "categories": [
            {
                "name": "Quần áo & Phụ kiện"
            },
            {
                "name": "Quần áo trẻ em"
            },
            {
                "name": "Cửa hàng chuyên dụng"
            }
        ]
    },
    {
        "name": "Keds Vietnam",
        "latitude": 10.77809,
        "longitude": 106.70214,
        "address": "Keds Vietnam, 72 Đường Lê Thánh Tôn, Phường Bến Nghé, Quận 1, Hồ Chí Minh, Việt Nam",
        "country_code": "VNM",
        "country_name": "Việt Nam",
        "city": "Hồ Chí Minh",
        "district": "Quận 1",
        "ward": "Phường Bến Nghé",
        "street": "Đường Lê Thánh Tôn",
        "postal_code": "71006",
        "categories": [
            {
                "name": "Quần áo & Phụ kiện"
            }
        ]
    },
    {
        "name": "Ct Tnhhtm Truong Ngan",
        "latitude": 10.77809,
        "longitude": 106.70214,
        "address": "Ct Tnhhtm Truong Ngan, 72 Đường Lê Thánh Tôn, Phường Bến Nghé, Quận 1, Hồ Chí Minh, Việt Nam",
        "country_code": "VNM",
        "country_name": "Việt Nam",
        "city": "Hồ Chí Minh",
        "district": "Quận 1",
        "ward": "Phường Bến Nghé",
        "street": "Đường Lê Thánh Tôn",
        "postal_code": "71006",
        "categories": [
            {
                "name": "Quần áo & Phụ kiện"
            }
        ]
    },
    {
        "name": "Runam Boutique",
        "latitude": 10.77809,
        "longitude": 106.70214,
        "address": "Runam Boutique, Đường Lê Thánh Tôn, Phường Bến Nghé, Quận 1, Hồ Chí Minh, Việt Nam",
        "country_code": "VNM",
        "country_name": "Việt Nam",
        "city": "Hồ Chí Minh",
        "district": "Quận 1",
        "ward": "Phường Bến Nghé",
        "street": "Đường Lê Thánh Tôn",
        "postal_code": "71006",
        "categories": [
            {
                "name": "Quần áo & Phụ kiện"
            }
        ]
    },
    {
        "name": "Warehouse",
        "latitude": 10.77809,
        "longitude": 106.70214,
        "address": "Warehouse, 72 Đường Lê Thánh Tôn, Phường Bến Nghé, Quận 1, Hồ Chí Minh, Việt Nam",
        "country_code": "VNM",
        "country_name": "Việt Nam",
        "city": "Hồ Chí Minh",
        "district": "Quận 1",
        "ward": "Phường Bến Nghé",
        "street": "Đường Lê Thánh Tôn",
        "postal_code": "71006",
        "categories": [
            {
                "name": "Quần áo & Phụ kiện"
            },
            {
                "name": "Quần áo phụ nữ"
            }
        ]
    },
    {
        "name": "Uniqlo Đồng Khởi",
        "latitude": 10.77727,
        "longitude": 106.70202,
        "address": "Uniqlo Đồng Khởi, Đường Đồng Khởi, Phường Bến Nghé, Quận 1, Hồ Chí Minh, Việt Nam",
        "country_code": "VNM",
        "country_name": "Việt Nam",
        "city": "Hồ Chí Minh",
        "district": "Quận 1",
        "ward": "Phường Bến Nghé",
        "street": "Đường Đồng Khởi",
        "postal_code": "71006",
        "categories": [
            {
                "name": "Quần áo & Phụ kiện"
            }
        ]
    },
    {
        "name": "Mai Lâm",
        "latitude": 10.77684,
        "longitude": 106.7024,
        "address": "Mai Lâm, 132-134 Đường Đồng Khởi, Phường Bến Nghé, Quận 1, Hồ Chí Minh, Việt Nam",
        "country_code": "VNM",
        "country_name": "Việt Nam",
        "city": "Hồ Chí Minh",
        "district": "Quận 1",
        "ward": "Phường Bến Nghé",
        "street": "Đường Đồng Khởi",
        "postal_code": "71006",
        "categories": [
            {
                "name": "Quần áo & Phụ kiện"
            },
            {
                "name": "Quần áo phụ nữ"
            }
        ]
    },
    {
        "name": "Thủy Design House",
        "latitude": 10.77684,
        "longitude": 106.7024,
        "address": "Thủy Design House, 132-134 Đường Đồng Khởi, Phường Bến Nghé, Quận 1, Hồ Chí Minh, Việt Nam",
        "country_code": "VNM",
        "country_name": "Việt Nam",
        "city": "Hồ Chí Minh",
        "district": "Quận 1",
        "ward": "Phường Bến Nghé",
        "street": "Đường Đồng Khởi",
        "postal_code": "71006",
        "categories": [
            {
                "name": "Quần áo & Phụ kiện"
            },
            {
                "name": "Quần áo phụ nữ"
            },
            {
                "name": "Quà tặng, đồ cổ và tác phẩm nghệ thuật"
            }
        ]
    },
    {
        "name": "Uniqlo",
        "latitude": 10.77726,
        "longitude": 106.70199,
        "address": "Uniqlo, Đường Đồng Khởi, Phường Bến Nghé, Quận 1, Hồ Chí Minh, Việt Nam",
        "country_code": "VNM",
        "country_name": "Việt Nam",
        "city": "Hồ Chí Minh",
        "district": "Quận 1",
        "ward": "Phường Bến Nghé",
        "street": "Đường Đồng Khởi",
        "postal_code": "71006",
        "categories": [
            {
                "name": "Quần áo & Phụ kiện"
            }
        ]
    },
    {
        "name": "Vascara",
        "latitude": 10.77726,
        "longitude": 106.70199,
        "address": "Vascara, Đường Đồng Khởi, Phường Bến Nghé, Quận 1, Hồ Chí Minh, Việt Nam",
        "country_code": "VNM",
        "country_name": "Việt Nam",
        "city": "Hồ Chí Minh",
        "district": "Quận 1",
        "ward": "Phường Bến Nghé",
        "street": "Đường Đồng Khởi",
        "postal_code": "71006",
        "categories": [
            {
                "name": "Quần áo & Phụ kiện"
            },
            {
                "name": "Hàng tiêu dùng"
            }
        ]
    },
    {
        "name": "Cosette - 146 Dk",
        "latitude": 10.77726,
        "longitude": 106.70199,
        "address": "Cosette - 146 Dk, 146 Đường Đồng Khởi, Phường Bến Nghé, Quận 1, Hồ Chí Minh, Việt Nam",
        "country_code": "VNM",
        "country_name": "Việt Nam",
        "city": "Hồ Chí Minh",
        "district": "Quận 1",
        "ward": "Phường Bến Nghé",
        "street": "Đường Đồng Khởi",
        "postal_code": "71006",
        "categories": [
            {
                "name": "Quần áo & Phụ kiện"
            }
        ]
    },
    {
        "name": "Springfield Vincom A",
        "latitude": 10.77686,
        "longitude": 106.70231,
        "address": "Springfield Vincom A, Đường Đồng Khởi, Phường Bến Nghé, Quận 1, Hồ Chí Minh, Việt Nam",
        "country_code": "VNM",
        "country_name": "Việt Nam",
        "city": "Hồ Chí Minh",
        "district": "Quận 1",
        "ward": "Phường Bến Nghé",
        "street": "Đường Đồng Khởi",
        "postal_code": "71006",
        "categories": [
            {
                "name": "Quần áo & Phụ kiện"
            }
        ]
    },
    {
        "name": "Cửa Hàng Diva Silk",
        "latitude": 10.77686,
        "longitude": 106.70231,
        "address": "Cửa Hàng Diva Silk, 144 Đường Đồng Khởi, Phường Bến Nghé, Quận 1, Hồ Chí Minh, Việt Nam",
        "country_code": "VNM",
        "country_name": "Việt Nam",
        "city": "Hồ Chí Minh",
        "district": "Quận 1",
        "ward": "Phường Bến Nghé",
        "street": "Đường Đồng Khởi",
        "postal_code": "71006",
        "categories": [
            {
                "name": "Quần áo & Phụ kiện"
            },
            {
                "name": "Cửa hàng chuyên một loại quần áo"
            },
            {
                "name": "Quà tặng, đồ cổ và tác phẩm nghệ thuật"
            }
        ]
    },
    {
        "name": "Puma Parkson Le Thanh Ton",
        "latitude": 10.77706,
        "longitude": 106.70209,
        "address": "Puma Parkson Le Thanh Ton, Đường Đồng Khởi, Phường Bến Nghé, Quận 1, Hồ Chí Minh, Việt Nam",
        "country_code": "VNM",
        "country_name": "Việt Nam",
        "city": "Hồ Chí Minh",
        "district": "Quận 1",
        "ward": "Phường Bến Nghé",
        "street": "Đường Đồng Khởi",
        "postal_code": "71006",
        "categories": [
            {
                "name": "Cửa hàng dụng cụ thể thao"
            },
            {
                "name": "Quần áo & Phụ kiện"
            }
        ]
    },
    {
        "name": "Cửa Hàng Thời Trang Signature",
        "latitude": 10.77719,
        "longitude": 106.70194,
        "address": "Cửa Hàng Thời Trang Signature, 154 Đường Đồng Khởi, Phường Bến Nghé, Quận 1, Hồ Chí Minh, Việt Nam",
        "country_code": "VNM",
        "country_name": "Việt Nam",
        "city": "Hồ Chí Minh",
        "district": "Quận 1",
        "ward": "Phường Bến Nghé",
        "street": "Đường Đồng Khởi",
        "postal_code": "71006",
        "categories": [
            {
                "name": "Quần áo & Phụ kiện"
            }
        ]
    },
    {
        "name": "Thời Trang Hermes",
        "latitude": 10.77683,
        "longitude": 106.70221,
        "address": "Thời Trang Hermes, Đường Đồng Khởi, Phường Bến Nghé, Quận 1, Hồ Chí Minh, Việt Nam",
        "country_code": "VNM",
        "country_name": "Việt Nam",
        "city": "Hồ Chí Minh",
        "district": "Quận 1",
        "ward": "Phường Bến Nghé",
        "street": "Đường Đồng Khởi",
        "postal_code": "71006",
        "categories": [
            {
                "name": "Cửa hàng chuyên dụng"
            },
            {
                "name": "Quần áo & Phụ kiện"
            }
        ]
    },
    {
        "name": "H. E By Mango",
        "latitude": 10.7768,
        "longitude": 106.70224,
        "address": "H. E By Mango, Đường Đồng Khởi, Phường Bến Nghé, Quận 1, Hồ Chí Minh, Việt Nam",
        "country_code": "VNM",
        "country_name": "Việt Nam",
        "city": "Hồ Chí Minh",
        "district": "Quận 1",
        "ward": "Phường Bến Nghé",
        "street": "Đường Đồng Khởi",
        "postal_code": "71006",
        "categories": [
            {
                "name": "Quần áo & Phụ kiện"
            },
            {
                "name": "Quần áo nam"
            }
        ]
    },
    {
        "name": "Cửa Hàng Nước Hoa Purfume World",
        "latitude": 10.7768,
        "longitude": 106.70224,
        "address": "Cửa Hàng Nước Hoa Purfume World, Đường Đồng Khởi, Phường Bến Nghé, Quận 1, Hồ Chí Minh, Việt Nam",
        "country_code": "VNM",
        "country_name": "Việt Nam",
        "city": "Hồ Chí Minh",
        "district": "Quận 1",
        "ward": "Phường Bến Nghé",
        "street": "Đường Đồng Khởi",
        "postal_code": "71006",
        "categories": [
            {
                "name": "Quần áo & Phụ kiện"
            },
            {
                "name": "Quần áo phụ nữ"
            }
        ]
    },
    {
        "name": "Hugo Boss",
        "latitude": 10.7768,
        "longitude": 106.70224,
        "address": "Hugo Boss, Đường Đồng Khởi, Phường Bến Nghé, Quận 1, Hồ Chí Minh, Việt Nam",
        "country_code": "VNM",
        "country_name": "Việt Nam",
        "city": "Hồ Chí Minh",
        "district": "Quận 1",
        "ward": "Phường Bến Nghé",
        "street": "Đường Đồng Khởi",
        "postal_code": "71006",
        "categories": [
            {
                "name": "Quần áo & Phụ kiện"
            },
            {
                "name": "Quần áo nam"
            }
        ]
    },
    {
        "name": "Tommy Hilfiger",
        "latitude": 10.7768,
        "longitude": 106.70224,
        "address": "Tommy Hilfiger, Đường Đồng Khởi, Phường Bến Nghé, Quận 1, Hồ Chí Minh, Việt Nam",
        "country_code": "VNM",
        "country_name": "Việt Nam",
        "city": "Hồ Chí Minh",
        "district": "Quận 1",
        "ward": "Phường Bến Nghé",
        "street": "Đường Đồng Khởi",
        "postal_code": "71006",
        "categories": [
            {
                "name": "Quần áo & Phụ kiện"
            },
            {
                "name": "Quần áo phụ nữ"
            }
        ]
    },
    {
        "name": "Calvin Klein Underwear",
        "latitude": 10.7768,
        "longitude": 106.70224,
        "address": "Calvin Klein Underwear, Đường Đồng Khởi, Phường Bến Nghé, Quận 1, Hồ Chí Minh, Việt Nam",
        "country_code": "VNM",
        "country_name": "Việt Nam",
        "city": "Hồ Chí Minh",
        "district": "Quận 1",
        "ward": "Phường Bến Nghé",
        "street": "Đường Đồng Khởi",
        "postal_code": "71006",
        "categories": [
            {
                "name": "Quần áo & Phụ kiện"
            },
            {
                "name": "Quần áo nam"
            },
            {
                "name": "Quần áo phụ nữ"
            },
            {
                "name": "Cửa hàng chuyên một loại quần áo"
            },
            {
                "name": "Cửa hàng chuyên dụng"
            }
        ]
    },
    {
        "name": "Toonstore",
        "latitude": 10.7768,
        "longitude": 106.70224,
        "address": "Toonstore, Đường Đồng Khởi, Phường Bến Nghé, Quận 1, Hồ Chí Minh, Việt Nam",
        "country_code": "VNM",
        "country_name": "Việt Nam",
        "city": "Hồ Chí Minh",
        "district": "Quận 1",
        "ward": "Phường Bến Nghé",
        "street": "Đường Đồng Khởi",
        "postal_code": "71006",
        "categories": [
            {
                "name": "Quần áo & Phụ kiện"
            },
            {
                "name": "Cửa hàng chuyên dụng"
            }
        ]
    },
    {
        "name": "Cutiland",
        "latitude": 10.7768,
        "longitude": 106.70224,
        "address": "Cutiland, Đường Đồng Khởi, Phường Bến Nghé, Quận 1, Hồ Chí Minh, Việt Nam",
        "country_code": "VNM",
        "country_name": "Việt Nam",
        "city": "Hồ Chí Minh",
        "district": "Quận 1",
        "ward": "Phường Bến Nghé",
        "street": "Đường Đồng Khởi",
        "postal_code": "71006",
        "categories": [
            {
                "name": "Quần áo & Phụ kiện"
            }
        ]
    },
    {
        "name": "Johnston & Murphy",
        "latitude": 10.7768,
        "longitude": 106.70224,
        "address": "Johnston & Murphy, Đường Đồng Khởi, Phường Bến Nghé, Quận 1, Hồ Chí Minh, Việt Nam",
        "country_code": "VNM",
        "country_name": "Việt Nam",
        "city": "Hồ Chí Minh",
        "district": "Quận 1",
        "ward": "Phường Bến Nghé",
        "street": "Đường Đồng Khởi",
        "postal_code": "71006",
        "categories": [
            {
                "name": "Quần áo & Phụ kiện"
            },
            {
                "name": "Giày dép"
            }
        ]
    },
    {
        "name": "Brooks Brothers",
        "latitude": 10.7768,
        "longitude": 106.70224,
        "address": "Brooks Brothers, Đường Đồng Khởi, Phường Bến Nghé, Quận 1, Hồ Chí Minh, Việt Nam",
        "country_code": "VNM",
        "country_name": "Việt Nam",
        "city": "Hồ Chí Minh",
        "district": "Quận 1",
        "ward": "Phường Bến Nghé",
        "street": "Đường Đồng Khởi",
        "postal_code": "71006",
        "categories": [
            {
                "name": "Quần áo & Phụ kiện"
            },
            {
                "name": "Quần áo nam"
            },
            {
                "name": "Quần áo phụ nữ"
            },
            {
                "name": "Quần áo trẻ em"
            },
            {
                "name": "Giày dép"
            }
        ]
    },
    {
        "name": "Disney",
        "latitude": 10.7768,
        "longitude": 106.70224,
        "address": "Disney, Đường Đồng Khởi, Phường Bến Nghé, Quận 1, Hồ Chí Minh, Việt Nam",
        "country_code": "VNM",
        "country_name": "Việt Nam",
        "city": "Hồ Chí Minh",
        "district": "Quận 1",
        "ward": "Phường Bến Nghé",
        "street": "Đường Đồng Khởi",
        "postal_code": "71006",
        "categories": [
            {
                "name": "Quần áo & Phụ kiện"
            },
            {
                "name": "Cửa hàng chuyên dụng"
            }
        ]
    },
    {
        "name": "Shooz",
        "latitude": 10.7768,
        "longitude": 106.70224,
        "address": "Shooz, Đường Đồng Khởi, Phường Bến Nghé, Quận 1, Hồ Chí Minh, Việt Nam",
        "country_code": "VNM",
        "country_name": "Việt Nam",
        "city": "Hồ Chí Minh",
        "district": "Quận 1",
        "ward": "Phường Bến Nghé",
        "street": "Đường Đồng Khởi",
        "postal_code": "71006",
        "categories": [
            {
                "name": "Quần áo & Phụ kiện"
            }
        ]
    },
    {
        "name": "7 For All Mankind",
        "latitude": 10.7768,
        "longitude": 106.70224,
        "address": "7 For All Mankind, Đường Đồng Khởi, Phường Bến Nghé, Quận 1, Hồ Chí Minh, Việt Nam",
        "country_code": "VNM",
        "country_name": "Việt Nam",
        "city": "Hồ Chí Minh",
        "district": "Quận 1",
        "ward": "Phường Bến Nghé",
        "street": "Đường Đồng Khởi",
        "postal_code": "71006",
        "categories": [
            {
                "name": "Quần áo & Phụ kiện"
            },
            {
                "name": "Quần áo nam"
            },
            {
                "name": "Quần áo phụ nữ"
            },
            {
                "name": "Quần áo trẻ em"
            }
        ]
    },
    {
        "name": "Bottega Veneta",
        "latitude": 10.7768,
        "longitude": 106.70224,
        "address": "Bottega Veneta, Đường Đồng Khởi, Phường Bến Nghé, Quận 1, Hồ Chí Minh, Việt Nam",
        "country_code": "VNM",
        "country_name": "Việt Nam",
        "city": "Hồ Chí Minh",
        "district": "Quận 1",
        "ward": "Phường Bến Nghé",
        "street": "Đường Đồng Khởi",
        "postal_code": "71006",
        "categories": [
            {
                "name": "Quần áo & Phụ kiện"
            }
        ]
    },
    {
        "name": "Christopher Guy & Pasaya",
        "latitude": 10.7768,
        "longitude": 106.70224,
        "address": "Christopher Guy & Pasaya, Đường Đồng Khởi, Phường Bến Nghé, Quận 1, Hồ Chí Minh, Việt Nam",
        "country_code": "VNM",
        "country_name": "Việt Nam",
        "city": "Hồ Chí Minh",
        "district": "Quận 1",
        "ward": "Phường Bến Nghé",
        "street": "Đường Đồng Khởi",
        "postal_code": "71006",
        "categories": [
            {
                "name": "Cửa hàng bán đồ gia dụng/Nội thất"
            },
            {
                "name": "Phụ kiện nội thất và gia đình"
            },
            {
                "name": "Quần áo & Phụ kiện"
            },
            {
                "name": "Quần áo nam"
            }
        ]
    },
    {
        "name": "Carlorino",
        "latitude": 10.7768,
        "longitude": 106.70224,
        "address": "Carlorino, Đường Đồng Khởi, Phường Bến Nghé, Quận 1, Hồ Chí Minh, Việt Nam",
        "country_code": "VNM",
        "country_name": "Việt Nam",
        "city": "Hồ Chí Minh",
        "district": "Quận 1",
        "ward": "Phường Bến Nghé",
        "street": "Đường Đồng Khởi",
        "postal_code": "71006",
        "categories": [
            {
                "name": "Cửa hàng chuyên dụng"
            },
            {
                "name": "Cửa hàng bách hóa"
            },
            {
                "name": "Quần áo & Phụ kiện"
            },
            {
                "name": "Quần áo phụ nữ"
            }
        ]
    },
    {
        "name": "Vercase Jeans",
        "latitude": 10.7768,
        "longitude": 106.70224,
        "address": "Vercase Jeans, Đường Đồng Khởi, Phường Bến Nghé, Quận 1, Hồ Chí Minh, Việt Nam",
        "country_code": "VNM",
        "country_name": "Việt Nam",
        "city": "Hồ Chí Minh",
        "district": "Quận 1",
        "ward": "Phường Bến Nghé",
        "street": "Đường Đồng Khởi",
        "postal_code": "71006",
        "categories": [
            {
                "name": "Quần áo & Phụ kiện"
            },
            {
                "name": "Cửa hàng chuyên dụng"
            }
        ]
    },
    {
        "name": "DIESEL",
        "latitude": 10.7768,
        "longitude": 106.70224,
        "address": "DIESEL, Đường Đồng Khởi, Phường Bến Nghé, Quận 1, Hồ Chí Minh, Việt Nam",
        "country_code": "VNM",
        "country_name": "Việt Nam",
        "city": "Hồ Chí Minh",
        "district": "Quận 1",
        "ward": "Phường Bến Nghé",
        "street": "Đường Đồng Khởi",
        "postal_code": "71006",
        "categories": [
            {
                "name": "Quần áo & Phụ kiện"
            },
            {
                "name": "Quần áo nam"
            }
        ]
    },
    {
        "name": "Ralph Lauren",
        "latitude": 10.7768,
        "longitude": 106.70224,
        "address": "Ralph Lauren, Đường Đồng Khởi, Phường Bến Nghé, Quận 1, Hồ Chí Minh, Việt Nam",
        "country_code": "VNM",
        "country_name": "Việt Nam",
        "city": "Hồ Chí Minh",
        "district": "Quận 1",
        "ward": "Phường Bến Nghé",
        "street": "Đường Đồng Khởi",
        "postal_code": "71006",
        "categories": [
            {
                "name": "Quần áo nam"
            },
            {
                "name": "Quần áo & Phụ kiện"
            },
            {
                "name": "Quần áo phụ nữ"
            },
            {
                "name": "Quần áo trẻ em"
            }
        ]
    },
    {
        "name": "Mont Blanc",
        "latitude": 10.7768,
        "longitude": 106.70224,
        "address": "Mont Blanc, Đường Đồng Khởi, Phường Bến Nghé, Quận 1, Hồ Chí Minh, Việt Nam",
        "country_code": "VNM",
        "country_name": "Việt Nam",
        "city": "Hồ Chí Minh",
        "district": "Quận 1",
        "ward": "Phường Bến Nghé",
        "street": "Đường Đồng Khởi",
        "postal_code": "71006",
        "categories": [
            {
                "name": "Cửa hàng chuyên dụng"
            },
            {
                "name": "Quần áo & Phụ kiện"
            }
        ]
    },
    {
        "name": "Miluxe",
        "latitude": 10.7768,
        "longitude": 106.70224,
        "address": "Miluxe, Đường Đồng Khởi, Phường Bến Nghé, Quận 1, Hồ Chí Minh, Việt Nam",
        "country_code": "VNM",
        "country_name": "Việt Nam",
        "city": "Hồ Chí Minh",
        "district": "Quận 1",
        "ward": "Phường Bến Nghé",
        "street": "Đường Đồng Khởi",
        "postal_code": "71006",
        "categories": [
            {
                "name": "Quần áo & Phụ kiện"
            }
        ]
    },
    {
        "name": "F.O.S",
        "latitude": 10.7768,
        "longitude": 106.70224,
        "address": "F.O.S, Đường Đồng Khởi, Phường Bến Nghé, Quận 1, Hồ Chí Minh, Việt Nam",
        "country_code": "VNM",
        "country_name": "Việt Nam",
        "city": "Hồ Chí Minh",
        "district": "Quận 1",
        "ward": "Phường Bến Nghé",
        "street": "Đường Đồng Khởi",
        "postal_code": "71006",
        "categories": [
            {
                "name": "Quần áo & Phụ kiện"
            }
        ]
    },
    {
        "name": "Ermenegildo Zegna",
        "latitude": 10.7768,
        "longitude": 106.70224,
        "address": "Ermenegildo Zegna, Đường Đồng Khởi, Phường Bến Nghé, Quận 1, Hồ Chí Minh, Việt Nam",
        "country_code": "VNM",
        "country_name": "Việt Nam",
        "city": "Hồ Chí Minh",
        "district": "Quận 1",
        "ward": "Phường Bến Nghé",
        "street": "Đường Đồng Khởi",
        "postal_code": "71006",
        "categories": [
            {
                "name": "Quần áo & Phụ kiện"
            },
            {
                "name": "Quần áo nam"
            }
        ]
    },
    {
        "name": "Pink Sun Fashion-Psf",
        "latitude": 10.7768,
        "longitude": 106.70224,
        "address": "Pink Sun Fashion-Psf, Đường Đồng Khởi, Phường Bến Nghé, Quận 1, Hồ Chí Minh, Việt Nam",
        "country_code": "VNM",
        "country_name": "Việt Nam",
        "city": "Hồ Chí Minh",
        "district": "Quận 1",
        "ward": "Phường Bến Nghé",
        "street": "Đường Đồng Khởi",
        "postal_code": "71006",
        "categories": [
            {
                "name": "Quần áo & Phụ kiện"
            },
            {
                "name": "Quần áo trẻ em"
            }
        ]
    },
    {
        "name": "Dior",
        "latitude": 10.7768,
        "longitude": 106.70224,
        "address": "Dior, Đường Đồng Khởi, Phường Bến Nghé, Quận 1, Hồ Chí Minh, Việt Nam",
        "country_code": "VNM",
        "country_name": "Việt Nam",
        "city": "Hồ Chí Minh",
        "district": "Quận 1",
        "ward": "Phường Bến Nghé",
        "street": "Đường Đồng Khởi",
        "postal_code": "71006",
        "categories": [
            {
                "name": "Cửa hàng chuyên dụng"
            },
            {
                "name": "Quần áo & Phụ kiện"
            },
            {
                "name": "Hàng tiêu dùng"
            }
        ]
    },
    {
        "name": "Cửa Hàng Thời Trang Mi Silk",
        "latitude": 10.77667,
        "longitude": 106.70239,
        "address": "Cửa Hàng Thời Trang Mi Silk, 181 Đường Đồng Khởi, Phường Bến Nghé, Quận 1, Hồ Chí Minh, Việt Nam",
        "country_code": "VNM",
        "country_name": "Việt Nam",
        "city": "Hồ Chí Minh",
        "district": "Quận 1",
        "ward": "Phường Bến Nghé",
        "street": "Đường Đồng Khởi",
        "postal_code": "71006",
        "categories": [
            {
                "name": "Quần áo & Phụ kiện"
            }
        ]
    }
]
