[
    {
        "name": "Parkson Lê Thánh Tôn Q1",
        "latitude": 10.77758,
        "longitude": 106.7024,
        "address": "Parkson Lê Thánh Tôn Q1, 152 Đường Lê Thánh Tôn, Phường Bến Nghé, Quận 1, Hồ Chí Minh, Việt Nam",
        "country_code": "VNM",
        "country_name": "Việt Nam",
        "city": "Hồ Chí Minh",
        "district": "Quận 1",
        "ward": "Phường Bến Nghé",
        "street": "Đường Lê Thánh Tôn",
        "postal_code": "71006",
        "categories": [
            {
                "name": "Cửa hàng bách hóa"
            },
            {
                "name": "Hàng tiêu dùng"
            },
            {
                "name": "Dụng cụ văn phòng và dịch vụ"
            },
            {
                "name": "Cửa hàng chuyên dụng"
            },
            {
                "name": "Quà tặng, đồ cổ và tác phẩm nghệ thuật"
            },
            {
                "name": "Doanh nghiệp"
            }
        ]
    },
    {
        "name": "Cửa Hàng Hoàng Ly",
        "latitude": 10.77751,
        "longitude": 106.70229,
        "address": "Cửa Hàng Hoàng Ly, Đường Lê Thánh Tôn, Phường Bến Nghé, Quận 1, Hồ Chí Minh, Việt Nam",
        "country_code": "VNM",
        "country_name": "Việt Nam",
        "city": "Hồ Chí Minh",
        "district": "Quận 1",
        "ward": "Phường Bến Nghé",
        "street": "Đường Lê Thánh Tôn",
        "postal_code": "71006",
        "categories": [
            {
                "name": "Cửa hàng chuyên dụng"
            },
            {
                "name": "Đặc sản & Đồ uống"
            },
            {
                "name": "Quần áo & Phụ kiện"
            },
            {
                "name": "Hoa & Đồ trang sức"
            },
            {
                "name": "Thợ kim hoàn"
            },
            {
                "name": "Doanh nghiệp"
            }
        ]
    },
    {
        "name": "Trung Tâm TDTT Cao Cấp Elite",
        "latitude": 10.77779,
        "longitude": 106.70229,
        "address": "Trung Tâm TDTT Cao Cấp Elite, Lê Thánh Tôn, Phường Bến Nghé, Quận 1, Hồ Chí Minh, Việt Nam",
        "country_code": "VNM",
        "country_name": "Việt Nam",
        "city": "Hồ Chí Minh",
        "district": "Quận 1",
        "ward": "Phường Bến Nghé",
        "street": "Lê Thánh Tôn",
        "postal_code": "71006",
        "categories": [
            {
                "name": "Cơ sở hoặc địa điểm thể thao"
            },
            {
                "name": "Doanh nghiệp"
            },
            {
                "name": "Câu lạc bộ thể dục hoặc sức khỏe"
            }
        ]
    },
    {
        "name": "MTV Chứng Khoán Maybank Kim Eng",
        "latitude": 10.77796,
        "longitude": 106.70225,
        "address": "MTV Chứng Khoán Maybank Kim Eng, Đường Lê Thánh Tôn, Phường Bến Nghé, Quận 1, Hồ Chí Minh, Việt Nam",
        "country_code": "VNM",
        "country_name": "Việt Nam",
        "city": "Hồ Chí Minh",
        "district": "Quận 1",
        "ward": "Phường Bến Nghé",
        "street": "Đường Lê Thánh Tôn",
        "postal_code": "71006",
        "categories": [
            {
                "name": "Doanh nghiệp"
            }
        ]
    },
    {
        "name": "Tòa Nhà Saigon Tourist",
        "latitude": 10.77828,
        "longitude": 106.70299,
        "address": "Tòa Nhà Saigon Tourist, 45 Đường Lê Thánh Tôn, Phường Bến Nghé, Quận 1, Hồ Chí Minh, Việt Nam",
        "country_code": "VNM",
        "country_name": "Việt Nam",
        "city": "Hồ Chí Minh",
        "district": "Quận 1",
        "ward": "Phường Bến Nghé",
        "street": "Đường Lê Thánh Tôn",
        "postal_code": "71006",
        "categories": [
            {
                "name": "Doanh nghiệp"
            },
            {
                "name": "Điểm thu hút Khách du lịch"
            },
            {
                "name": "Dịch vụ vận chuyển"
            },
            {
                "name": "Dịch vụ ngoài trời"
            },
            {
                "name": "Dịch vụ ăn uống và thực phẩm"
            },
            {
                "name": "Dịch vụ cho thuê"
            },
            {
                "name": "Dịch vụ khách hàng"
            },
            {
                "name": "Đại lý du lịch & Vé"
            },
            {
                "name": "Dịch vụ kinh doanh"
            },
            {
                "name": "Thông tin du khách"
            },
            {
                "name": "Đào tạo & Phát triển"
            },
            {
                "name": "Khu hướng dẫn hoặc trại huấn luyện thể thao"
            }
        ]
    },
    {
        "name": "Green Save Vn",
        "latitude": 10.77836,
        "longitude": 106.70299,
        "address": "Green Save Vn, Đường Hai Bà Trưng, Phường Bến Nghé, Quận 1, Hồ Chí Minh, Việt Nam",
        "country_code": "VNM",
        "country_name": "Việt Nam",
        "city": "Hồ Chí Minh",
        "district": "Quận 1",
        "ward": "Phường Bến Nghé",
        "street": "Đường Hai Bà Trưng",
        "postal_code": "71006",
        "categories": [
            {
                "name": "Doanh nghiệp"
            }
        ]
    },
    {
        "name": "Công Ty In Trần Phú",
        "latitude": 10.77832,
        "longitude": 106.70331,
        "address": "Công Ty In Trần Phú, 74 Đường Hai Bà Trưng, Phường Bến Nghé, Quận 1, Hồ Chí Minh, Việt Nam",
        "country_code": "VNM",
        "country_name": "Việt Nam",
        "city": "Hồ Chí Minh",
        "district": "Quận 1",
        "ward": "Phường Bến Nghé",
        "street": "Đường Hai Bà Trưng",
        "postal_code": "71006",
        "categories": [
            {
                "name": "Doanh nghiệp"
            },
            {
                "name": "Đặc sản & Đồ uống"
            },
            {
                "name": "Quần áo & Phụ kiện"
            },
            {
                "name": "Hàng tiêu dùng"
            },
            {
                "name": "Dụng cụ văn phòng và dịch vụ"
            },
            {
                "name": "Quà tặng, đồ cổ và tác phẩm nghệ thuật"
            },
            {
                "name": "Cắt tóc & Tạo mẫu"
            },
            {
                "name": "Dịch vụ nông nghiệp"
            },
            {
                "name": "Cơ quan và tổ chức"
            },
            {
                "name": "In ấn & Xuất bản"
            },
            {
                "name": "Dịch vụ kinh doanh"
            },
            {
                "name": "Dịch vụ xã hội"
            }
        ]
    },
    {
        "name": "PK Vinmec Đồng Khởi CN Lê Thánh Tôn",
        "latitude": 10.77755,
        "longitude": 106.70189,
        "address": "PK Vinmec Đồng Khởi CN Lê Thánh Tôn, Đường Lê Thánh Tôn, Phường Bến Nghé, Quận 1, Hồ Chí Minh, Việt Nam",
        "country_code": "VNM",
        "country_name": "Việt Nam",
        "city": "Hồ Chí Minh",
        "district": "Quận 1",
        "ward": "Phường Bến Nghé",
        "street": "Đường Lê Thánh Tôn",
        "postal_code": "71006",
        "categories": [
            {
                "name": "Doanh nghiệp"
            }
        ]
    },
    {
        "name": "Công Ty Cổ Phần Saigon Anpha CV Excisif Cellar",
        "latitude": 10.77784,
        "longitude": 106.70375,
        "address": "Công Ty Cổ Phần Saigon Anpha CV Excisif Cellar, Đường Hai Bà Trưng, Phường Bến Nghé, Quận 1, Hồ Chí Minh, Việt Nam",
        "country_code": "VNM",
        "country_name": "Việt Nam",
        "city": "Hồ Chí Minh",
        "district": "Quận 1",
        "ward": "Phường Bến Nghé",
        "street": "Đường Hai Bà Trưng",
        "postal_code": "71006",
        "categories": [
            {
                "name": "Doanh nghiệp"
            }
        ]
    },
    {
        "name": "Tòa Nhà Medical Center",
        "latitude": 10.77703,
        "longitude": 106.70198,
        "address": "Tòa Nhà Medical Center, 203 Đường Đồng Khởi, Phường Bến Nghé, Quận 1, Hồ Chí Minh, Việt Nam",
        "country_code": "VNM",
        "country_name": "Việt Nam",
        "city": "Hồ Chí Minh",
        "district": "Quận 1",
        "ward": "Phường Bến Nghé",
        "street": "Đường Đồng Khởi",
        "postal_code": "71006",
        "categories": [
            {
                "name": "Doanh nghiệp"
            }
        ]
    },
    {
        "name": "Công Ty Trách Nhiệm Hữu Hạn Đa Lộc Phương Nam",
        "latitude": 10.77852,
        "longitude": 106.70313,
        "address": "Công Ty Trách Nhiệm Hữu Hạn Đa Lộc Phương Nam, Đường Hai Bà Trưng, Phường Bến Nghé, Quận 1, Hồ Chí Minh, Việt Nam",
        "country_code": "VNM",
        "country_name": "Việt Nam",
        "city": "Hồ Chí Minh",
        "district": "Quận 1",
        "ward": "Phường Bến Nghé",
        "street": "Đường Hai Bà Trưng",
        "postal_code": "71006",
        "categories": [
            {
                "name": "Doanh nghiệp"
            }
        ]
    },
    {
        "name": "Công Ty Trách Nhiệm Hữu Hạn Dịch Vụ Một Thành Viên Hoa Lâm Đồng Khởi",
        "latitude": 10.77671,
        "longitude": 106.70215,
        "address": "Công Ty Trách Nhiệm Hữu Hạn Dịch Vụ Một Thành Viên Hoa Lâm Đồng Khởi, Đường Đồng Khởi, Phường Bến Nghé, Quận 1, Hồ Chí Minh, Việt Nam",
        "country_code": "VNM",
        "country_name": "Việt Nam",
        "city": "Hồ Chí Minh",
        "district": "Quận 1",
        "ward": "Phường Bến Nghé",
        "street": "Đường Đồng Khởi",
        "postal_code": "71006",
        "categories": [
            {
                "name": "Doanh nghiệp"
            },
            {
                "name": "Bác sĩ đa khoa"
            }
        ]
    },
    {
        "name": "Công Ty TNHH Khắc Dấu Phước Việt",
        "latitude": 10.77866,
        "longitude": 106.70313,
        "address": "Công Ty TNHH Khắc Dấu Phước Việt, 31B Đường Lê Thánh Tôn, Phường Bến Nghé, Quận 1, Hồ Chí Minh, Việt Nam",
        "country_code": "VNM",
        "country_name": "Việt Nam",
        "city": "Hồ Chí Minh",
        "district": "Quận 1",
        "ward": "Phường Bến Nghé",
        "street": "Đường Lê Thánh Tôn",
        "postal_code": "71006",
        "categories": [
            {
                "name": "Doanh nghiệp"
            }
        ]
    },
    {
        "name": "Hợp Tác Xã Thương Mại Dịch Vụ Bến Nghé",
        "latitude": 10.77874,
        "longitude": 106.7029,
        "address": "Hợp Tác Xã Thương Mại Dịch Vụ Bến Nghé, 62 Đường Lê Thánh Tôn, Phường Bến Nghé, Quận 1, Hồ Chí Minh, Việt Nam",
        "country_code": "VNM",
        "country_name": "Việt Nam",
        "city": "Hồ Chí Minh",
        "district": "Quận 1",
        "ward": "Phường Bến Nghé",
        "street": "Đường Lê Thánh Tôn",
        "postal_code": "71006",
        "categories": [
            {
                "name": "Doanh nghiệp"
            }
        ]
    },
    {
        "name": "Ubiquest",
        "latitude": 10.77639,
        "longitude": 106.70296,
        "address": "Ubiquest, Đường Đồng Khởi, Phường Bến Nghé, Quận 1, Hồ Chí Minh, Việt Nam",
        "country_code": "VNM",
        "country_name": "Việt Nam",
        "city": "Hồ Chí Minh",
        "district": "Quận 1",
        "ward": "Phường Bến Nghé",
        "street": "Đường Đồng Khởi",
        "postal_code": "71006",
        "categories": [
            {
                "name": "Doanh nghiệp"
            }
        ]
    },
    {
        "name": "Công Ty Trách Nhiệm Hữu Hạn Vòng Tròn Đỏ",
        "latitude": 10.77734,
        "longitude": 106.70408,
        "address": "Công Ty Trách Nhiệm Hữu Hạn Vòng Tròn Đỏ, Công Trường Lam Sơn, Phường Bến Nghé, Quận 1, Hồ Chí Minh, Việt Nam",
        "country_code": "VNM",
        "country_name": "Việt Nam",
        "city": "Hồ Chí Minh",
        "district": "Quận 1",
        "ward": "Phường Bến Nghé",
        "street": "Công Trường Lam Sơn",
        "postal_code": "71006",
        "categories": [
            {
                "name": "Doanh nghiệp"
            }
        ]
    },
    {
        "name": "Saigon Hash House Harriers",
        "latitude": 10.77655,
        "longitude": 106.70359,
        "address": "Saigon Hash House Harriers, Đường Công Trường Lam Sơn, Phường Bến Nghé, Quận 1, Hồ Chí Minh, Việt Nam",
        "country_code": "VNM",
        "country_name": "Việt Nam",
        "city": "Hồ Chí Minh",
        "district": "Quận 1",
        "ward": "Phường Bến Nghé",
        "street": "Đường Công Trường Lam Sơn",
        "postal_code": "71006",
        "categories": [
            {
                "name": "Doanh nghiệp"
            }
        ]
    },
    {
        "name": "Công Ty TNHH Âm Thanh Hificlub",
        "latitude": 10.77629,
        "longitude": 106.70276,
        "address": "Công Ty TNHH Âm Thanh Hificlub, Đường Đồng Khởi, Phường Bến Nghé, Quận 1, Hồ Chí Minh, Việt Nam",
        "country_code": "VNM",
        "country_name": "Việt Nam",
        "city": "Hồ Chí Minh",
        "district": "Quận 1",
        "ward": "Phường Bến Nghé",
        "street": "Đường Đồng Khởi",
        "postal_code": "71006",
        "categories": [
            {
                "name": "Doanh nghiệp"
            }
        ]
    },
    {
        "name": "Công Ty Trách Nhiệm Hữu Hạn Thương Mại Vino",
        "latitude": 10.77815,
        "longitude": 106.70407,
        "address": "Công Ty Trách Nhiệm Hữu Hạn Thương Mại Vino, Đường Cao Bá Quát, Phường Bến Nghé, Quận 1, Hồ Chí Minh, Việt Nam",
        "country_code": "VNM",
        "country_name": "Việt Nam",
        "city": "Hồ Chí Minh",
        "district": "Quận 1",
        "ward": "Phường Bến Nghé",
        "street": "Đường Cao Bá Quát",
        "postal_code": "71006",
        "categories": [
            {
                "name": "Doanh nghiệp"
            },
            {
                "name": "Rượu bia"
            }
        ]
    },
    {
        "name": "Cty Cổ Phần KD Qtế M. I. K",
        "latitude": 10.77759,
        "longitude": 106.70139,
        "address": "Cty Cổ Phần KD Qtế M. I. K, Đường Đồng Khởi, Phường Bến Nghé, Quận 1, Hồ Chí Minh, Việt Nam",
        "country_code": "VNM",
        "country_name": "Việt Nam",
        "city": "Hồ Chí Minh",
        "district": "Quận 1",
        "ward": "Phường Bến Nghé",
        "street": "Đường Đồng Khởi",
        "postal_code": "71006",
        "categories": [
            {
                "name": "Doanh nghiệp"
            }
        ]
    },
    {
        "name": "Công Ty Cổ Phần Tập Đoàn Mai Linh",
        "latitude": 10.77727,
        "longitude": 106.70421,
        "address": "Công Ty Cổ Phần Tập Đoàn Mai Linh, Đường Hai Bà Trưng, Phường Bến Nghé, Quận 1, Hồ Chí Minh, Việt Nam",
        "country_code": "VNM",
        "country_name": "Việt Nam",
        "city": "Hồ Chí Minh",
        "district": "Quận 1",
        "ward": "Phường Bến Nghé",
        "street": "Đường Hai Bà Trưng",
        "postal_code": "71006",
        "categories": [
            {
                "name": "Doanh nghiệp"
            }
        ]
    },
    {
        "name": "PK Vinmec Đồng Khởi CN Lý Tự Trọng",
        "latitude": 10.7787,
        "longitude": 106.70188,
        "address": "PK Vinmec Đồng Khởi CN Lý Tự Trọng, Đường Lý Tự Trọng, Phường Bến Nghé, Quận 1, Hồ Chí Minh, Việt Nam",
        "country_code": "VNM",
        "country_name": "Việt Nam",
        "city": "Hồ Chí Minh",
        "district": "Quận 1",
        "ward": "Phường Bến Nghé",
        "street": "Đường Lý Tự Trọng",
        "postal_code": "71006",
        "categories": [
            {
                "name": "Doanh nghiệp"
            }
        ]
    },
    {
        "name": "TLS Contact",
        "latitude": 10.7787,
        "longitude": 106.70188,
        "address": "TLS Contact, Đường Lý Tự Trọng, Phường Bến Nghé, Quận 1, Hồ Chí Minh, Việt Nam",
        "country_code": "VNM",
        "country_name": "Việt Nam",
        "city": "Hồ Chí Minh",
        "district": "Quận 1",
        "ward": "Phường Bến Nghé",
        "street": "Đường Lý Tự Trọng",
        "postal_code": "71006",
        "categories": [
            {
                "name": "Doanh nghiệp"
            },
            {
                "name": "Dịch vụ xã hội"
            }
        ]
    },
    {
        "name": "VINCOM",
        "latitude": 10.7787,
        "longitude": 106.70188,
        "address": "VINCOM, 45 Đường Lý Tự Trọng, Phường Bến Nghé, Quận 1, Hồ Chí Minh, Việt Nam",
        "country_code": "VNM",
        "country_name": "Việt Nam",
        "city": "Hồ Chí Minh",
        "district": "Quận 1",
        "ward": "Phường Bến Nghé",
        "street": "Đường Lý Tự Trọng",
        "postal_code": "71006",
        "categories": [
            {
                "name": "Trung tâm mua sắm hoặc trung tâm thương mại"
            },
            {
                "name": "Cửa hàng tiện lợi"
            },
            {
                "name": "Cửa hàng bách hóa"
            },
            {
                "name": "Quần áo & Phụ kiện"
            },
            {
                "name": "Quần áo nam"
            },
            {
                "name": "Quần áo phụ nữ"
            },
            {
                "name": "Quần áo trẻ em"
            },
            {
                "name": "Thợ kim hoàn"
            },
            {
                "name": "Cửa hàng đồ chơi"
            },
            {
                "name": "Cắt tóc & Tạo mẫu"
            },
            {
                "name": "Doanh nghiệp"
            },
            {
                "name": "Đỗ xe"
            }
        ]
    },
    {
        "name": "Tòa Nhà Opera View",
        "latitude": 10.77614,
        "longitude": 106.70295,
        "address": "Tòa Nhà Opera View, 161 Đường Đồng Khởi, Phường Bến Nghé, Quận 1, Hồ Chí Minh, Việt Nam",
        "country_code": "VNM",
        "country_name": "Việt Nam",
        "city": "Hồ Chí Minh",
        "district": "Quận 1",
        "ward": "Phường Bến Nghé",
        "street": "Đường Đồng Khởi",
        "postal_code": "71006",
        "categories": [
            {
                "name": "Doanh nghiệp"
            },
            {
                "name": "Thợ kim hoàn"
            },
            {
                "name": "Tòa nhà chung cư"
            }
        ]
    },
    {
        "name": "Cao Ốc Artex Sai Gon",
        "latitude": 10.77614,
        "longitude": 106.70295,
        "address": "Cao Ốc Artex Sai Gon, 161 Đường Đồng Khởi, Phường Bến Nghé, Quận 1, Hồ Chí Minh, Việt Nam",
        "country_code": "VNM",
        "country_name": "Việt Nam",
        "city": "Hồ Chí Minh",
        "district": "Quận 1",
        "ward": "Phường Bến Nghé",
        "street": "Đường Đồng Khởi",
        "postal_code": "71006",
        "categories": [
            {
                "name": "Doanh nghiệp"
            }
        ]
    },
    {
        "name": "Office Và Retail For Lease",
        "latitude": 10.77684,
        "longitude": 106.70153,
        "address": "Office Và Retail For Lease, Đường Lê Thánh Tôn, Phường Bến Nghé, Quận 1, Hồ Chí Minh, Việt Nam",
        "country_code": "VNM",
        "country_name": "Việt Nam",
        "city": "Hồ Chí Minh",
        "district": "Quận 1",
        "ward": "Phường Bến Nghé",
        "street": "Đường Lê Thánh Tôn",
        "postal_code": "71006",
        "categories": [
            {
                "name": "Doanh nghiệp"
            }
        ]
    },
    {
        "name": "Cty TNHH Dầu Nhờn Chevron VN",
        "latitude": 10.77752,
        "longitude": 106.70132,
        "address": "Cty TNHH Dầu Nhờn Chevron VN, Đường Đồng Khởi, Phường Bến Nghé, Quận 1, Hồ Chí Minh, Việt Nam",
        "country_code": "VNM",
        "country_name": "Việt Nam",
        "city": "Hồ Chí Minh",
        "district": "Quận 1",
        "ward": "Phường Bến Nghé",
        "street": "Đường Đồng Khởi",
        "postal_code": "71006",
        "categories": [
            {
                "name": "Doanh nghiệp"
            }
        ]
    },
    {
        "name": "Công Ty Cổ Phần Nhật Hồ",
        "latitude": 10.77733,
        "longitude": 106.70428,
        "address": "Công Ty Cổ Phần Nhật Hồ, 64 Đường Hai Bà Trưng, Phường Bến Nghé, Quận 1, Hồ Chí Minh, Việt Nam",
        "country_code": "VNM",
        "country_name": "Việt Nam",
        "city": "Hồ Chí Minh",
        "district": "Quận 1",
        "ward": "Phường Bến Nghé",
        "street": "Đường Hai Bà Trưng",
        "postal_code": "71006",
        "categories": [
            {
                "name": "Doanh nghiệp"
            }
        ]
    },
    {
        "name": "Tập Đoàn Mai Linh",
        "latitude": 10.77733,
        "longitude": 106.70428,
        "address": "Tập Đoàn Mai Linh, 64 Đường Hai Bà Trưng, Phường Bến Nghé, Quận 1, Hồ Chí Minh, Việt Nam",
        "country_code": "VNM",
        "country_name": "Việt Nam",
        "city": "Hồ Chí Minh",
        "district": "Quận 1",
        "ward": "Phường Bến Nghé",
        "street": "Đường Hai Bà Trưng",
        "postal_code": "71006",
        "categories": [
            {
                "name": "Doanh nghiệp"
            },
            {
                "name": "Dịch vụ vận chuyển"
            },
            {
                "name": "Vận tải hàng"
            },
            {
                "name": "Đại lý du lịch & Vé"
            },
            {
                "name": "Dịch vụ kinh doanh"
            }
        ]
    },
    {
        "name": "Công Ty Trách Nhiệm Hữu Hạn MTV Đỉnh Châu Á",
        "latitude": 10.77733,
        "longitude": 106.70428,
        "address": "Công Ty Trách Nhiệm Hữu Hạn MTV Đỉnh Châu Á, 64 Đường Hai Bà Trưng, Phường Bến Nghé, Quận 1, Hồ Chí Minh, Việt Nam",
        "country_code": "VNM",
        "country_name": "Việt Nam",
        "city": "Hồ Chí Minh",
        "district": "Quận 1",
        "ward": "Phường Bến Nghé",
        "street": "Đường Hai Bà Trưng",
        "postal_code": "71006",
        "categories": [
            {
                "name": "Doanh nghiệp"
            },
            {
                "name": "Dịch vụ kinh doanh"
            }
        ]
    },
    {
        "name": "Air France",
        "latitude": 10.77613,
        "longitude": 106.70313,
        "address": "Air France, 130 Đường Đồng Khởi, Phường Bến Nghé, Quận 1, Hồ Chí Minh, Việt Nam",
        "country_code": "VNM",
        "country_name": "Việt Nam",
        "city": "Hồ Chí Minh",
        "district": "Quận 1",
        "ward": "Phường Bến Nghé",
        "street": "Đường Đồng Khởi",
        "postal_code": "71006",
        "categories": [
            {
                "name": "Doanh nghiệp"
            },
            {
                "name": "Dịch vụ vận chuyển"
            }
        ]
    },
    {
        "name": "Công Ty Đầu Tư Xây Dựng Và Kinh Doanh Nhà Sài Gòn",
        "latitude": 10.77905,
        "longitude": 106.70248,
        "address": "Công Ty Đầu Tư Xây Dựng Và Kinh Doanh Nhà Sài Gòn, 78 Đường Hai Bà Trưng, Phường Bến Nghé, Quận 1, Hồ Chí Minh, Việt Nam",
        "country_code": "VNM",
        "country_name": "Việt Nam",
        "city": "Hồ Chí Minh",
        "district": "Quận 1",
        "ward": "Phường Bến Nghé",
        "street": "Đường Hai Bà Trưng",
        "postal_code": "71006",
        "categories": [
            {
                "name": "Doanh nghiệp"
            },
            {
                "name": "Xây dựng"
            },
            {
                "name": "Dịch vụ kinh doanh"
            }
        ]
    },
    {
        "name": "Trung Tâm Tư Vấn Và Hợp Tác Du Học Quốc Tế",
        "latitude": 10.77743,
        "longitude": 106.70436,
        "address": "Trung Tâm Tư Vấn Và Hợp Tác Du Học Quốc Tế, Đường Hai Bà Trưng, Phường Bến Nghé, Quận 1, Hồ Chí Minh, Việt Nam",
        "country_code": "VNM",
        "country_name": "Việt Nam",
        "city": "Hồ Chí Minh",
        "district": "Quận 1",
        "ward": "Phường Bến Nghé",
        "street": "Đường Hai Bà Trưng",
        "postal_code": "71006",
        "categories": [
            {
                "name": "Doanh nghiệp"
            }
        ]
    },
    {
        "name": "Công Ty Trách Nhiệm Hữu Hạn Nước Khoáng Mai Linh",
        "latitude": 10.77743,
        "longitude": 106.70436,
        "address": "Công Ty Trách Nhiệm Hữu Hạn Nước Khoáng Mai Linh, Đường Hai Bà Trưng, Phường Bến Nghé, Quận 1, Hồ Chí Minh, Việt Nam",
        "country_code": "VNM",
        "country_name": "Việt Nam",
        "city": "Hồ Chí Minh",
        "district": "Quận 1",
        "ward": "Phường Bến Nghé",
        "street": "Đường Hai Bà Trưng",
        "postal_code": "71006",
        "categories": [
            {
                "name": "Doanh nghiệp"
            },
            {
                "name": "Đại lý du lịch & Vé"
            }
        ]
    },
    {
        "name": "Cty TNHH TMDV DL In Bao Bì Phượng Hoàng",
        "latitude": 10.77735,
        "longitude": 106.70435,
        "address": "Cty TNHH TMDV DL In Bao Bì Phượng Hoàng, Đường Hai Bà Trưng, Phường Bến Nghé, Quận 1, Hồ Chí Minh, Việt Nam",
        "country_code": "VNM",
        "country_name": "Việt Nam",
        "city": "Hồ Chí Minh",
        "district": "Quận 1",
        "ward": "Phường Bến Nghé",
        "street": "Đường Hai Bà Trưng",
        "postal_code": "71006",
        "categories": [
            {
                "name": "Doanh nghiệp"
            },
            {
                "name": "Đại lý du lịch & Vé"
            }
        ]
    },
    {
        "name": "Materia Medical Holding",
        "latitude": 10.77735,
        "longitude": 106.70435,
        "address": "Materia Medical Holding, Đường Hai Bà Trưng, Phường Bến Nghé, Quận 1, Hồ Chí Minh, Việt Nam",
        "country_code": "VNM",
        "country_name": "Việt Nam",
        "city": "Hồ Chí Minh",
        "district": "Quận 1",
        "ward": "Phường Bến Nghé",
        "street": "Đường Hai Bà Trưng",
        "postal_code": "71006",
        "categories": [
            {
                "name": "Doanh nghiệp"
            }
        ]
    },
    {
        "name": "Ja&Partners Investment Consulting",
        "latitude": 10.77735,
        "longitude": 106.70435,
        "address": "Ja&Partners Investment Consulting, Đường Hai Bà Trưng, Phường Bến Nghé, Quận 1, Hồ Chí Minh, Việt Nam",
        "country_code": "VNM",
        "country_name": "Việt Nam",
        "city": "Hồ Chí Minh",
        "district": "Quận 1",
        "ward": "Phường Bến Nghé",
        "street": "Đường Hai Bà Trưng",
        "postal_code": "71006",
        "categories": [
            {
                "name": "Doanh nghiệp"
            }
        ]
    },
    {
        "name": "Vamp Hair Line",
        "latitude": 10.77735,
        "longitude": 106.70435,
        "address": "Vamp Hair Line, Đường Hai Bà Trưng, Phường Bến Nghé, Quận 1, Hồ Chí Minh, Việt Nam",
        "country_code": "VNM",
        "country_name": "Việt Nam",
        "city": "Hồ Chí Minh",
        "district": "Quận 1",
        "ward": "Phường Bến Nghé",
        "street": "Đường Hai Bà Trưng",
        "postal_code": "71006",
        "categories": [
            {
                "name": "Doanh nghiệp"
            }
        ]
    },
    {
        "name": "VPĐD Flexlink",
        "latitude": 10.77735,
        "longitude": 106.70435,
        "address": "VPĐD Flexlink, Đường Hai Bà Trưng, Phường Bến Nghé, Quận 1, Hồ Chí Minh, Việt Nam",
        "country_code": "VNM",
        "country_name": "Việt Nam",
        "city": "Hồ Chí Minh",
        "district": "Quận 1",
        "ward": "Phường Bến Nghé",
        "street": "Đường Hai Bà Trưng",
        "postal_code": "71006",
        "categories": [
            {
                "name": "Doanh nghiệp"
            }
        ]
    },
    {
        "name": "Videa Petro Fuel Co Ltd",
        "latitude": 10.77735,
        "longitude": 106.70435,
        "address": "Videa Petro Fuel Co Ltd, Đường Hai Bà Trưng, Phường Bến Nghé, Quận 1, Hồ Chí Minh, Việt Nam",
        "country_code": "VNM",
        "country_name": "Việt Nam",
        "city": "Hồ Chí Minh",
        "district": "Quận 1",
        "ward": "Phường Bến Nghé",
        "street": "Đường Hai Bà Trưng",
        "postal_code": "71006",
        "categories": [
            {
                "name": "Doanh nghiệp"
            }
        ]
    },
    {
        "name": "Allexceed Vietnam Inc",
        "latitude": 10.77735,
        "longitude": 106.70435,
        "address": "Allexceed Vietnam Inc, Đường Hai Bà Trưng, Phường Bến Nghé, Quận 1, Hồ Chí Minh, Việt Nam",
        "country_code": "VNM",
        "country_name": "Việt Nam",
        "city": "Hồ Chí Minh",
        "district": "Quận 1",
        "ward": "Phường Bến Nghé",
        "street": "Đường Hai Bà Trưng",
        "postal_code": "71006",
        "categories": [
            {
                "name": "Doanh nghiệp"
            }
        ]
    },
    {
        "name": "Oisco Hitec Việt Nam",
        "latitude": 10.77735,
        "longitude": 106.70435,
        "address": "Oisco Hitec Việt Nam, Đường Hai Bà Trưng, Phường Bến Nghé, Quận 1, Hồ Chí Minh, Việt Nam",
        "country_code": "VNM",
        "country_name": "Việt Nam",
        "city": "Hồ Chí Minh",
        "district": "Quận 1",
        "ward": "Phường Bến Nghé",
        "street": "Đường Hai Bà Trưng",
        "postal_code": "71006",
        "categories": [
            {
                "name": "Doanh nghiệp"
            }
        ]
    },
    {
        "name": "Công Ty Samitomo Forestry",
        "latitude": 10.77735,
        "longitude": 106.70435,
        "address": "Công Ty Samitomo Forestry, Đường Hai Bà Trưng, Phường Bến Nghé, Quận 1, Hồ Chí Minh, Việt Nam",
        "country_code": "VNM",
        "country_name": "Việt Nam",
        "city": "Hồ Chí Minh",
        "district": "Quận 1",
        "ward": "Phường Bến Nghé",
        "street": "Đường Hai Bà Trưng",
        "postal_code": "71006",
        "categories": [
            {
                "name": "Doanh nghiệp"
            }
        ]
    },
    {
        "name": "Tg Vina Arks Co Ltd Unit",
        "latitude": 10.77735,
        "longitude": 106.70435,
        "address": "Tg Vina Arks Co Ltd Unit, Đường Hai Bà Trưng, Phường Bến Nghé, Quận 1, Hồ Chí Minh, Việt Nam",
        "country_code": "VNM",
        "country_name": "Việt Nam",
        "city": "Hồ Chí Minh",
        "district": "Quận 1",
        "ward": "Phường Bến Nghé",
        "street": "Đường Hai Bà Trưng",
        "postal_code": "71006",
        "categories": [
            {
                "name": "Doanh nghiệp"
            }
        ]
    },
    {
        "name": "CN Cty Cổ Phần Tkế Cnghiệp Hóa Chất",
        "latitude": 10.77838,
        "longitude": 106.70145,
        "address": "CN Cty Cổ Phần Tkế Cnghiệp Hóa Chất, Đường Lý Tự Trọng, Phường Bến Nghé, Quận 1, Hồ Chí Minh, Việt Nam",
        "country_code": "VNM",
        "country_name": "Việt Nam",
        "city": "Hồ Chí Minh",
        "district": "Quận 1",
        "ward": "Phường Bến Nghé",
        "street": "Đường Lý Tự Trọng",
        "postal_code": "71006",
        "categories": [
            {
                "name": "Doanh nghiệp"
            }
        ]
    },
    {
        "name": "Công Ty CP XNK Nhiên Liệu Đông Đô",
        "latitude": 10.77715,
        "longitude": 106.70434,
        "address": "Công Ty CP XNK Nhiên Liệu Đông Đô, Đường Hai Bà Trưng, Phường Bến Nghé, Quận 1, Hồ Chí Minh, Việt Nam",
        "country_code": "VNM",
        "country_name": "Việt Nam",
        "city": "Hồ Chí Minh",
        "district": "Quận 1",
        "ward": "Phường Bến Nghé",
        "street": "Đường Hai Bà Trưng",
        "postal_code": "71006",
        "categories": [
            {
                "name": "Doanh nghiệp"
            }
        ]
    },
    {
        "name": "Lant Building",
        "latitude": 10.77724,
        "longitude": 106.70439,
        "address": "Lant Building, 56 Đường Hai Bà Trưng, Phường Bến Nghé, Quận 1, Hồ Chí Minh, Việt Nam",
        "country_code": "VNM",
        "country_name": "Việt Nam",
        "city": "Hồ Chí Minh",
        "district": "Quận 1",
        "ward": "Phường Bến Nghé",
        "street": "Đường Hai Bà Trưng",
        "postal_code": "71006",
        "categories": [
            {
                "name": "Doanh nghiệp"
            },
            {
                "name": "Hãng môi giới bất động sản"
            }
        ]
    },
    {
        "name": "Công Ty Trách Nhiệm Hữu Hạn Một Thành Viên Xuất Nhập Khẩu Ánh Sáng",
        "latitude": 10.77891,
        "longitude": 106.70372,
        "address": "Công Ty Trách Nhiệm Hữu Hạn Một Thành Viên Xuất Nhập Khẩu Ánh Sáng, Đường Thi Sách, Phường Bến Nghé, Quận 1, Hồ Chí Minh, Việt Nam",
        "country_code": "VNM",
        "country_name": "Việt Nam",
        "city": "Hồ Chí Minh",
        "district": "Quận 1",
        "ward": "Phường Bến Nghé",
        "street": "Đường Thi Sách",
        "postal_code": "71006",
        "categories": [
            {
                "name": "Doanh nghiệp"
            },
            {
                "name": "Đại lý du lịch & Vé"
            }
        ]
    },
    {
        "name": "Công Ty Chỉ Phẫu Thuật & Dụng Cụ Y Khoa",
        "latitude": 10.77712,
        "longitude": 106.70438,
        "address": "Công Ty Chỉ Phẫu Thuật & Dụng Cụ Y Khoa, 83 Đường Hai Bà Trưng, Phường Bến Nghé, Quận 1, Hồ Chí Minh, Việt Nam",
        "country_code": "VNM",
        "country_name": "Việt Nam",
        "city": "Hồ Chí Minh",
        "district": "Quận 1",
        "ward": "Phường Bến Nghé",
        "street": "Đường Hai Bà Trưng",
        "postal_code": "71006",
        "categories": [
            {
                "name": "Doanh nghiệp"
            },
            {
                "name": "Cửa hàng chuyên dụng"
            }
        ]
    },
    {
        "name": "Công Ty Dịch Vụ Xuất Nhập Khẩu Việt Phát",
        "latitude": 10.77712,
        "longitude": 106.70438,
        "address": "Công Ty Dịch Vụ Xuất Nhập Khẩu Việt Phát, 83 Đường Hai Bà Trưng, Phường Bến Nghé, Quận 1, Hồ Chí Minh, Việt Nam",
        "country_code": "VNM",
        "country_name": "Việt Nam",
        "city": "Hồ Chí Minh",
        "district": "Quận 1",
        "ward": "Phường Bến Nghé",
        "street": "Đường Hai Bà Trưng",
        "postal_code": "71006",
        "categories": [
            {
                "name": "Doanh nghiệp"
            }
        ]
    },
    {
        "name": "Dale Carnegie Vietnam",
        "latitude": 10.77736,
        "longitude": 106.70444,
        "address": "Dale Carnegie Vietnam, Đường Hai Bà Trưng, Phường Bến Nghé, Quận 1, Hồ Chí Minh, Việt Nam",
        "country_code": "VNM",
        "country_name": "Việt Nam",
        "city": "Hồ Chí Minh",
        "district": "Quận 1",
        "ward": "Phường Bến Nghé",
        "street": "Đường Hai Bà Trưng",
        "postal_code": "71006",
        "categories": [
            {
                "name": "Doanh nghiệp"
            }
        ]
    },
    {
        "name": "Hansen Hoyer Global Transport",
        "latitude": 10.77736,
        "longitude": 106.70444,
        "address": "Hansen Hoyer Global Transport, Đường Hai Bà Trưng, Phường Bến Nghé, Quận 1, Hồ Chí Minh, Việt Nam",
        "country_code": "VNM",
        "country_name": "Việt Nam",
        "city": "Hồ Chí Minh",
        "district": "Quận 1",
        "ward": "Phường Bến Nghé",
        "street": "Đường Hai Bà Trưng",
        "postal_code": "71006",
        "categories": [
            {
                "name": "Doanh nghiệp"
            }
        ]
    },
    {
        "name": "Công Ty Trách Nhiệm Hữu Hạn Tư Vấn Bắc Mỹ",
        "latitude": 10.77736,
        "longitude": 106.70444,
        "address": "Công Ty Trách Nhiệm Hữu Hạn Tư Vấn Bắc Mỹ, Đường Hai Bà Trưng, Phường Bến Nghé, Quận 1, Hồ Chí Minh, Việt Nam",
        "country_code": "VNM",
        "country_name": "Việt Nam",
        "city": "Hồ Chí Minh",
        "district": "Quận 1",
        "ward": "Phường Bến Nghé",
        "street": "Đường Hai Bà Trưng",
        "postal_code": "71006",
        "categories": [
            {
                "name": "Doanh nghiệp"
            }
        ]
    },
    {
        "name": "Công Ty Pharmamatl International",
        "latitude": 10.77736,
        "longitude": 106.70444,
        "address": "Công Ty Pharmamatl International, Đường Hai Bà Trưng, Phường Bến Nghé, Quận 1, Hồ Chí Minh, Việt Nam",
        "country_code": "VNM",
        "country_name": "Việt Nam",
        "city": "Hồ Chí Minh",
        "district": "Quận 1",
        "ward": "Phường Bến Nghé",
        "street": "Đường Hai Bà Trưng",
        "postal_code": "71006",
        "categories": [
            {
                "name": "Doanh nghiệp"
            }
        ]
    },
    {
        "name": "Công Ty Bảo Hiểm Bảo Việt",
        "latitude": 10.77736,
        "longitude": 106.70444,
        "address": "Công Ty Bảo Hiểm Bảo Việt, Đường Hai Bà Trưng, Phường Bến Nghé, Quận 1, Hồ Chí Minh, Việt Nam",
        "country_code": "VNM",
        "country_name": "Việt Nam",
        "city": "Hồ Chí Minh",
        "district": "Quận 1",
        "ward": "Phường Bến Nghé",
        "street": "Đường Hai Bà Trưng",
        "postal_code": "71006",
        "categories": [
            {
                "name": "Doanh nghiệp"
            }
        ]
    },
    {
        "name": "Công Ty Trách Nhiệm Hữu Hạn MTV Thương Mại Dịch Vụ Thành Phong",
        "latitude": 10.77736,
        "longitude": 106.70444,
        "address": "Công Ty Trách Nhiệm Hữu Hạn MTV Thương Mại Dịch Vụ Thành Phong, Đường Hai Bà Trưng, Phường Bến Nghé, Quận 1, Hồ Chí Minh, Việt Nam",
        "country_code": "VNM",
        "country_name": "Việt Nam",
        "city": "Hồ Chí Minh",
        "district": "Quận 1",
        "ward": "Phường Bến Nghé",
        "street": "Đường Hai Bà Trưng",
        "postal_code": "71006",
        "categories": [
            {
                "name": "Doanh nghiệp"
            }
        ]
    },
    {
        "name": "Doanh Nghiệp Tư Nhân Thuận Thành",
        "latitude": 10.77914,
        "longitude": 106.70235,
        "address": "Doanh Nghiệp Tư Nhân Thuận Thành, 76 Đường Hai Bà Trưng, Phường Bến Nghé, Quận 1, Hồ Chí Minh, Việt Nam",
        "country_code": "VNM",
        "country_name": "Việt Nam",
        "city": "Hồ Chí Minh",
        "district": "Quận 1",
        "ward": "Phường Bến Nghé",
        "street": "Đường Hai Bà Trưng",
        "postal_code": "71006",
        "categories": [
            {
                "name": "Doanh nghiệp"
            }
        ]
    },
    {
        "name": "Trung Tâm Đánh Giá Và Kiểm Định Chất Lượng Giáo Dục",
        "latitude": 10.77914,
        "longitude": 106.70235,
        "address": "Trung Tâm Đánh Giá Và Kiểm Định Chất Lượng Giáo Dục, Đường Hai Bà Trưng, Phường Bến Nghé, Quận 1, Hồ Chí Minh, Việt Nam",
        "country_code": "VNM",
        "country_name": "Việt Nam",
        "city": "Hồ Chí Minh",
        "district": "Quận 1",
        "ward": "Phường Bến Nghé",
        "street": "Đường Hai Bà Trưng",
        "postal_code": "71006",
        "categories": [
            {
                "name": "Doanh nghiệp"
            }
        ]
    },
    {
        "name": "Chi Nhánh Công Ty Thiết Kế Công Nghiệp Hóa Chất",
        "latitude": 10.77855,
        "longitude": 106.70148,
        "address": "Chi Nhánh Công Ty Thiết Kế Công Nghiệp Hóa Chất, 22 Đường Lý Tự Trọng, Phường Bến Nghé, Quận 1, Hồ Chí Minh, Việt Nam",
        "country_code": "VNM",
        "country_name": "Việt Nam",
        "city": "Hồ Chí Minh",
        "district": "Quận 1",
        "ward": "Phường Bến Nghé",
        "street": "Đường Lý Tự Trọng",
        "postal_code": "71006",
        "categories": [
            {
                "name": "Doanh nghiệp"
            },
            {
                "name": "Cửa hàng chuyên dụng"
            },
            {
                "name": "Xây dựng"
            },
            {
                "name": "Dịch vụ kinh doanh"
            }
        ]
    },
    {
        "name": "Công Ty Đầu Tư Xây Dựng Số 5",
        "latitude": 10.77855,
        "longitude": 106.70148,
        "address": "Công Ty Đầu Tư Xây Dựng Số 5, 22 Đường Lý Tự Trọng, Phường Bến Nghé, Quận 1, Hồ Chí Minh, Việt Nam",
        "country_code": "VNM",
        "country_name": "Việt Nam",
        "city": "Hồ Chí Minh",
        "district": "Quận 1",
        "ward": "Phường Bến Nghé",
        "street": "Đường Lý Tự Trọng",
        "postal_code": "71006",
        "categories": [
            {
                "name": "Doanh nghiệp"
            },
            {
                "name": "Cửa hàng chuyên dụng"
            },
            {
                "name": "Xây dựng"
            },
            {
                "name": "Dịch vụ kinh doanh"
            }
        ]
    },
    {
        "name": "VPĐD Công Ty PXP Management Vietnam",
        "latitude": 10.77596,
        "longitude": 106.70298,
        "address": "VPĐD Công Ty PXP Management Vietnam, Đường Lê Lợi, Phường Bến Nghé, Quận 1, Hồ Chí Minh, Việt Nam",
        "country_code": "VNM",
        "country_name": "Việt Nam",
        "city": "Hồ Chí Minh",
        "district": "Quận 1",
        "ward": "Phường Bến Nghé",
        "street": "Đường Lê Lợi",
        "postal_code": "71006",
        "categories": [
            {
                "name": "Doanh nghiệp"
            }
        ]
    },
    {
        "name": "Nfq Asia",
        "latitude": 10.7783,
        "longitude": 106.70132,
        "address": "Nfq Asia, Đường Lý Tự Trọng, Phường Bến Nghé, Quận 1, Hồ Chí Minh, Việt Nam",
        "country_code": "VNM",
        "country_name": "Việt Nam",
        "city": "Hồ Chí Minh",
        "district": "Quận 1",
        "ward": "Phường Bến Nghé",
        "street": "Đường Lý Tự Trọng",
        "postal_code": "71006",
        "categories": [
            {
                "name": "Doanh nghiệp"
            },
            {
                "name": "Dịch vụ CNTT & thiết bị văn phòng"
            },
            {
                "name": "Dịch vụ kinh doanh"
            }
        ]
    },
    {
        "name": "Công Ty Cổ Phần Đầu Tư Trang Thiết Bị Thể Dục Thể Thao",
        "latitude": 10.77597,
        "longitude": 106.70318,
        "address": "Công Ty Cổ Phần Đầu Tư Trang Thiết Bị Thể Dục Thể Thao, Đường Đồng Khởi, Phường Bến Nghé, Quận 1, Hồ Chí Minh, Việt Nam",
        "country_code": "VNM",
        "country_name": "Việt Nam",
        "city": "Hồ Chí Minh",
        "district": "Quận 1",
        "ward": "Phường Bến Nghé",
        "street": "Đường Đồng Khởi",
        "postal_code": "71006",
        "categories": [
            {
                "name": "Doanh nghiệp"
            }
        ]
    },
    {
        "name": "Tập Đoàn Hóa Chất Việt Nam",
        "latitude": 10.77828,
        "longitude": 106.70127,
        "address": "Tập Đoàn Hóa Chất Việt Nam, 26 Đường Lý Tự Trọng, Phường Bến Nghé, Quận 1, Hồ Chí Minh, Việt Nam",
        "country_code": "VNM",
        "country_name": "Việt Nam",
        "city": "Hồ Chí Minh",
        "district": "Quận 1",
        "ward": "Phường Bến Nghé",
        "street": "Đường Lý Tự Trọng",
        "postal_code": "71006",
        "categories": [
            {
                "name": "Doanh nghiệp"
            },
            {
                "name": "Dụng cụ văn phòng và dịch vụ"
            },
            {
                "name": "Cửa hàng chuyên dụng"
            },
            {
                "name": "Cắt tóc & Tạo mẫu"
            },
            {
                "name": "Dịch vụ kinh doanh"
            }
        ]
    },
    {
        "name": "Công Ty Cổ Phần Thông Tin Du Lịch Việt Nam",
        "latitude": 10.77599,
        "longitude": 106.7023,
        "address": "Công Ty Cổ Phần Thông Tin Du Lịch Việt Nam, 4 Đường Lê Lợi, Phường Bến Nghé, Quận 1, Hồ Chí Minh, Việt Nam",
        "country_code": "VNM",
        "country_name": "Việt Nam",
        "city": "Hồ Chí Minh",
        "district": "Quận 1",
        "ward": "Phường Bến Nghé",
        "street": "Đường Lê Lợi",
        "postal_code": "71006",
        "categories": [
            {
                "name": "Doanh nghiệp"
            },
            {
                "name": "Đại lý du lịch & Vé"
            }
        ]
    },
    {
        "name": "Công Ty Cổ Phần Tư Vấn Thiết Kế Xây Dựng Kiến Khang",
        "latitude": 10.77753,
        "longitude": 106.70452,
        "address": "Công Ty Cổ Phần Tư Vấn Thiết Kế Xây Dựng Kiến Khang, Hẻm 5 Nguyễn Siêu, Phường Bến Nghé, Quận 1, Hồ Chí Minh, Việt Nam",
        "country_code": "VNM",
        "country_name": "Việt Nam",
        "city": "Hồ Chí Minh",
        "district": "Quận 1",
        "ward": "Phường Bến Nghé",
        "street": "Hẻm 5 Nguyễn Siêu",
        "postal_code": "71006",
        "categories": [
            {
                "name": "Doanh nghiệp"
            }
        ]
    },
    {
        "name": "Công Ty TNHH DV TM Stormi Saigon",
        "latitude": 10.77707,
        "longitude": 106.70446,
        "address": "Công Ty TNHH DV TM Stormi Saigon, Đường Hai Bà Trưng, Phường Bến Nghé, Quận 1, Hồ Chí Minh, Việt Nam",
        "country_code": "VNM",
        "country_name": "Việt Nam",
        "city": "Hồ Chí Minh",
        "district": "Quận 1",
        "ward": "Phường Bến Nghé",
        "street": "Đường Hai Bà Trưng",
        "postal_code": "71006",
        "categories": [
            {
                "name": "Doanh nghiệp"
            },
            {
                "name": "Quà tặng, đồ cổ và tác phẩm nghệ thuật"
            },
            {
                "name": "Loại bỏ chất thải & Vệ sinh"
            }
        ]
    },
    {
        "name": "Pomodoro",
        "latitude": 10.77707,
        "longitude": 106.70446,
        "address": "Pomodoro, 79 Đường Hai Bà Trưng, Phường Bến Nghé, Quận 1, Hồ Chí Minh, Việt Nam",
        "country_code": "VNM",
        "country_name": "Việt Nam",
        "city": "Hồ Chí Minh",
        "district": "Quận 1",
        "ward": "Phường Bến Nghé",
        "street": "Đường Hai Bà Trưng",
        "postal_code": "71006",
        "categories": [
            {
                "name": "Nhà hàng"
            },
            {
                "name": "Doanh nghiệp"
            }
        ]
    },
    {
        "name": "Máy Tính CMT",
        "latitude": 10.77811,
        "longitude": 106.70116,
        "address": "Máy Tính CMT, Đường Lý Tự Trọng, Phường Bến Nghé, Quận 1, Hồ Chí Minh, Việt Nam",
        "country_code": "VNM",
        "country_name": "Việt Nam",
        "city": "Hồ Chí Minh",
        "district": "Quận 1",
        "ward": "Phường Bến Nghé",
        "street": "Đường Lý Tự Trọng",
        "postal_code": "71006",
        "categories": [
            {
                "name": "Doanh nghiệp"
            }
        ]
    },
    {
        "name": "Truyền Thông-Điện Ảnh Sài Gòn",
        "latitude": 10.77703,
        "longitude": 106.70447,
        "address": "Truyền Thông-Điện Ảnh Sài Gòn, 77 Đường Hai Bà Trưng, Phường Bến Nghé, Quận 1, Hồ Chí Minh, Việt Nam",
        "country_code": "VNM",
        "country_name": "Việt Nam",
        "city": "Hồ Chí Minh",
        "district": "Quận 1",
        "ward": "Phường Bến Nghé",
        "street": "Đường Hai Bà Trưng",
        "postal_code": "71006",
        "categories": [
            {
                "name": "Doanh nghiệp"
            }
        ]
    },
    {
        "name": "Công Ty Truyền Hình Điện Ảnh Sài Gòn",
        "latitude": 10.77703,
        "longitude": 106.70447,
        "address": "Công Ty Truyền Hình Điện Ảnh Sài Gòn, 77 Đường Hai Bà Trưng, Phường Bến Nghé, Quận 1, Hồ Chí Minh, Việt Nam",
        "country_code": "VNM",
        "country_name": "Việt Nam",
        "city": "Hồ Chí Minh",
        "district": "Quận 1",
        "ward": "Phường Bến Nghé",
        "street": "Đường Hai Bà Trưng",
        "postal_code": "71006",
        "categories": [
            {
                "name": "Doanh nghiệp"
            }
        ]
    },
    {
        "name": "Văn Phòng Đại Diện Đài Truyền Hình Kỹ Thuật Số VTC",
        "latitude": 10.77703,
        "longitude": 106.70447,
        "address": "Văn Phòng Đại Diện Đài Truyền Hình Kỹ Thuật Số VTC, 77 Đường Hai Bà Trưng, Phường Bến Nghé, Quận 1, Hồ Chí Minh, Việt Nam",
        "country_code": "VNM",
        "country_name": "Việt Nam",
        "city": "Hồ Chí Minh",
        "district": "Quận 1",
        "ward": "Phường Bến Nghé",
        "street": "Đường Hai Bà Trưng",
        "postal_code": "71006",
        "categories": [
            {
                "name": "Doanh nghiệp"
            }
        ]
    },
    {
        "name": "Đầu Tư Điện Ảnh Vina",
        "latitude": 10.77703,
        "longitude": 106.70447,
        "address": "Đầu Tư Điện Ảnh Vina, 77 Đường Hai Bà Trưng, Phường Bến Nghé, Quận 1, Hồ Chí Minh, Việt Nam",
        "country_code": "VNM",
        "country_name": "Việt Nam",
        "city": "Hồ Chí Minh",
        "district": "Quận 1",
        "ward": "Phường Bến Nghé",
        "street": "Đường Hai Bà Trưng",
        "postal_code": "71006",
        "categories": [
            {
                "name": "Doanh nghiệp"
            }
        ]
    },
    {
        "name": "Sài Gòn Media Film",
        "latitude": 10.77703,
        "longitude": 106.70447,
        "address": "Sài Gòn Media Film, 77 Đường Hai Bà Trưng, Phường Bến Nghé, Quận 1, Hồ Chí Minh, Việt Nam",
        "country_code": "VNM",
        "country_name": "Việt Nam",
        "city": "Hồ Chí Minh",
        "district": "Quận 1",
        "ward": "Phường Bến Nghé",
        "street": "Đường Hai Bà Trưng",
        "postal_code": "71006",
        "categories": [
            {
                "name": "Doanh nghiệp"
            }
        ]
    },
    {
        "name": "C-Juice Vincom Center",
        "latitude": 10.77647,
        "longitude": 106.70147,
        "address": "C-Juice Vincom Center, 114 Đường Nguyễn Huệ, Phường Bến Nghé, Quận 1, Hồ Chí Minh, Việt Nam",
        "country_code": "VNM",
        "country_name": "Việt Nam",
        "city": "Hồ Chí Minh",
        "district": "Quận 1",
        "ward": "Phường Bến Nghé",
        "street": "Đường Nguyễn Huệ",
        "postal_code": "71006",
        "categories": [
            {
                "name": "Khách sạn hoặc nhà trọ"
            },
            {
                "name": "Bar hoặc Quán rượu"
            },
            {
                "name": "Thợ kim hoàn"
            },
            {
                "name": "Vui chơi & Giải trí"
            },
            {
                "name": "Doanh nghiệp"
            },
            {
                "name": "Kho hàng"
            },
            {
                "name": "Dịch vụ hôn lễ & cô dâu"
            }
        ]
    },
    {
        "name": "Phần Mềm Viễn Thông Miền Nam",
        "latitude": 10.7771,
        "longitude": 106.70453,
        "address": "Phần Mềm Viễn Thông Miền Nam, Đường Hai Bà Trưng, Phường Bến Nghé, Quận 1, Hồ Chí Minh, Việt Nam",
        "country_code": "VNM",
        "country_name": "Việt Nam",
        "city": "Hồ Chí Minh",
        "district": "Quận 1",
        "ward": "Phường Bến Nghé",
        "street": "Đường Hai Bà Trưng",
        "postal_code": "71006",
        "categories": [
            {
                "name": "Doanh nghiệp"
            }
        ]
    },
    {
        "name": "Souvenir Mart",
        "latitude": 10.77586,
        "longitude": 106.70325,
        "address": "Souvenir Mart, 153 Đường Đồng Khởi, Phường Bến Nghé, Quận 1, Hồ Chí Minh, Việt Nam",
        "country_code": "VNM",
        "country_name": "Việt Nam",
        "city": "Hồ Chí Minh",
        "district": "Quận 1",
        "ward": "Phường Bến Nghé",
        "street": "Đường Đồng Khởi",
        "postal_code": "71006",
        "categories": [
            {
                "name": "Doanh nghiệp"
            }
        ]
    },
    {
        "name": "Công Ty Sài Gòn Xây Dựng",
        "latitude": 10.7778,
        "longitude": 106.70464,
        "address": "Công Ty Sài Gòn Xây Dựng, 5 Đường Nguyễn Siêu, Phường Bến Nghé, Quận 1, Hồ Chí Minh, Việt Nam",
        "country_code": "VNM",
        "country_name": "Việt Nam",
        "city": "Hồ Chí Minh",
        "district": "Quận 1",
        "ward": "Phường Bến Nghé",
        "street": "Đường Nguyễn Siêu",
        "postal_code": "71006",
        "categories": [
            {
                "name": "Doanh nghiệp"
            }
        ]
    },
    {
        "name": "Công Ty In Trần Phú",
        "latitude": 10.77705,
        "longitude": 106.70459,
        "address": "Công Ty In Trần Phú, Đường Hai Bà Trưng, Phường Bến Nghé, Quận 1, Hồ Chí Minh, Việt Nam",
        "country_code": "VNM",
        "country_name": "Việt Nam",
        "city": "Hồ Chí Minh",
        "district": "Quận 1",
        "ward": "Phường Bến Nghé",
        "street": "Đường Hai Bà Trưng",
        "postal_code": "71006",
        "categories": [
            {
                "name": "Doanh nghiệp"
            },
            {
                "name": "Dụng cụ văn phòng và dịch vụ"
            }
        ]
    },
    {
        "name": "Sàn Chứng Khoán Hoàng Gia",
        "latitude": 10.77603,
        "longitude": 106.70181,
        "address": "Sàn Chứng Khoán Hoàng Gia, Đường Nguyễn Huệ, Phường Bến Nghé, Quận 1, Hồ Chí Minh, Việt Nam",
        "country_code": "VNM",
        "country_name": "Việt Nam",
        "city": "Hồ Chí Minh",
        "district": "Quận 1",
        "ward": "Phường Bến Nghé",
        "street": "Đường Nguyễn Huệ",
        "postal_code": "71006",
        "categories": [
            {
                "name": "Doanh nghiệp"
            }
        ]
    },
    {
        "name": "Khách Sạn Điện Lực",
        "latitude": 10.77739,
        "longitude": 106.70468,
        "address": "Khách Sạn Điện Lực, Hẻm 5 Nguyễn Siêu, Phường Bến Nghé, Quận 1, Hồ Chí Minh, Việt Nam",
        "country_code": "VNM",
        "country_name": "Việt Nam",
        "city": "Hồ Chí Minh",
        "district": "Quận 1",
        "ward": "Phường Bến Nghé",
        "street": "Hẻm 5 Nguyễn Siêu",
        "postal_code": "71006",
        "categories": [
            {
                "name": "Nhà nghỉ"
            },
            {
                "name": "Doanh nghiệp"
            }
        ]
    },
    {
        "name": "City Garden Panini - Bánh Mì Kẹp Ý",
        "latitude": 10.77702,
        "longitude": 106.70461,
        "address": "City Garden Panini - Bánh Mì Kẹp Ý, 38 Đường Hai Bà Trưng, Phường Bến Nghé, Quận 1, Hồ Chí Minh, Việt Nam",
        "country_code": "VNM",
        "country_name": "Việt Nam",
        "city": "Hồ Chí Minh",
        "district": "Quận 1",
        "ward": "Phường Bến Nghé",
        "street": "Đường Hai Bà Trưng",
        "postal_code": "71006",
        "categories": [
            {
                "name": "Doanh nghiệp"
            },
            {
                "name": "Nhà hàng"
            }
        ]
    },
    {
        "name": "Xưởng Thu Thanh In Ấn",
        "latitude": 10.77852,
        "longitude": 106.70445,
        "address": "Xưởng Thu Thanh In Ấn, Đường Thi Sách, Phường Bến Nghé, Quận 1, Hồ Chí Minh, Việt Nam",
        "country_code": "VNM",
        "country_name": "Việt Nam",
        "city": "Hồ Chí Minh",
        "district": "Quận 1",
        "ward": "Phường Bến Nghé",
        "street": "Đường Thi Sách",
        "postal_code": "71006",
        "categories": [
            {
                "name": "Doanh nghiệp"
            },
            {
                "name": "Trung tâm biểu diễn nghệ thuật"
            },
            {
                "name": "Xây dựng"
            }
        ]
    },
    {
        "name": "Tòa Nhà 158 Đồng Khởi",
        "latitude": 10.77814,
        "longitude": 106.70097,
        "address": "Tòa Nhà 158 Đồng Khởi, Đường Đồng Khởi, Phường Bến Nghé, Quận 1, Hồ Chí Minh, Việt Nam",
        "country_code": "VNM",
        "country_name": "Việt Nam",
        "city": "Hồ Chí Minh",
        "district": "Quận 1",
        "ward": "Phường Bến Nghé",
        "street": "Đường Đồng Khởi",
        "postal_code": "71006",
        "categories": [
            {
                "name": "Doanh nghiệp"
            }
        ]
    },
    {
        "name": "Công Ty Trách Nhiệm Hữu Hạn Thương Mại Dịch Vụ Sản Xuất Vnt",
        "latitude": 10.77576,
        "longitude": 106.70339,
        "address": "Công Ty Trách Nhiệm Hữu Hạn Thương Mại Dịch Vụ Sản Xuất Vnt, Đường Đồng Khởi, Phường Bến Nghé, Quận 1, Hồ Chí Minh, Việt Nam",
        "country_code": "VNM",
        "country_name": "Việt Nam",
        "city": "Hồ Chí Minh",
        "district": "Quận 1",
        "ward": "Phường Bến Nghé",
        "street": "Đường Đồng Khởi",
        "postal_code": "71006",
        "categories": [
            {
                "name": "Doanh nghiệp"
            }
        ]
    },
    {
        "name": "Công Ty Trách Nhiệm Hữu Hạn Thương Mại Kim Yến",
        "latitude": 10.77576,
        "longitude": 106.70339,
        "address": "Công Ty Trách Nhiệm Hữu Hạn Thương Mại Kim Yến, Đường Đồng Khởi, Phường Bến Nghé, Quận 1, Hồ Chí Minh, Việt Nam",
        "country_code": "VNM",
        "country_name": "Việt Nam",
        "city": "Hồ Chí Minh",
        "district": "Quận 1",
        "ward": "Phường Bến Nghé",
        "street": "Đường Đồng Khởi",
        "postal_code": "71006",
        "categories": [
            {
                "name": "Doanh nghiệp"
            }
        ]
    },
    {
        "name": "Trụ Sở Chubblife",
        "latitude": 10.77582,
        "longitude": 106.70203,
        "address": "Trụ Sở Chubblife, 115 Đường Nguyễn Huệ, Phường Bến Nghé, Quận 1, Hồ Chí Minh, Việt Nam",
        "country_code": "VNM",
        "country_name": "Việt Nam",
        "city": "Hồ Chí Minh",
        "district": "Quận 1",
        "ward": "Phường Bến Nghé",
        "street": "Đường Nguyễn Huệ",
        "postal_code": "71006",
        "categories": [
            {
                "name": "Doanh nghiệp"
            }
        ]
    },
    {
        "name": "Công Ty Xây Dựng Sản Xuất Thương Mại Duy Trân",
        "latitude": 10.77946,
        "longitude": 106.7024,
        "address": "Công Ty Xây Dựng Sản Xuất Thương Mại Duy Trân, 37 Đường Lý Tự Trọng, Phường Bến Nghé, Quận 1, Hồ Chí Minh, Việt Nam",
        "country_code": "VNM",
        "country_name": "Việt Nam",
        "city": "Hồ Chí Minh",
        "district": "Quận 1",
        "ward": "Phường Bến Nghé",
        "street": "Đường Lý Tự Trọng",
        "postal_code": "71006",
        "categories": [
            {
                "name": "Doanh nghiệp"
            },
            {
                "name": "Xây dựng"
            },
            {
                "name": "Dịch vụ kinh doanh"
            }
        ]
    },
    {
        "name": "Bql Greenview",
        "latitude": 10.77934,
        "longitude": 106.70368,
        "address": "Bql Greenview, Đường Lê Thánh Tôn, Phường Bến Nghé, Quận 1, Hồ Chí Minh, Việt Nam",
        "country_code": "VNM",
        "country_name": "Việt Nam",
        "city": "Hồ Chí Minh",
        "district": "Quận 1",
        "ward": "Phường Bến Nghé",
        "street": "Đường Lê Thánh Tôn",
        "postal_code": "71006",
        "categories": [
            {
                "name": "Doanh nghiệp"
            }
        ]
    },
    {
        "name": "TTT Corporation",
        "latitude": 10.77771,
        "longitude": 106.70074,
        "address": "TTT Corporation, 36 Đường Lý Tự Trọng, Phường Bến Nghé, Quận 1, Hồ Chí Minh, Việt Nam",
        "country_code": "VNM",
        "country_name": "Việt Nam",
        "city": "Hồ Chí Minh",
        "district": "Quận 1",
        "ward": "Phường Bến Nghé",
        "street": "Đường Lý Tự Trọng",
        "postal_code": "71006",
        "categories": [
            {
                "name": "Doanh nghiệp"
            }
        ]
    },
    {
        "name": "Cty Cổ Phần Đầu Tư TM DV Điện Lực",
        "latitude": 10.77823,
        "longitude": 106.70484,
        "address": "Cty Cổ Phần Đầu Tư TM DV Điện Lực, 4 Đường Nguyễn Siêu, Phường Bến Nghé, Quận 1, Hồ Chí Minh, Việt Nam",
        "country_code": "VNM",
        "country_name": "Việt Nam",
        "city": "Hồ Chí Minh",
        "district": "Quận 1",
        "ward": "Phường Bến Nghé",
        "street": "Đường Nguyễn Siêu",
        "postal_code": "71006",
        "categories": [
            {
                "name": "Doanh nghiệp"
            },
            {
                "name": "Tiện ích"
            }
        ]
    },
    {
        "name": "Tổng Đại Lý Evntelecom",
        "latitude": 10.77823,
        "longitude": 106.70484,
        "address": "Tổng Đại Lý Evntelecom, 4 Đường Nguyễn Siêu, Phường Bến Nghé, Quận 1, Hồ Chí Minh, Việt Nam",
        "country_code": "VNM",
        "country_name": "Việt Nam",
        "city": "Hồ Chí Minh",
        "district": "Quận 1",
        "ward": "Phường Bến Nghé",
        "street": "Đường Nguyễn Siêu",
        "postal_code": "71006",
        "categories": [
            {
                "name": "Doanh nghiệp"
            }
        ]
    },
    {
        "name": "Evnpsc-Tổng Công Ty Điện Lực Miền Nam",
        "latitude": 10.77823,
        "longitude": 106.70484,
        "address": "Evnpsc-Tổng Công Ty Điện Lực Miền Nam, 4 Đường Nguyễn Siêu, Phường Bến Nghé, Quận 1, Hồ Chí Minh, Việt Nam",
        "country_code": "VNM",
        "country_name": "Việt Nam",
        "city": "Hồ Chí Minh",
        "district": "Quận 1",
        "ward": "Phường Bến Nghé",
        "street": "Đường Nguyễn Siêu",
        "postal_code": "71006",
        "categories": [
            {
                "name": "Doanh nghiệp"
            },
            {
                "name": "Cửa hàng điện tử gia dụng"
            },
            {
                "name": "Đại lý du lịch & Vé"
            },
            {
                "name": "Tiện ích"
            },
            {
                "name": "Sửa chữa đồ điện"
            }
        ]
    },
    {
        "name": "Tri Books-To Read Intellectually",
        "latitude": 10.7783,
        "longitude": 106.70078,
        "address": "Tri Books-To Read Intellectually, Đường Đồng Khởi, Phường Bến Nghé, Quận 1, Hồ Chí Minh, Việt Nam",
        "country_code": "VNM",
        "country_name": "Việt Nam",
        "city": "Hồ Chí Minh",
        "district": "Quận 1",
        "ward": "Phường Bến Nghé",
        "street": "Đường Đồng Khởi",
        "postal_code": "71006",
        "categories": [
            {
                "name": "Doanh nghiệp"
            }
        ]
    },
    {
        "name": "Công Ty Trách Nhiệm Hữu Hạn Thương Mại Dịch Vụ Đăng Thảo Huỳnh",
        "latitude": 10.77953,
        "longitude": 106.70377,
        "address": "Công Ty Trách Nhiệm Hữu Hạn Thương Mại Dịch Vụ Đăng Thảo Huỳnh, Đường Lê Thánh Tôn, Phường Bến Nghé, Quận 1, Hồ Chí Minh, Việt Nam",
        "country_code": "VNM",
        "country_name": "Việt Nam",
        "city": "Hồ Chí Minh",
        "district": "Quận 1",
        "ward": "Phường Bến Nghé",
        "street": "Đường Lê Thánh Tôn",
        "postal_code": "71006",
        "categories": [
            {
                "name": "Doanh nghiệp"
            },
            {
                "name": "Đại lý du lịch & Vé"
            }
        ]
    },
    {
        "name": "Trung Tâm Xúc Tiến Thương Mại Và Đầu Tư",
        "latitude": 10.77543,
        "longitude": 106.7025,
        "address": "Trung Tâm Xúc Tiến Thương Mại Và Đầu Tư, Đường Nguyễn Huệ, Phường Bến Nghé, Quận 1, Hồ Chí Minh, Việt Nam",
        "country_code": "VNM",
        "country_name": "Việt Nam",
        "city": "Hồ Chí Minh",
        "district": "Quận 1",
        "ward": "Phường Bến Nghé",
        "street": "Đường Nguyễn Huệ",
        "postal_code": "71006",
        "categories": [
            {
                "name": "Doanh nghiệp"
            },
            {
                "name": "Văn phòng chính phủ"
            }
        ]
    }
]
