[
    {
        "name": "Bãi Giữ Xe Khách Sạn Part Hyatt Sài Gòn",
        "latitude": 10.77702,
        "longitude": 106.70318,
        "address": "Bãi Giữ Xe Khách Sạn Part Hyatt Sài Gòn, Công Trường Lam Sơn, Phường Bến Nghé, Quận 1, Hồ Chí Minh, Việt Nam",
        "country_code": "VNM",
        "country_name": "Việt Nam",
        "city": "Hồ Chí Minh",
        "district": "Quận 1",
        "ward": "Phường Bến Nghé",
        "street": "Công Trường Lam Sơn",
        "postal_code": "71006",
        "categories": [
            {
                "name": "Bãi đậu xe"
            },
            {
                "name": "Đỗ xe"
            }
        ]
    },
    {
        "name": "Bãi Giữ Xe TTTM Saigon Centre",
        "latitude": 10.7738,
        "longitude": 106.70087,
        "address": "Bãi Giữ Xe TTTM Saigon Centre, Đường Lê Lợi, Phường Bến Nghé, Quận 1, Hồ Chí Minh, Việt Nam",
        "country_code": "VNM",
        "country_name": "Việt Nam",
        "city": "Hồ Chí Minh",
        "district": "Quận 1",
        "ward": "Phường Bến Nghé",
        "street": "Đường Lê Lợi",
        "postal_code": "71006",
        "categories": [
            {
                "name": "Đỗ xe"
            }
        ]
    },
    {
        "name": "Bãi Giữ Xe Bệnh Viện Nhi Đồng 2",
        "latitude": 10.78238,
        "longitude": 106.70209,
        "address": "Bãi Giữ Xe Bệnh Viện Nhi Đồng 2, Đường Nguyễn Du, Phường Bến Nghé, Quận 1, Hồ Chí Minh, Việt Nam",
        "country_code": "VNM",
        "country_name": "Việt Nam",
        "city": "Hồ Chí Minh",
        "district": "Quận 1",
        "ward": "Phường Bến Nghé",
        "street": "Đường Nguyễn Du",
        "postal_code": "71006",
        "categories": [
            {
                "name": "Bãi đậu xe"
            },
            {
                "name": "Đỗ xe"
            }
        ]
    },
    {
        "name": "Giữ Xe",
        "latitude": 10.78196,
        "longitude": 106.70064,
        "address": "Giữ Xe, Đường Lê Văn Hưu, Phường Bến Nghé, Quận 1, Hồ Chí Minh, Việt Nam",
        "country_code": "VNM",
        "country_name": "Việt Nam",
        "city": "Hồ Chí Minh",
        "district": "Quận 1",
        "ward": "Phường Bến Nghé",
        "street": "Đường Lê Văn Hưu",
        "postal_code": "71006",
        "categories": [
            {
                "name": "Đỗ xe"
            }
        ]
    },
    {
        "name": "Bãi Giữ Xe 24 24",
        "latitude": 10.77263,
        "longitude": 106.70363,
        "address": "Bãi Giữ Xe 24 24, Đường Hồ Tùng Mậu, Phường Bến Nghé, Quận 1, Hồ Chí Minh, Việt Nam",
        "country_code": "VNM",
        "country_name": "Việt Nam",
        "city": "Hồ Chí Minh",
        "district": "Quận 1",
        "ward": "Phường Bến Nghé",
        "street": "Đường Hồ Tùng Mậu",
        "postal_code": "71006",
        "categories": [
            {
                "name": "Đỗ xe"
            }
        ]
    },
    {
        "name": "Điểm Giữ Xe",
        "latitude": 10.77247,
        "longitude": 106.70356,
        "address": "Điểm Giữ Xe, 97 Đường Hồ Tùng Mậu, Phường Bến Nghé, Quận 1, Hồ Chí Minh, Việt Nam",
        "country_code": "VNM",
        "country_name": "Việt Nam",
        "city": "Hồ Chí Minh",
        "district": "Quận 1",
        "ward": "Phường Bến Nghé",
        "street": "Đường Hồ Tùng Mậu",
        "postal_code": "71006",
        "categories": [
            {
                "name": "Bãi đậu xe"
            },
            {
                "name": "Đỗ xe"
            }
        ]
    },
    {
        "name": "Bãi Xe Diamond Plaza",
        "latitude": 10.78102,
        "longitude": 106.69888,
        "address": "Bãi Xe Diamond Plaza, Đường Lê Duẩn, Phường Bến Nghé, Quận 1, Hồ Chí Minh, Việt Nam",
        "country_code": "VNM",
        "country_name": "Việt Nam",
        "city": "Hồ Chí Minh",
        "district": "Quận 1",
        "ward": "Phường Bến Nghé",
        "street": "Đường Lê Duẩn",
        "postal_code": "71006",
        "categories": [
            {
                "name": "Đỗ xe"
            }
        ]
    },
    {
        "name": "Điểm Giữ Xe",
        "latitude": 10.78417,
        "longitude": 106.70302,
        "address": "Điểm Giữ Xe, Đường Nguyễn Du, Phường Bến Nghé, Quận 1, Hồ Chí Minh, Việt Nam",
        "country_code": "VNM",
        "country_name": "Việt Nam",
        "city": "Hồ Chí Minh",
        "district": "Quận 1",
        "ward": "Phường Bến Nghé",
        "street": "Đường Nguyễn Du",
        "postal_code": "71006",
        "categories": [
            {
                "name": "Đỗ xe"
            }
        ]
    },
    {
        "name": "Bãi Giữ Xe 32 Phạm Ngọc Thạch",
        "latitude": 10.78159,
        "longitude": 106.69714,
        "address": "Bãi Giữ Xe 32 Phạm Ngọc Thạch, 6 Đường Phạm Ngọc Thạch, Phường Bến Nghé, Quận 1, Hồ Chí Minh, Việt Nam",
        "country_code": "VNM",
        "country_name": "Việt Nam",
        "city": "Hồ Chí Minh",
        "district": "Quận 1",
        "ward": "Phường Bến Nghé",
        "street": "Đường Phạm Ngọc Thạch",
        "postal_code": "71006",
        "categories": [
            {
                "name": "Đỗ xe"
            }
        ]
    },
    {
        "name": "Bãi Giữ Xe Nhà Văn Hóa Thanh Niên",
        "latitude": 10.78195,
        "longitude": 106.69724,
        "address": "Bãi Giữ Xe Nhà Văn Hóa Thanh Niên, Đường Nguyễn Thị Minh Khai, Phường Bến Nghé, Quận 1, Hồ Chí Minh, Việt Nam",
        "country_code": "VNM",
        "country_name": "Việt Nam",
        "city": "Hồ Chí Minh",
        "district": "Quận 1",
        "ward": "Phường Bến Nghé",
        "street": "Đường Nguyễn Thị Minh Khai",
        "postal_code": "71006",
        "categories": [
            {
                "name": "Đỗ xe"
            },
            {
                "name": "Bãi đậu xe"
            }
        ]
    },
    {
        "name": "Parky Golden",
        "latitude": 10.77357,
        "longitude": 106.69637,
        "address": "Parky Golden, 142 Đường Lý Tự Trọng, Phường Bến Thành, Quận 1, Hồ Chí Minh, Việt Nam",
        "country_code": "VNM",
        "country_name": "Việt Nam",
        "city": "Hồ Chí Minh",
        "district": "Quận 1",
        "ward": "Phường Bến Thành",
        "street": "Đường Lý Tự Trọng",
        "postal_code": "71009",
        "categories": [
            {
                "name": "Bãi đậu xe"
            },
            {
                "name": "Đỗ xe"
            }
        ]
    },
    {
        "name": "Bãi Giữ Xe Ô Tô 24/24 NKKN",
        "latitude": 10.7794,
        "longitude": 106.69528,
        "address": "Bãi Giữ Xe Ô Tô 24/24 NKKN, Đường Nam Kỳ Khởi Nghĩa, Phường Bến Thành, Quận 1, Hồ Chí Minh, Việt Nam",
        "country_code": "VNM",
        "country_name": "Việt Nam",
        "city": "Hồ Chí Minh",
        "district": "Quận 1",
        "ward": "Phường Bến Thành",
        "street": "Đường Nam Kỳ Khởi Nghĩa",
        "postal_code": "71009",
        "categories": [
            {
                "name": "Đỗ xe"
            }
        ]
    },
    {
        "name": "Bãi Giữ Xe",
        "latitude": 10.78339,
        "longitude": 106.69761,
        "address": "Bãi Giữ Xe, Đường Hai Bà Trưng, Phường Đa Kao, Quận 1, Hồ Chí Minh, Việt Nam",
        "country_code": "VNM",
        "country_name": "Việt Nam",
        "city": "Hồ Chí Minh",
        "district": "Quận 1",
        "ward": "Phường Đa Kao",
        "street": "Đường Hai Bà Trưng",
        "postal_code": "71007",
        "categories": [
            {
                "name": "Đỗ xe"
            },
            {
                "name": "Nơi đỗ xe đạp, xe đạp máy & xe scooter"
            }
        ]
    },
    {
        "name": "Bãi Giữ Xe Bảo Tàng Mỹ Thuật",
        "latitude": 10.77025,
        "longitude": 106.69933,
        "address": "Bãi Giữ Xe Bảo Tàng Mỹ Thuật, Đường Phó Đức Chính, Phường Nguyễn Thái Bình, Quận 1, Hồ Chí Minh, Việt Nam",
        "country_code": "VNM",
        "country_name": "Việt Nam",
        "city": "Hồ Chí Minh",
        "district": "Quận 1",
        "ward": "Phường Nguyễn Thái Bình",
        "street": "Đường Phó Đức Chính",
        "postal_code": "71010",
        "categories": [
            {
                "name": "Đỗ xe"
            }
        ]
    },
    {
        "name": "Điểm Giữ Xe Trong Nhà",
        "latitude": 10.76903,
        "longitude": 106.70124,
        "address": "Điểm Giữ Xe Trong Nhà, Đường Nguyễn Công Trứ, Phường Nguyễn Thái Bình, Quận 1, Hồ Chí Minh, Việt Nam",
        "country_code": "VNM",
        "country_name": "Việt Nam",
        "city": "Hồ Chí Minh",
        "district": "Quận 1",
        "ward": "Phường Nguyễn Thái Bình",
        "street": "Đường Nguyễn Công Trứ",
        "postal_code": "71010",
        "categories": [
            {
                "name": "Đỗ xe"
            }
        ]
    },
    {
        "name": "Giữ Xe Rửa Xe Thay Nhớt",
        "latitude": 10.76888,
        "longitude": 106.70313,
        "address": "Giữ Xe Rửa Xe Thay Nhớt, Đường Võ Văn Kiệt, Phường Nguyễn Thái Bình, Quận 1, Hồ Chí Minh, Việt Nam",
        "country_code": "VNM",
        "country_name": "Việt Nam",
        "city": "Hồ Chí Minh",
        "district": "Quận 1",
        "ward": "Phường Nguyễn Thái Bình",
        "street": "Đường Võ Văn Kiệt",
        "postal_code": "71010",
        "categories": [
            {
                "name": "Đỗ xe"
            }
        ]
    },
    {
        "name": "Bãi Giữ Xe Trong Nhà",
        "latitude": 10.76888,
        "longitude": 106.70313,
        "address": "Bãi Giữ Xe Trong Nhà, Đường Võ Văn Kiệt, Phường Nguyễn Thái Bình, Quận 1, Hồ Chí Minh, Việt Nam",
        "country_code": "VNM",
        "country_name": "Việt Nam",
        "city": "Hồ Chí Minh",
        "district": "Quận 1",
        "ward": "Phường Nguyễn Thái Bình",
        "street": "Đường Võ Văn Kiệt",
        "postal_code": "71010",
        "categories": [
            {
                "name": "Đỗ xe"
            }
        ]
    },
    {
        "name": "Giữ Xe Xe Máy Ô Tô",
        "latitude": 10.78267,
        "longitude": 106.6954,
        "address": "Giữ Xe Xe Máy Ô Tô, Đường Công Trường Quốc Tế, Phường Võ Thị Sáu, Quận 3, Hồ Chí Minh, Việt Nam",
        "country_code": "VNM",
        "country_name": "Việt Nam",
        "city": "Hồ Chí Minh",
        "district": "Quận 3",
        "ward": "Phường Võ Thị Sáu",
        "street": "Đường Công Trường Quốc Tế",
        "postal_code": "72415",
        "categories": [
            {
                "name": "Đỗ xe"
            }
        ]
    },
    {
        "name": "Bãi Giữ Đậu Xe Khu Ngân Hàng Acb Cũ",
        "latitude": 10.78638,
        "longitude": 106.69797,
        "address": "Bãi Giữ Đậu Xe Khu Ngân Hàng Acb Cũ, Đường Mạc Đĩnh Chi, Phường Đa Kao, Quận 1, Hồ Chí Minh, Việt Nam",
        "country_code": "VNM",
        "country_name": "Việt Nam",
        "city": "Hồ Chí Minh",
        "district": "Quận 1",
        "ward": "Phường Đa Kao",
        "street": "Đường Mạc Đĩnh Chi",
        "postal_code": "71007",
        "categories": [
            {
                "name": "Đỗ xe"
            }
        ]
    },
    {
        "name": "Bãi Giữ Xe Cung Văn Hóa",
        "latitude": 10.77677,
        "longitude": 106.69242,
        "address": "Bãi Giữ Xe Cung Văn Hóa, 55B Đường Nguyễn Thị Minh Khai, Phường Bến Thành, Quận 1, Hồ Chí Minh, Việt Nam",
        "country_code": "VNM",
        "country_name": "Việt Nam",
        "city": "Hồ Chí Minh",
        "district": "Quận 1",
        "ward": "Phường Bến Thành",
        "street": "Đường Nguyễn Thị Minh Khai",
        "postal_code": "71009",
        "categories": [
            {
                "name": "Đỗ xe"
            }
        ]
    },
    {
        "name": "Bãi Giữ Xe Công Viên Tao Đàn Trương Định Q3",
        "latitude": 10.77574,
        "longitude": 106.69221,
        "address": "Bãi Giữ Xe Công Viên Tao Đàn Trương Định Q3, Đường Trương Định, Phường Bến Thành, Quận 1, Hồ Chí Minh, Việt Nam",
        "country_code": "VNM",
        "country_name": "Việt Nam",
        "city": "Hồ Chí Minh",
        "district": "Quận 1",
        "ward": "Phường Bến Thành",
        "street": "Đường Trương Định",
        "postal_code": "71009",
        "categories": [
            {
                "name": "Đỗ xe"
            }
        ]
    },
    {
        "name": "Điểm Giữ Xe",
        "latitude": 10.76889,
        "longitude": 106.696,
        "address": "Điểm Giữ Xe, Đường Trần Hưng Đạo, Phường Cầu Ông Lãnh, Quận 1, Hồ Chí Minh, Việt Nam",
        "country_code": "VNM",
        "country_name": "Việt Nam",
        "city": "Hồ Chí Minh",
        "district": "Quận 1",
        "ward": "Phường Cầu Ông Lãnh",
        "street": "Đường Trần Hưng Đạo",
        "postal_code": "71011",
        "categories": [
            {
                "name": "Đỗ xe"
            }
        ]
    },
    {
        "name": "Bãi Giữ Xe Sân Vận Động Hoa Lư",
        "latitude": 10.78852,
        "longitude": 106.70164,
        "address": "Bãi Giữ Xe Sân Vận Động Hoa Lư, Hẻm 12 Nguyễn Thị Minh Khai, Phường Đa Kao, Quận 1, Hồ Chí Minh, Việt Nam",
        "country_code": "VNM",
        "country_name": "Việt Nam",
        "city": "Hồ Chí Minh",
        "district": "Quận 1",
        "ward": "Phường Đa Kao",
        "street": "Hẻm 12 Nguyễn Thị Minh Khai",
        "postal_code": "71007",
        "categories": [
            {
                "name": "Đỗ xe"
            }
        ]
    },
    {
        "name": "Bãi Giữ Xe",
        "latitude": 10.76702,
        "longitude": 106.70602,
        "address": "Bãi Giữ Xe, Đường Nguyễn Tất Thành, Phường 13, Quận 4, Hồ Chí Minh, Việt Nam",
        "country_code": "VNM",
        "country_name": "Việt Nam",
        "city": "Hồ Chí Minh",
        "district": "Quận 4",
        "ward": "Phường 13",
        "street": "Đường Nguyễn Tất Thành",
        "postal_code": "72820",
        "categories": [
            {
                "name": "Đỗ xe"
            }
        ]
    },
    {
        "name": "Bãi Giữ Xe",
        "latitude": 10.78522,
        "longitude": 106.69365,
        "address": "Bãi Giữ Xe, Đường Phạm Ngọc Thạch, Phường Võ Thị Sáu, Quận 3, Hồ Chí Minh, Việt Nam",
        "country_code": "VNM",
        "country_name": "Việt Nam",
        "city": "Hồ Chí Minh",
        "district": "Quận 3",
        "ward": "Phường Võ Thị Sáu",
        "street": "Đường Phạm Ngọc Thạch",
        "postal_code": "72415",
        "categories": [
            {
                "name": "Đỗ xe"
            }
        ]
    },
    {
        "name": "Bãi Giữ Xe Công Viên 23/9",
        "latitude": 10.76903,
        "longitude": 106.69389,
        "address": "Bãi Giữ Xe Công Viên 23/9, Đường Phạm Ngũ Lão, Phường Phạm Ngũ Lão, Quận 1, Hồ Chí Minh, Việt Nam",
        "country_code": "VNM",
        "country_name": "Việt Nam",
        "city": "Hồ Chí Minh",
        "district": "Quận 1",
        "ward": "Phường Phạm Ngũ Lão",
        "street": "Đường Phạm Ngũ Lão",
        "postal_code": "71012",
        "categories": [
            {
                "name": "Đỗ xe"
            }
        ]
    },
    {
        "name": "Bãi Giữ Xe Bà Huyện Thanh Quan",
        "latitude": 10.7753,
        "longitude": 106.69021,
        "address": "Bãi Giữ Xe Bà Huyện Thanh Quan, 6 Đường Bà Huyện Thanh Quan, Phường Võ Thị Sáu, Quận 3, Hồ Chí Minh, Việt Nam",
        "country_code": "VNM",
        "country_name": "Việt Nam",
        "city": "Hồ Chí Minh",
        "district": "Quận 3",
        "ward": "Phường Võ Thị Sáu",
        "street": "Đường Bà Huyện Thanh Quan",
        "postal_code": "72415",
        "categories": [
            {
                "name": "Đỗ xe"
            }
        ]
    },
    {
        "name": "Bãi Giữ Xe Công Viên Tao Đàn 2",
        "latitude": 10.77315,
        "longitude": 106.6907,
        "address": "Bãi Giữ Xe Công Viên Tao Đàn 2, Đường Cách Mạng Tháng 8, Phường Bến Thành, Quận 1, Hồ Chí Minh, Việt Nam",
        "country_code": "VNM",
        "country_name": "Việt Nam",
        "city": "Hồ Chí Minh",
        "district": "Quận 1",
        "ward": "Phường Bến Thành",
        "street": "Đường Cách Mạng Tháng 8",
        "postal_code": "71009",
        "categories": [
            {
                "name": "Đỗ xe"
            }
        ]
    },
    {
        "name": "Điểm Xe Đưa Đón Khách Tham Quan Đến Hội Chợ Du Lịch Quốc Tế TP Hồ Chí Minh",
        "latitude": 10.76856,
        "longitude": 106.69324,
        "address": "Điểm Xe Đưa Đón Khách Tham Quan Đến Hội Chợ Du Lịch Quốc Tế TP Hồ Chí Minh, Đường Phạm Ngũ Lão, Phường Phạm Ngũ Lão, Quận 1, Hồ Chí Minh, Việt Nam",
        "country_code": "VNM",
        "country_name": "Việt Nam",
        "city": "Hồ Chí Minh",
        "district": "Quận 1",
        "ward": "Phường Phạm Ngũ Lão",
        "street": "Đường Phạm Ngũ Lão",
        "postal_code": "71012",
        "categories": [
            {
                "name": "Đỗ xe"
            }
        ]
    },
    {
        "name": "DNTN 9 Giang Bãi Giữ Xe Ô Tô-Xe Máy",
        "latitude": 10.79053,
        "longitude": 106.69952,
        "address": "DNTN 9 Giang Bãi Giữ Xe Ô Tô-Xe Máy, Đường Nguyễn Văn Thủ, Phường Đa Kao, Quận 1, Hồ Chí Minh, Việt Nam",
        "country_code": "VNM",
        "country_name": "Việt Nam",
        "city": "Hồ Chí Minh",
        "district": "Quận 1",
        "ward": "Phường Đa Kao",
        "street": "Đường Nguyễn Văn Thủ",
        "postal_code": "71007",
        "categories": [
            {
                "name": "Đỗ xe"
            }
        ]
    },
    {
        "name": "Bãi Giữ Xe Thảo Cầm Viên",
        "latitude": 10.79066,
        "longitude": 106.70564,
        "address": "Bãi Giữ Xe Thảo Cầm Viên, Đường Nguyễn Thị Minh Khai, Phường Đa Kao, Quận 1, Hồ Chí Minh, Việt Nam",
        "country_code": "VNM",
        "country_name": "Việt Nam",
        "city": "Hồ Chí Minh",
        "district": "Quận 1",
        "ward": "Phường Đa Kao",
        "street": "Đường Nguyễn Thị Minh Khai",
        "postal_code": "71007",
        "categories": [
            {
                "name": "Bãi đậu xe"
            },
            {
                "name": "Đỗ xe"
            }
        ]
    },
    {
        "name": "Bãi Giữ Xe Công Viên Lê Văn Tám",
        "latitude": 10.78717,
        "longitude": 106.69289,
        "address": "Bãi Giữ Xe Công Viên Lê Văn Tám, Đường Hai Bà Trưng, Phường Đa Kao, Quận 1, Hồ Chí Minh, Việt Nam",
        "country_code": "VNM",
        "country_name": "Việt Nam",
        "city": "Hồ Chí Minh",
        "district": "Quận 1",
        "ward": "Phường Đa Kao",
        "street": "Đường Hai Bà Trưng",
        "postal_code": "71007",
        "categories": [
            {
                "name": "Đỗ xe"
            },
            {
                "name": "Nơi đỗ xe đạp, xe đạp máy & xe scooter"
            }
        ]
    },
    {
        "name": "Bãi Đậu Xe",
        "latitude": 10.76667,
        "longitude": 106.69368,
        "address": "Bãi Đậu Xe, Đường Trần Hưng Đạo, Phường Phạm Ngũ Lão, Quận 1, Hồ Chí Minh, Việt Nam",
        "country_code": "VNM",
        "country_name": "Việt Nam",
        "city": "Hồ Chí Minh",
        "district": "Quận 1",
        "ward": "Phường Phạm Ngũ Lão",
        "street": "Đường Trần Hưng Đạo",
        "postal_code": "71012",
        "categories": [
            {
                "name": "Đỗ xe"
            }
        ]
    },
    {
        "name": "Bãi Giữ Xe 6C Tú Xương",
        "latitude": 10.78373,
        "longitude": 106.68958,
        "address": "Bãi Giữ Xe 6C Tú Xương, 7 Đường Tú Xương, Phường Võ Thị Sáu, Quận 3, Hồ Chí Minh, Việt Nam",
        "country_code": "VNM",
        "country_name": "Việt Nam",
        "city": "Hồ Chí Minh",
        "district": "Quận 3",
        "ward": "Phường Võ Thị Sáu",
        "street": "Đường Tú Xương",
        "postal_code": "72415",
        "categories": [
            {
                "name": "Đỗ xe"
            }
        ]
    },
    {
        "name": "Giữ Xe 24/24 Anh Thuận",
        "latitude": 10.76431,
        "longitude": 106.70935,
        "address": "Giữ Xe 24/24 Anh Thuận, Đường Hoàng Diệu, Phường 13, Quận 4, Hồ Chí Minh, Việt Nam",
        "country_code": "VNM",
        "country_name": "Việt Nam",
        "city": "Hồ Chí Minh",
        "district": "Quận 4",
        "ward": "Phường 13",
        "street": "Đường Hoàng Diệu",
        "postal_code": "72820",
        "categories": [
            {
                "name": "Đỗ xe"
            }
        ]
    },
    {
        "name": "Bãi Giữ Xe 117A Nguyễn Tất Thành",
        "latitude": 10.76342,
        "longitude": 106.70806,
        "address": "Bãi Giữ Xe 117A Nguyễn Tất Thành, Đường Nguyễn Tất Thành, Phường 13, Quận 4, Hồ Chí Minh, Việt Nam",
        "country_code": "VNM",
        "country_name": "Việt Nam",
        "city": "Hồ Chí Minh",
        "district": "Quận 4",
        "ward": "Phường 13",
        "street": "Đường Nguyễn Tất Thành",
        "postal_code": "72820",
        "categories": [
            {
                "name": "Đỗ xe"
            }
        ]
    },
    {
        "name": "Giữ Xe",
        "latitude": 10.76283,
        "longitude": 106.70632,
        "address": "Giữ Xe, Đường Lê Văn Linh, Phường 13, Quận 4, Hồ Chí Minh, Việt Nam",
        "country_code": "VNM",
        "country_name": "Việt Nam",
        "city": "Hồ Chí Minh",
        "district": "Quận 4",
        "ward": "Phường 13",
        "street": "Đường Lê Văn Linh",
        "postal_code": "72820",
        "categories": [
            {
                "name": "Đỗ xe"
            }
        ]
    },
    {
        "name": "Bãi Giữ Xe Ngô Thời Nhiệm",
        "latitude": 10.77764,
        "longitude": 106.68693,
        "address": "Bãi Giữ Xe Ngô Thời Nhiệm, Đường Ngô Thời Nhiệm, Phường Võ Thị Sáu, Quận 3, Hồ Chí Minh, Việt Nam",
        "country_code": "VNM",
        "country_name": "Việt Nam",
        "city": "Hồ Chí Minh",
        "district": "Quận 3",
        "ward": "Phường Võ Thị Sáu",
        "street": "Đường Ngô Thời Nhiệm",
        "postal_code": "72415",
        "categories": [
            {
                "name": "Đỗ xe"
            }
        ]
    },
    {
        "name": "Nhà Đậu Xe Cao Tầng Parking Building",
        "latitude": 10.76323,
        "longitude": 106.69581,
        "address": "Nhà Đậu Xe Cao Tầng Parking Building, Đường Đề Thám, Phường Cầu Ông Lãnh, Quận 1, Hồ Chí Minh, Việt Nam",
        "country_code": "VNM",
        "country_name": "Việt Nam",
        "city": "Hồ Chí Minh",
        "district": "Quận 1",
        "ward": "Phường Cầu Ông Lãnh",
        "street": "Đường Đề Thám",
        "postal_code": "71011",
        "categories": [
            {
                "name": "Đỗ xe"
            }
        ]
    },
    {
        "name": "Bãi Giữ Xe",
        "latitude": 10.79069,
        "longitude": 106.69348,
        "address": "Bãi Giữ Xe, Đường Lý Văn Phức, Phường Tân Định, Quận 1, Hồ Chí Minh, Việt Nam",
        "country_code": "VNM",
        "country_name": "Việt Nam",
        "city": "Hồ Chí Minh",
        "district": "Quận 1",
        "ward": "Phường Tân Định",
        "street": "Đường Lý Văn Phức",
        "postal_code": "71008",
        "categories": [
            {
                "name": "Bãi đậu xe"
            },
            {
                "name": "Đỗ xe"
            }
        ]
    },
    {
        "name": "Giữ Xe Chilli",
        "latitude": 10.76152,
        "longitude": 106.70227,
        "address": "Giữ Xe Chilli, 10 Đường Vĩnh Khánh, Phường 8, Quận 4, Hồ Chí Minh, Việt Nam",
        "country_code": "VNM",
        "country_name": "Việt Nam",
        "city": "Hồ Chí Minh",
        "district": "Quận 4",
        "ward": "Phường 8",
        "street": "Đường Vĩnh Khánh",
        "postal_code": "72814",
        "categories": [
            {
                "name": "Đỗ xe"
            }
        ]
    },
    {
        "name": "Hồng Đức",
        "latitude": 10.79396,
        "longitude": 106.70085,
        "address": "Hồng Đức, 490D Hẻm 3 Điện Biên Phủ, Phường 15, Quận Bình Thạnh, Hồ Chí Minh, Việt Nam",
        "country_code": "VNM",
        "country_name": "Việt Nam",
        "city": "Hồ Chí Minh",
        "district": "Quận Bình Thạnh",
        "ward": "Phường 15",
        "street": "Hẻm 3 Điện Biên Phủ",
        "postal_code": "72320",
        "categories": [
            {
                "name": "Bãi đỗ xe nhiều tầng"
            },
            {
                "name": "Đỗ xe"
            }
        ]
    },
    {
        "name": "Bãi Giữ Đậu Xe Võ Văn Kiệt",
        "latitude": 10.76247,
        "longitude": 106.6953,
        "address": "Bãi Giữ Đậu Xe Võ Văn Kiệt, Đường Võ Văn Kiệt, Phường Cô Giang, Quận 1, Hồ Chí Minh, Việt Nam",
        "country_code": "VNM",
        "country_name": "Việt Nam",
        "city": "Hồ Chí Minh",
        "district": "Quận 1",
        "ward": "Phường Cô Giang",
        "street": "Đường Võ Văn Kiệt",
        "postal_code": "71013",
        "categories": [
            {
                "name": "Đỗ xe"
            }
        ]
    },
    {
        "name": "Bãi Giữ Xe Ngô Văn Sở",
        "latitude": 10.76198,
        "longitude": 106.70958,
        "address": "Bãi Giữ Xe Ngô Văn Sở, Đường Ngô Văn Sở, Phường 13, Quận 4, Hồ Chí Minh, Việt Nam",
        "country_code": "VNM",
        "country_name": "Việt Nam",
        "city": "Hồ Chí Minh",
        "district": "Quận 4",
        "ward": "Phường 13",
        "street": "Đường Ngô Văn Sở",
        "postal_code": "72820",
        "categories": [
            {
                "name": "Đỗ xe"
            }
        ]
    },
    {
        "name": "Giữ Xe 153",
        "latitude": 10.77083,
        "longitude": 106.68692,
        "address": "Giữ Xe 153, 153 Hẻm 153 Nguyễn Thị Minh Khai, Phường Phạm Ngũ Lão, Quận 1, Hồ Chí Minh, Việt Nam",
        "country_code": "VNM",
        "country_name": "Việt Nam",
        "city": "Hồ Chí Minh",
        "district": "Quận 1",
        "ward": "Phường Phạm Ngũ Lão",
        "street": "Hẻm 153 Nguyễn Thị Minh Khai",
        "postal_code": "71012",
        "categories": [
            {
                "name": "Đỗ xe"
            }
        ]
    },
    {
        "name": "Bãi Xe",
        "latitude": 10.79164,
        "longitude": 106.69241,
        "address": "Bãi Xe, 111 Hẻm 111 Đường Nguyễn Phi Khanh, Phường Tân Định, Quận 1, Hồ Chí Minh, Việt Nam",
        "country_code": "VNM",
        "country_name": "Việt Nam",
        "city": "Hồ Chí Minh",
        "district": "Quận 1",
        "ward": "Phường Tân Định",
        "street": "Hẻm 111 Đường Nguyễn Phi Khanh",
        "postal_code": "71008",
        "categories": [
            {
                "name": "Bãi đậu xe"
            },
            {
                "name": "Đỗ xe"
            }
        ]
    },
    {
        "name": "Xí Nghiệp Sản Xuất-Thương Mại Và Dịch Vụ Tổng Hợp 3-4",
        "latitude": 10.79011,
        "longitude": 106.71522,
        "address": "Xí Nghiệp Sản Xuất-Thương Mại Và Dịch Vụ Tổng Hợp 3-4, 19 Đường Ngô Tất Tố, Phường 22, Quận Bình Thạnh, Hồ Chí Minh, Việt Nam",
        "country_code": "VNM",
        "country_name": "Việt Nam",
        "city": "Hồ Chí Minh",
        "district": "Quận Bình Thạnh",
        "ward": "Phường 22",
        "street": "Đường Ngô Tất Tố",
        "postal_code": "72324",
        "categories": [
            {
                "name": "Đỗ xe"
            },
            {
                "name": "Doanh nghiệp"
            }
        ]
    },
    {
        "name": "Bãi Giữ Xe Điểm Tâm Sáng",
        "latitude": 10.78214,
        "longitude": 106.68561,
        "address": "Bãi Giữ Xe Điểm Tâm Sáng, Hẻm 232 Võ Thị Sáu, Phường Võ Thị Sáu, Quận 3, Hồ Chí Minh, Việt Nam",
        "country_code": "VNM",
        "country_name": "Việt Nam",
        "city": "Hồ Chí Minh",
        "district": "Quận 3",
        "ward": "Phường Võ Thị Sáu",
        "street": "Hẻm 232 Võ Thị Sáu",
        "postal_code": "72415",
        "categories": [
            {
                "name": "Đỗ xe"
            }
        ]
    },
    {
        "name": "Parking Bãi Gửi Xe Máy Ô Tô",
        "latitude": 10.76783,
        "longitude": 106.68793,
        "address": "Parking Bãi Gửi Xe Máy Ô Tô, Đường Nam Quốc Cang, Phường Phạm Ngũ Lão, Quận 1, Hồ Chí Minh, Việt Nam",
        "country_code": "VNM",
        "country_name": "Việt Nam",
        "city": "Hồ Chí Minh",
        "district": "Quận 1",
        "ward": "Phường Phạm Ngũ Lão",
        "street": "Đường Nam Quốc Cang",
        "postal_code": "71012",
        "categories": [
            {
                "name": "Đỗ xe"
            }
        ]
    },
    {
        "name": "Bãi Giữ Xe Bệnh Viện Mắt",
        "latitude": 10.77912,
        "longitude": 106.68485,
        "address": "Bãi Giữ Xe Bệnh Viện Mắt, Đường Tú Xương, Phường Võ Thị Sáu, Quận 3, Hồ Chí Minh, Việt Nam",
        "country_code": "VNM",
        "country_name": "Việt Nam",
        "city": "Hồ Chí Minh",
        "district": "Quận 3",
        "ward": "Phường Võ Thị Sáu",
        "street": "Đường Tú Xương",
        "postal_code": "72415",
        "categories": [
            {
                "name": "Đỗ xe"
            }
        ]
    },
    {
        "name": "Cửa Ra Hầm Đậu Xe",
        "latitude": 10.76119,
        "longitude": 106.69571,
        "address": "Cửa Ra Hầm Đậu Xe, Đường Võ Văn Kiệt, Phường Cô Giang, Quận 1, Hồ Chí Minh, Việt Nam",
        "country_code": "VNM",
        "country_name": "Việt Nam",
        "city": "Hồ Chí Minh",
        "district": "Quận 1",
        "ward": "Phường Cô Giang",
        "street": "Đường Võ Văn Kiệt",
        "postal_code": "71013",
        "categories": [
            {
                "name": "Bãi đậu xe"
            },
            {
                "name": "Đỗ xe"
            }
        ]
    },
    {
        "name": "Free Parking",
        "latitude": 10.76341,
        "longitude": 106.69118,
        "address": "Free Parking, Đường Trần Hưng Đạo, Phường Nguyễn Cư Trinh, Quận 1, Hồ Chí Minh, Việt Nam",
        "country_code": "VNM",
        "country_name": "Việt Nam",
        "city": "Hồ Chí Minh",
        "district": "Quận 1",
        "ward": "Phường Nguyễn Cư Trinh",
        "street": "Đường Trần Hưng Đạo",
        "postal_code": "71014",
        "categories": [
            {
                "name": "Đỗ xe"
            }
        ]
    },
    {
        "name": "Giữ Xe 24/24",
        "latitude": 10.76328,
        "longitude": 106.69026,
        "address": "Giữ Xe 24/24, Đường Cao Bá Nhạ, Phường Nguyễn Cư Trinh, Quận 1, Hồ Chí Minh, Việt Nam",
        "country_code": "VNM",
        "country_name": "Việt Nam",
        "city": "Hồ Chí Minh",
        "district": "Quận 1",
        "ward": "Phường Nguyễn Cư Trinh",
        "street": "Đường Cao Bá Nhạ",
        "postal_code": "71014",
        "categories": [
            {
                "name": "Đỗ xe"
            }
        ]
    },
    {
        "name": "Thy",
        "latitude": 10.76299,
        "longitude": 106.6902,
        "address": "Thy, 9 Đường Cao Bá Nhạ, Phường Nguyễn Cư Trinh, Quận 1, Hồ Chí Minh, Việt Nam",
        "country_code": "VNM",
        "country_name": "Việt Nam",
        "city": "Hồ Chí Minh",
        "district": "Quận 1",
        "ward": "Phường Nguyễn Cư Trinh",
        "street": "Đường Cao Bá Nhạ",
        "postal_code": "71014",
        "categories": [
            {
                "name": "Đỗ xe"
            }
        ]
    },
    {
        "name": "Bãi Xe 274 Nam Kỳ Khởi Nghĩa",
        "latitude": 10.78844,
        "longitude": 106.6855,
        "address": "Bãi Xe 274 Nam Kỳ Khởi Nghĩa, Đường Nam Kỳ Khởi Nghĩa, Phường Võ Thị Sáu, Quận 3, Hồ Chí Minh, Việt Nam",
        "country_code": "VNM",
        "country_name": "Việt Nam",
        "city": "Hồ Chí Minh",
        "district": "Quận 3",
        "ward": "Phường Võ Thị Sáu",
        "street": "Đường Nam Kỳ Khởi Nghĩa",
        "postal_code": "72415",
        "categories": [
            {
                "name": "Đỗ xe"
            }
        ]
    },
    {
        "name": "Giữ Xe Lạc Nhiên",
        "latitude": 10.78968,
        "longitude": 106.68557,
        "address": "Giữ Xe Lạc Nhiên, 6 Hẻm 82 Lý Chính Thắng, Phường Võ Thị Sáu, Quận 3, Hồ Chí Minh, Việt Nam",
        "country_code": "VNM",
        "country_name": "Việt Nam",
        "city": "Hồ Chí Minh",
        "district": "Quận 3",
        "ward": "Phường Võ Thị Sáu",
        "street": "Hẻm 82 Lý Chính Thắng",
        "postal_code": "72415",
        "categories": [
            {
                "name": "Đỗ xe"
            }
        ]
    },
    {
        "name": "Điểm Giữ Xe Ô Tô",
        "latitude": 10.79431,
        "longitude": 106.6901,
        "address": "Điểm Giữ Xe Ô Tô, Đường Trần Khánh Dư, Phường Tân Định, Quận 1, Hồ Chí Minh, Việt Nam",
        "country_code": "VNM",
        "country_name": "Việt Nam",
        "city": "Hồ Chí Minh",
        "district": "Quận 1",
        "ward": "Phường Tân Định",
        "street": "Đường Trần Khánh Dư",
        "postal_code": "71008",
        "categories": [
            {
                "name": "Đỗ xe"
            }
        ]
    },
    {
        "name": "Điểm Giữ Và Rữa Xe 55",
        "latitude": 10.79435,
        "longitude": 106.68968,
        "address": "Điểm Giữ Và Rữa Xe 55, 55 Hẻm 10 Đường Trần Nhật Duật, Phường Tân Định, Quận 1, Hồ Chí Minh, Việt Nam",
        "country_code": "VNM",
        "country_name": "Việt Nam",
        "city": "Hồ Chí Minh",
        "district": "Quận 1",
        "ward": "Phường Tân Định",
        "street": "Hẻm 10 Đường Trần Nhật Duật",
        "postal_code": "71008",
        "categories": [
            {
                "name": "Bãi đậu xe"
            },
            {
                "name": "Đỗ xe"
            }
        ]
    },
    {
        "name": "Điểm Giữ Xe Hai Tư Trên Hai Tư",
        "latitude": 10.75898,
        "longitude": 106.71421,
        "address": "Điểm Giữ Xe Hai Tư Trên Hai Tư, Đường Nguyễn Tất Thành, Phường 18, Quận 4, Hồ Chí Minh, Việt Nam",
        "country_code": "VNM",
        "country_name": "Việt Nam",
        "city": "Hồ Chí Minh",
        "district": "Quận 4",
        "ward": "Phường 18",
        "street": "Đường Nguyễn Tất Thành",
        "postal_code": "72819",
        "categories": [
            {
                "name": "Đỗ xe"
            }
        ]
    },
    {
        "name": "Bãi Giữ Xe Khanh Cường",
        "latitude": 10.79688,
        "longitude": 106.69253,
        "address": "Bãi Giữ Xe Khanh Cường, Đường Phan Xích Long, Phường 3, Quận Bình Thạnh, Hồ Chí Minh, Việt Nam",
        "country_code": "VNM",
        "country_name": "Việt Nam",
        "city": "Hồ Chí Minh",
        "district": "Quận Bình Thạnh",
        "ward": "Phường 3",
        "street": "Đường Phan Xích Long",
        "postal_code": "72317",
        "categories": [
            {
                "name": "Bãi đậu xe"
            },
            {
                "name": "Đỗ xe"
            }
        ]
    },
    {
        "name": "Điểm Giữ Xe 24 Giờ",
        "latitude": 10.75882,
        "longitude": 106.71432,
        "address": "Điểm Giữ Xe 24 Giờ, Đường Nguyễn Tất Thành, Phường 18, Quận 4, Hồ Chí Minh, Việt Nam",
        "country_code": "VNM",
        "country_name": "Việt Nam",
        "city": "Hồ Chí Minh",
        "district": "Quận 4",
        "ward": "Phường 18",
        "street": "Đường Nguyễn Tất Thành",
        "postal_code": "72819",
        "categories": [
            {
                "name": "Đỗ xe"
            }
        ]
    },
    {
        "name": "Bãi Giữ Đậu Xe Nhà Khách Phương Nam",
        "latitude": 10.76245,
        "longitude": 106.68626,
        "address": "Bãi Giữ Đậu Xe Nhà Khách Phương Nam, Đường Nguyễn Trãi, Phường Nguyễn Cư Trinh, Quận 1, Hồ Chí Minh, Việt Nam",
        "country_code": "VNM",
        "country_name": "Việt Nam",
        "city": "Hồ Chí Minh",
        "district": "Quận 1",
        "ward": "Phường Nguyễn Cư Trinh",
        "street": "Đường Nguyễn Trãi",
        "postal_code": "71014",
        "categories": [
            {
                "name": "Đỗ xe"
            }
        ]
    },
    {
        "name": "Nhận Giữ Xe 179",
        "latitude": 10.75555,
        "longitude": 106.70925,
        "address": "Nhận Giữ Xe 179, 179 Đường Xóm Chiếu, Phường 16, Quận 4, Hồ Chí Minh, Việt Nam",
        "country_code": "VNM",
        "country_name": "Việt Nam",
        "city": "Hồ Chí Minh",
        "district": "Quận 4",
        "ward": "Phường 16",
        "street": "Đường Xóm Chiếu",
        "postal_code": "72818",
        "categories": [
            {
                "name": "Đỗ xe"
            }
        ]
    },
    {
        "name": "Bãi Xe Lô B4 Cầu Thang Số 1",
        "latitude": 10.75446,
        "longitude": 106.69977,
        "address": "Bãi Xe Lô B4 Cầu Thang Số 1, Đường Số 12C, Phường 3, Quận 4, Hồ Chí Minh, Việt Nam",
        "country_code": "VNM",
        "country_name": "Việt Nam",
        "city": "Hồ Chí Minh",
        "district": "Quận 4",
        "ward": "Phường 3",
        "street": "Đường Số 12C",
        "postal_code": "72812",
        "categories": [
            {
                "name": "Đỗ xe"
            }
        ]
    },
    {
        "name": "Bãi Giữ Xe",
        "latitude": 10.75915,
        "longitude": 106.68784,
        "address": "Bãi Giữ Xe, Đường Trần Hưng Đạo, Phường Cầu Kho, Quận 1, Hồ Chí Minh, Việt Nam",
        "country_code": "VNM",
        "country_name": "Việt Nam",
        "city": "Hồ Chí Minh",
        "district": "Quận 1",
        "ward": "Phường Cầu Kho",
        "street": "Đường Trần Hưng Đạo",
        "postal_code": "71015",
        "categories": [
            {
                "name": "Đỗ xe"
            }
        ]
    },
    {
        "name": "Bãi Giữ Xe 458 Nguyễn Tất Thành 24/24",
        "latitude": 10.75785,
        "longitude": 106.7161,
        "address": "Bãi Giữ Xe 458 Nguyễn Tất Thành 24/24, Đường Nguyễn Tất Thành, Phường 18, Quận 4, Hồ Chí Minh, Việt Nam",
        "country_code": "VNM",
        "country_name": "Việt Nam",
        "city": "Hồ Chí Minh",
        "district": "Quận 4",
        "ward": "Phường 18",
        "street": "Đường Nguyễn Tất Thành",
        "postal_code": "72819",
        "categories": [
            {
                "name": "Đỗ xe"
            }
        ]
    },
    {
        "name": "Park 6b",
        "latitude": 10.79281,
        "longitude": 106.72168,
        "address": "Park 6b, Nguyễn Hữu Cảnh, Phường 22, Quận Bình Thạnh, Hồ Chí Minh, Việt Nam",
        "country_code": "VNM",
        "country_name": "Việt Nam",
        "city": "Hồ Chí Minh",
        "district": "Quận Bình Thạnh",
        "ward": "Phường 22",
        "street": "Nguyễn Hữu Cảnh",
        "postal_code": "72324",
        "categories": [
            {
                "name": "Đỗ xe"
            }
        ]
    },
    {
        "name": "Bãi Giữ Xe Nguyễn Văn Cừ",
        "latitude": 10.76332,
        "longitude": 106.68265,
        "address": "Bãi Giữ Xe Nguyễn Văn Cừ, Đường Nguyễn Văn Cừ, Phường Nguyễn Cư Trinh, Quận 1, Hồ Chí Minh, Việt Nam",
        "country_code": "VNM",
        "country_name": "Việt Nam",
        "city": "Hồ Chí Minh",
        "district": "Quận 1",
        "ward": "Phường Nguyễn Cư Trinh",
        "street": "Đường Nguyễn Văn Cừ",
        "postal_code": "71014",
        "categories": [
            {
                "name": "Đỗ xe"
            }
        ]
    },
    {
        "name": "Bãi Giữ Xe Trường Phổ Thông Trung Học Lê Hồng Phong",
        "latitude": 10.76341,
        "longitude": 106.68231,
        "address": "Bãi Giữ Xe Trường Phổ Thông Trung Học Lê Hồng Phong, Đường Nguyễn Văn Cừ, Phường 4, Quận 5, Hồ Chí Minh, Việt Nam",
        "country_code": "VNM",
        "country_name": "Việt Nam",
        "city": "Hồ Chí Minh",
        "district": "Quận 5",
        "ward": "Phường 4",
        "street": "Đường Nguyễn Văn Cừ",
        "postal_code": "72711",
        "categories": [
            {
                "name": "Bãi đậu xe"
            },
            {
                "name": "Đỗ xe"
            }
        ]
    },
    {
        "name": "Bãi Xe Khu Du Lịch Văn Thánh",
        "latitude": 10.79889,
        "longitude": 106.71661,
        "address": "Bãi Xe Khu Du Lịch Văn Thánh, Hẻm 25 Điện Biên Phủ, Phường 22, Quận Bình Thạnh, Hồ Chí Minh, Việt Nam",
        "country_code": "VNM",
        "country_name": "Việt Nam",
        "city": "Hồ Chí Minh",
        "district": "Quận Bình Thạnh",
        "ward": "Phường 22",
        "street": "Hẻm 25 Điện Biên Phủ",
        "postal_code": "72324",
        "categories": [
            {
                "name": "Đỗ xe"
            }
        ]
    },
    {
        "name": "Bãi Xe 501 Điện Biên Phủ",
        "latitude": 10.77141,
        "longitude": 106.67757,
        "address": "Bãi Xe 501 Điện Biên Phủ, Đường Điện Biên Phủ, Phường 3, Quận 3, Hồ Chí Minh, Việt Nam",
        "country_code": "VNM",
        "country_name": "Việt Nam",
        "city": "Hồ Chí Minh",
        "district": "Quận 3",
        "ward": "Phường 3",
        "street": "Đường Điện Biên Phủ",
        "postal_code": "72417",
        "categories": [
            {
                "name": "Đỗ xe"
            }
        ]
    },
    {
        "name": "Giữ Xe Ô Tô 24 Giờ",
        "latitude": 10.75309,
        "longitude": 106.69427,
        "address": "Giữ Xe Ô Tô 24 Giờ, Đường Tôn Thất Thuyết, Phường 1, Quận 4, Hồ Chí Minh, Việt Nam",
        "country_code": "VNM",
        "country_name": "Việt Nam",
        "city": "Hồ Chí Minh",
        "district": "Quận 4",
        "ward": "Phường 1",
        "street": "Đường Tôn Thất Thuyết",
        "postal_code": "72811",
        "categories": [
            {
                "name": "Đỗ xe"
            }
        ]
    },
    {
        "name": "Thu Cúc Bãi Giữ Xe",
        "latitude": 10.75182,
        "longitude": 106.698,
        "address": "Thu Cúc Bãi Giữ Xe, Đường Trần Xuân Soạn, Phường Tân Hưng, Quận 7, Hồ Chí Minh, Việt Nam",
        "country_code": "VNM",
        "country_name": "Việt Nam",
        "city": "Hồ Chí Minh",
        "district": "Quận 7",
        "ward": "Phường Tân Hưng",
        "street": "Đường Trần Xuân Soạn",
        "postal_code": "72912",
        "categories": [
            {
                "name": "Đỗ xe"
            }
        ]
    },
    {
        "name": "Nhận Giữ Xe Ngày Và Đêm",
        "latitude": 10.77009,
        "longitude": 106.67636,
        "address": "Nhận Giữ Xe Ngày Và Đêm, 575 Đường Điện Biên Phủ, Phường 1, Quận 3, Hồ Chí Minh, Việt Nam",
        "country_code": "VNM",
        "country_name": "Việt Nam",
        "city": "Hồ Chí Minh",
        "district": "Quận 3",
        "ward": "Phường 1",
        "street": "Đường Điện Biên Phủ",
        "postal_code": "72419",
        "categories": [
            {
                "name": "Đỗ xe"
            }
        ]
    },
    {
        "name": "Bãi Giữ Xe Ô Tô",
        "latitude": 10.80469,
        "longitude": 106.7017,
        "address": "Bãi Giữ Xe Ô Tô, Đường Phan Chu Trinh, Phường 14, Quận Bình Thạnh, Hồ Chí Minh, Việt Nam",
        "country_code": "VNM",
        "country_name": "Việt Nam",
        "city": "Hồ Chí Minh",
        "district": "Quận Bình Thạnh",
        "ward": "Phường 14",
        "street": "Đường Phan Chu Trinh",
        "postal_code": "72306",
        "categories": [
            {
                "name": "Đỗ xe"
            }
        ]
    },
    {
        "name": "Giữ Xe",
        "latitude": 10.76677,
        "longitude": 106.6772,
        "address": "Giữ Xe, 15 Đường Lý Thái Tổ, Phường 1, Quận 10, Hồ Chí Minh, Việt Nam",
        "country_code": "VNM",
        "country_name": "Việt Nam",
        "city": "Hồ Chí Minh",
        "district": "Quận 10",
        "ward": "Phường 1",
        "street": "Đường Lý Thái Tổ",
        "postal_code": "72520",
        "categories": [
            {
                "name": "Đỗ xe"
            }
        ]
    },
    {
        "name": "Bãi Xe 18",
        "latitude": 10.76981,
        "longitude": 106.67563,
        "address": "Bãi Xe 18, 18 Hẻm 11 Đường Trần Minh Quyền, Phường 11, Quận 10, Hồ Chí Minh, Việt Nam",
        "country_code": "VNM",
        "country_name": "Việt Nam",
        "city": "Hồ Chí Minh",
        "district": "Quận 10",
        "ward": "Phường 11",
        "street": "Hẻm 11 Đường Trần Minh Quyền",
        "postal_code": "72509",
        "categories": [
            {
                "name": "Đỗ xe"
            }
        ]
    },
    {
        "name": "Linh Giữ Xe Ngày Đêm",
        "latitude": 10.80075,
        "longitude": 106.71958,
        "address": "Linh Giữ Xe Ngày Đêm, Đường Hẻm Cư Xá 30/4, Phường 25, Quận Bình Thạnh, Hồ Chí Minh, Việt Nam",
        "country_code": "VNM",
        "country_name": "Việt Nam",
        "city": "Hồ Chí Minh",
        "district": "Quận Bình Thạnh",
        "ward": "Phường 25",
        "street": "Đường Hẻm Cư Xá 30/4",
        "postal_code": "72308",
        "categories": [
            {
                "name": "Đỗ xe"
            }
        ]
    },
    {
        "name": "Lê Trân",
        "latitude": 10.7876,
        "longitude": 106.72995,
        "address": "Lê Trân, Đường Trần Não, Phường An Khánh, Thủ Đức, Hồ Chí Minh, Việt Nam",
        "country_code": "VNM",
        "country_name": "Việt Nam",
        "city": "Hồ Chí Minh",
        "district": "Thủ Đức",
        "ward": "Phường An Khánh",
        "street": "Đường Trần Não",
        "postal_code": "71109",
        "categories": [
            {
                "name": "Đỗ xe"
            }
        ]
    },
    {
        "name": "Bãi Giữ Xe Co. Op Mart",
        "latitude": 10.78667,
        "longitude": 106.67515,
        "address": "Bãi Giữ Xe Co. Op Mart, Đường Trường Sa, Phường 12, Quận 3, Hồ Chí Minh, Việt Nam",
        "country_code": "VNM",
        "country_name": "Việt Nam",
        "city": "Hồ Chí Minh",
        "district": "Quận 3",
        "ward": "Phường 12",
        "street": "Đường Trường Sa",
        "postal_code": "72410",
        "categories": [
            {
                "name": "Đỗ xe"
            }
        ]
    },
    {
        "name": "Bãi Giữ Xe 24/24",
        "latitude": 10.80542,
        "longitude": 106.69491,
        "address": "Bãi Giữ Xe 24/24, 5 Đường Nơ Trang Long, Phường 14, Quận Bình Thạnh, Hồ Chí Minh, Việt Nam",
        "country_code": "VNM",
        "country_name": "Việt Nam",
        "city": "Hồ Chí Minh",
        "district": "Quận Bình Thạnh",
        "ward": "Phường 14",
        "street": "Đường Nơ Trang Long",
        "postal_code": "72306",
        "categories": [
            {
                "name": "Đỗ xe"
            }
        ]
    },
    {
        "name": "Bãi Xe Gemadept",
        "latitude": 10.80038,
        "longitude": 106.72094,
        "address": "Bãi Xe Gemadept, Đường Tân Cảng, Phường 25, Quận Bình Thạnh, Hồ Chí Minh, Việt Nam",
        "country_code": "VNM",
        "country_name": "Việt Nam",
        "city": "Hồ Chí Minh",
        "district": "Quận Bình Thạnh",
        "ward": "Phường 25",
        "street": "Đường Tân Cảng",
        "postal_code": "72308",
        "categories": [
            {
                "name": "Đỗ xe"
            }
        ]
    },
    {
        "name": "Bãi Giữ Xe Bệnh Viện Nhân Dân Gia Định",
        "latitude": 10.80572,
        "longitude": 106.695,
        "address": "Bãi Giữ Xe Bệnh Viện Nhân Dân Gia Định, 7 Đường Nơ Trang Long, Phường 14, Quận Bình Thạnh, Hồ Chí Minh, Việt Nam",
        "country_code": "VNM",
        "country_name": "Việt Nam",
        "city": "Hồ Chí Minh",
        "district": "Quận Bình Thạnh",
        "ward": "Phường 14",
        "street": "Đường Nơ Trang Long",
        "postal_code": "72306",
        "categories": [
            {
                "name": "Đỗ xe"
            }
        ]
    },
    {
        "name": "Garage Tiến Phát",
        "latitude": 10.75949,
        "longitude": 106.67892,
        "address": "Garage Tiến Phát, 358 Đường An Dương Vương, Phường 4, Quận 5, Hồ Chí Minh, Việt Nam",
        "country_code": "VNM",
        "country_name": "Việt Nam",
        "city": "Hồ Chí Minh",
        "district": "Quận 5",
        "ward": "Phường 4",
        "street": "Đường An Dương Vương",
        "postal_code": "72711",
        "categories": [
            {
                "name": "Sửa chữa hoặc bảo dưỡng ô tô"
            },
            {
                "name": "Sản xuất"
            },
            {
                "name": "Dịch vụ kinh doanh"
            },
            {
                "name": "Đỗ xe"
            },
            {
                "name": "Bãi đỗ xe nhiều tầng"
            }
        ]
    },
    {
        "name": "Giữ Xe",
        "latitude": 10.75795,
        "longitude": 106.67991,
        "address": "Giữ Xe, 80 Đường Nguyễn Trãi, Phường 3, Quận 5, Hồ Chí Minh, Việt Nam",
        "country_code": "VNM",
        "country_name": "Việt Nam",
        "city": "Hồ Chí Minh",
        "district": "Quận 5",
        "ward": "Phường 3",
        "street": "Đường Nguyễn Trãi",
        "postal_code": "72710",
        "categories": [
            {
                "name": "Đỗ xe"
            }
        ]
    },
    {
        "name": "Bãi Xe Hồng Hải",
        "latitude": 10.74714,
        "longitude": 106.70235,
        "address": "Bãi Xe Hồng Hải, Đường Nguyễn Hữu Thọ, Phường Tân Hưng, Quận 7, Hồ Chí Minh, Việt Nam",
        "country_code": "VNM",
        "country_name": "Việt Nam",
        "city": "Hồ Chí Minh",
        "district": "Quận 7",
        "ward": "Phường Tân Hưng",
        "street": "Đường Nguyễn Hữu Thọ",
        "postal_code": "72912",
        "categories": [
            {
                "name": "Đỗ xe"
            }
        ]
    },
    {
        "name": "Công Ty TNHH-SX-TM Quang Dương Bãi Giữ Xe",
        "latitude": 10.80127,
        "longitude": 106.68265,
        "address": "Công Ty TNHH-SX-TM Quang Dương Bãi Giữ Xe, 157A Hẻm 162 Phan Đăng Lưu, Phường 3, Quận Phú Nhuận, Hồ Chí Minh, Việt Nam",
        "country_code": "VNM",
        "country_name": "Việt Nam",
        "city": "Hồ Chí Minh",
        "district": "Quận Phú Nhuận",
        "ward": "Phường 3",
        "street": "Hẻm 162 Phan Đăng Lưu",
        "postal_code": "72213",
        "categories": [
            {
                "name": "Đỗ xe"
            }
        ]
    },
    {
        "name": "Bãi Xe Đức Tuấn",
        "latitude": 10.7468,
        "longitude": 106.70005,
        "address": "Bãi Xe Đức Tuấn, Hẻm 793 Đường Trần Xuân Soạn, Phường Tân Hưng, Quận 7, Hồ Chí Minh, Việt Nam",
        "country_code": "VNM",
        "country_name": "Việt Nam",
        "city": "Hồ Chí Minh",
        "district": "Quận 7",
        "ward": "Phường Tân Hưng",
        "street": "Hẻm 793 Đường Trần Xuân Soạn",
        "postal_code": "72912",
        "categories": [
            {
                "name": "Đỗ xe"
            }
        ]
    },
    {
        "name": "Bãi Giữ Xe",
        "latitude": 10.80336,
        "longitude": 106.72234,
        "address": "Bãi Giữ Xe, Hẻm 143A Đường Ung Văn Khiêm, Phường 25, Quận Bình Thạnh, Hồ Chí Minh, Việt Nam",
        "country_code": "VNM",
        "country_name": "Việt Nam",
        "city": "Hồ Chí Minh",
        "district": "Quận Bình Thạnh",
        "ward": "Phường 25",
        "street": "Hẻm 143A Đường Ung Văn Khiêm",
        "postal_code": "72308",
        "categories": [
            {
                "name": "Đỗ xe"
            }
        ]
    },
    {
        "name": "Bãi Giữ Xe Ôtô 368",
        "latitude": 10.80441,
        "longitude": 106.72154,
        "address": "Bãi Giữ Xe Ôtô 368, 143A Hẻm 143A Đường Ung Văn Khiêm, Phường 25, Quận Bình Thạnh, Hồ Chí Minh, Việt Nam",
        "country_code": "VNM",
        "country_name": "Việt Nam",
        "city": "Hồ Chí Minh",
        "district": "Quận Bình Thạnh",
        "ward": "Phường 25",
        "street": "Hẻm 143A Đường Ung Văn Khiêm",
        "postal_code": "72308",
        "categories": [
            {
                "name": "Đỗ xe"
            }
        ]
    },
    {
        "name": "Giữ Xe 24/24 220B",
        "latitude": 10.74495,
        "longitude": 106.70404,
        "address": "Giữ Xe 24/24 220B, Đường Lê Văn Lương, Phường Tân Hưng, Quận 7, Hồ Chí Minh, Việt Nam",
        "country_code": "VNM",
        "country_name": "Việt Nam",
        "city": "Hồ Chí Minh",
        "district": "Quận 7",
        "ward": "Phường Tân Hưng",
        "street": "Đường Lê Văn Lương",
        "postal_code": "72912",
        "categories": [
            {
                "name": "Đỗ xe"
            }
        ]
    },
    {
        "name": "Long Triệu",
        "latitude": 10.8081,
        "longitude": 106.71496,
        "address": "Long Triệu, Đường Ung Văn Khiêm, Phường 25, Quận Bình Thạnh, Hồ Chí Minh, Việt Nam",
        "country_code": "VNM",
        "country_name": "Việt Nam",
        "city": "Hồ Chí Minh",
        "district": "Quận Bình Thạnh",
        "ward": "Phường 25",
        "street": "Đường Ung Văn Khiêm",
        "postal_code": "72308",
        "categories": [
            {
                "name": "Đỗ xe"
            }
        ]
    },
    {
        "name": "Garage Anh Huy",
        "latitude": 10.74744,
        "longitude": 106.71608,
        "address": "Garage Anh Huy, Đường Lâm Văn Bền, Phường Tân Kiểng, Quận 7, Hồ Chí Minh, Việt Nam",
        "country_code": "VNM",
        "country_name": "Việt Nam",
        "city": "Hồ Chí Minh",
        "district": "Quận 7",
        "ward": "Phường Tân Kiểng",
        "street": "Đường Lâm Văn Bền",
        "postal_code": "72911",
        "categories": [
            {
                "name": "Đỗ xe"
            }
        ]
    },
    {
        "name": "Bãi Giữ Xe Hưng Phát",
        "latitude": 10.74502,
        "longitude": 106.69745,
        "address": "Bãi Giữ Xe Hưng Phát, Đường D4, Phường Tân Hưng, Quận 7, Hồ Chí Minh, Việt Nam",
        "country_code": "VNM",
        "country_name": "Việt Nam",
        "city": "Hồ Chí Minh",
        "district": "Quận 7",
        "ward": "Phường Tân Hưng",
        "street": "Đường D4",
        "postal_code": "72912",
        "categories": [
            {
                "name": "Đỗ xe"
            }
        ]
    }
]
