[
    {
        "name": "Coffee Bean Sài Gòn",
        "latitude": 10.82748,
        "longitude": 106.62413,
        "address": "Coffee Bean Sài Gòn, 24 Đường Phan Văn Hớn, Phường Tân Thới Nhất, Quận 12, Hồ Chí Minh, Việt Nam",
        "country_code": "VNM",
        "country_name": "Việt Nam",
        "city": "Hồ Chí Minh",
        "district": "Quận 12",
        "ward": "Phường Tân Thới Nhất",
        "street": "Đường Phan Văn Hớn",
        "postal_code": "71510",
        "categories": [
            {
                "name": "Quán cà phê"
            },
            {
                "name": "Cà Phê/Trà"
            }
        ]
    },
    {
        "name": "Venus Cafe - Nguyễn Văn Quá",
        "latitude": 10.82719,
        "longitude": 106.62673,
        "address": "Venus Cafe - Nguyễn Văn Quá, Đường Nguyễn Văn Quá, Phường Tân Hưng Thuận, Quận 12, Hồ Chí Minh, Việt Nam",
        "country_code": "VNM",
        "country_name": "Việt Nam",
        "city": "Hồ Chí Minh",
        "district": "Quận 12",
        "ward": "Phường Tân Hưng Thuận",
        "street": "Đường Nguyễn Văn Quá",
        "postal_code": "71509",
        "categories": [
            {
                "name": "Quán cà phê"
            },
            {
                "name": "Cà Phê/Trà"
            }
        ]
    },
    {
        "name": "Cafe Bida Anh Tú",
        "latitude": 10.82767,
        "longitude": 106.62614,
        "address": "Cafe Bida Anh Tú, Đường Song Hành Quốc Lộ 22, Phường Tân Hưng Thuận, Quận 12, Hồ Chí Minh, Việt Nam",
        "country_code": "VNM",
        "country_name": "Việt Nam",
        "city": "Hồ Chí Minh",
        "district": "Quận 12",
        "ward": "Phường Tân Hưng Thuận",
        "street": "Đường Song Hành Quốc Lộ 22",
        "postal_code": "71509",
        "categories": [
            {
                "name": "Quán cà phê"
            },
            {
                "name": "Cà Phê/Trà"
            }
        ]
    },
    {
        "name": "Huy Coffee And Milk Tea",
        "latitude": 10.82516,
        "longitude": 106.62076,
        "address": "Huy Coffee And Milk Tea, 44 Đường Dương Thị Giang, Phường Tân Thới Nhất, Quận 12, Hồ Chí Minh, Việt Nam",
        "country_code": "VNM",
        "country_name": "Việt Nam",
        "city": "Hồ Chí Minh",
        "district": "Quận 12",
        "ward": "Phường Tân Thới Nhất",
        "street": "Đường Dương Thị Giang",
        "postal_code": "71510",
        "categories": [
            {
                "name": "Quán ăn bình dân"
            },
            {
                "name": "Cà Phê/Trà"
            }
        ]
    },
    {
        "name": "Quán Cafe 148",
        "latitude": 10.82776,
        "longitude": 106.62688,
        "address": "Quán Cafe 148, Đường Nguyễn Văn Quá, Phường Tân Hưng Thuận, Quận 12, Hồ Chí Minh, Việt Nam",
        "country_code": "VNM",
        "country_name": "Việt Nam",
        "city": "Hồ Chí Minh",
        "district": "Quận 12",
        "ward": "Phường Tân Hưng Thuận",
        "street": "Đường Nguyễn Văn Quá",
        "postal_code": "71509",
        "categories": [
            {
                "name": "Quán cà phê"
            },
            {
                "name": "Cà Phê/Trà"
            }
        ]
    },
    {
        "name": "Cafe New Moon",
        "latitude": 10.82776,
        "longitude": 106.62688,
        "address": "Cafe New Moon, Đường Nguyễn Văn Quá, Phường Tân Hưng Thuận, Quận 12, Hồ Chí Minh, Việt Nam",
        "country_code": "VNM",
        "country_name": "Việt Nam",
        "city": "Hồ Chí Minh",
        "district": "Quận 12",
        "ward": "Phường Tân Hưng Thuận",
        "street": "Đường Nguyễn Văn Quá",
        "postal_code": "71509",
        "categories": [
            {
                "name": "Quán cà phê"
            },
            {
                "name": "Cà Phê/Trà"
            }
        ]
    },
    {
        "name": "Quán Cà Phê 196",
        "latitude": 10.82861,
        "longitude": 106.62465,
        "address": "Quán Cà Phê 196, Đường Trường Chinh, Phường Tân Hưng Thuận, Quận 12, Hồ Chí Minh, Việt Nam",
        "country_code": "VNM",
        "country_name": "Việt Nam",
        "city": "Hồ Chí Minh",
        "district": "Quận 12",
        "ward": "Phường Tân Hưng Thuận",
        "street": "Đường Trường Chinh",
        "postal_code": "71509",
        "categories": [
            {
                "name": "Quán cà phê"
            },
            {
                "name": "Cà Phê/Trà"
            }
        ]
    },
    {
        "name": "Devin Coffee",
        "latitude": 10.82589,
        "longitude": 106.62062,
        "address": "Devin Coffee, Đường Thị Giang, Phường Tân Thới Nhất, Quận 12, Hồ Chí Minh, Việt Nam",
        "country_code": "VNM",
        "country_name": "Việt Nam",
        "city": "Hồ Chí Minh",
        "district": "Quận 12",
        "ward": "Phường Tân Thới Nhất",
        "street": "Đường Thị Giang",
        "postal_code": "71510",
        "categories": [
            {
                "name": "Cà Phê/Trà"
            }
        ]
    },
    {
        "name": "Cinema Caffe",
        "latitude": 10.82794,
        "longitude": 106.62682,
        "address": "Cinema Caffe, 45 Hẻm 1 Đường Nguyễn Văn Quá, Phường Tân Hưng Thuận, Quận 12, Hồ Chí Minh, Việt Nam",
        "country_code": "VNM",
        "country_name": "Việt Nam",
        "city": "Hồ Chí Minh",
        "district": "Quận 12",
        "ward": "Phường Tân Hưng Thuận",
        "street": "Hẻm 1 Đường Nguyễn Văn Quá",
        "postal_code": "71509",
        "categories": [
            {
                "name": "Cà Phê/Trà"
            }
        ]
    },
    {
        "name": "Quán Café Diễm Xưa",
        "latitude": 10.82787,
        "longitude": 106.62157,
        "address": "Quán Café Diễm Xưa, 57 Đường Phan Văn Hớn, Phường Tân Thới Nhất, Quận 12, Hồ Chí Minh, Việt Nam",
        "country_code": "VNM",
        "country_name": "Việt Nam",
        "city": "Hồ Chí Minh",
        "district": "Quận 12",
        "ward": "Phường Tân Thới Nhất",
        "street": "Đường Phan Văn Hớn",
        "postal_code": "71510",
        "categories": [
            {
                "name": "Quán cà phê"
            },
            {
                "name": "Cà Phê/Trà"
            }
        ]
    },
    {
        "name": "Cafe Cổ Viên",
        "latitude": 10.82925,
        "longitude": 106.62442,
        "address": "Cafe Cổ Viên, Đường Trường Chinh, Phường Tân Hưng Thuận, Quận 12, Hồ Chí Minh, Việt Nam",
        "country_code": "VNM",
        "country_name": "Việt Nam",
        "city": "Hồ Chí Minh",
        "district": "Quận 12",
        "ward": "Phường Tân Hưng Thuận",
        "street": "Đường Trường Chinh",
        "postal_code": "71509",
        "categories": [
            {
                "name": "Cà Phê/Trà"
            }
        ]
    },
    {
        "name": "Pauda Coffee",
        "latitude": 10.8287,
        "longitude": 106.62677,
        "address": "Pauda Coffee, 81 Đường Nguyễn Văn Quá, Phường Tân Hưng Thuận, Quận 12, Hồ Chí Minh, Việt Nam",
        "country_code": "VNM",
        "country_name": "Việt Nam",
        "city": "Hồ Chí Minh",
        "district": "Quận 12",
        "ward": "Phường Tân Hưng Thuận",
        "street": "Đường Nguyễn Văn Quá",
        "postal_code": "71509",
        "categories": [
            {
                "name": "Quán cà phê"
            },
            {
                "name": "Nhà hàng"
            },
            {
                "name": "Quán ăn bình dân"
            },
            {
                "name": "Cà Phê/Trà"
            }
        ]
    },
    {
        "name": "Tinh Lang Cafe",
        "latitude": 10.82385,
        "longitude": 106.61964,
        "address": "Tinh Lang Cafe, Đường TTN 17, Phường Tân Thới Nhất, Quận 12, Hồ Chí Minh, Việt Nam",
        "country_code": "VNM",
        "country_name": "Việt Nam",
        "city": "Hồ Chí Minh",
        "district": "Quận 12",
        "ward": "Phường Tân Thới Nhất",
        "street": "Đường TTN 17",
        "postal_code": "71510",
        "categories": [
            {
                "name": "Cà Phê/Trà"
            }
        ]
    },
    {
        "name": "Quán Cafe Diễm",
        "latitude": 10.82313,
        "longitude": 106.62948,
        "address": "Quán Cafe Diễm, Cầu Tham Lương 1, Phường Tây Thạnh, Quận Tân Phú, Hồ Chí Minh, Việt Nam",
        "country_code": "VNM",
        "country_name": "Việt Nam",
        "city": "Hồ Chí Minh",
        "district": "Quận Tân Phú",
        "ward": "Phường Tây Thạnh",
        "street": "Cầu Tham Lương 1",
        "postal_code": "72009",
        "categories": [
            {
                "name": "Quán cà phê"
            },
            {
                "name": "Cà Phê/Trà"
            }
        ]
    },
    {
        "name": "Cà Phê Cầu Tham Lương",
        "latitude": 10.82297,
        "longitude": 106.62943,
        "address": "Cà Phê Cầu Tham Lương, 1001 Đường Trường Chinh, Phường Tây Thạnh, Quận Tân Phú, Hồ Chí Minh, Việt Nam",
        "country_code": "VNM",
        "country_name": "Việt Nam",
        "city": "Hồ Chí Minh",
        "district": "Quận Tân Phú",
        "ward": "Phường Tây Thạnh",
        "street": "Đường Trường Chinh",
        "postal_code": "72009",
        "categories": [
            {
                "name": "Cafeteria"
            },
            {
                "name": "Cà Phê/Trà"
            }
        ]
    },
    {
        "name": "Cafe Hương Quỳnh",
        "latitude": 10.82951,
        "longitude": 106.62692,
        "address": "Cafe Hương Quỳnh, 103 Đường Nguyễn Văn Quá, Phường Tân Hưng Thuận, Quận 12, Hồ Chí Minh, Việt Nam",
        "country_code": "VNM",
        "country_name": "Việt Nam",
        "city": "Hồ Chí Minh",
        "district": "Quận 12",
        "ward": "Phường Tân Hưng Thuận",
        "street": "Đường Nguyễn Văn Quá",
        "postal_code": "71509",
        "categories": [
            {
                "name": "Quán cà phê"
            },
            {
                "name": "Cà Phê/Trà"
            }
        ]
    },
    {
        "name": "Cafe Nhật Minh",
        "latitude": 10.82966,
        "longitude": 106.62697,
        "address": "Cafe Nhật Minh, 107 Đường Nguyễn Văn Quá, Phường Tân Hưng Thuận, Quận 12, Hồ Chí Minh, Việt Nam",
        "country_code": "VNM",
        "country_name": "Việt Nam",
        "city": "Hồ Chí Minh",
        "district": "Quận 12",
        "ward": "Phường Tân Hưng Thuận",
        "street": "Đường Nguyễn Văn Quá",
        "postal_code": "71509",
        "categories": [
            {
                "name": "Quán cà phê"
            },
            {
                "name": "Cà Phê/Trà"
            }
        ]
    },
    {
        "name": "Quán Cafe X94",
        "latitude": 10.82971,
        "longitude": 106.62708,
        "address": "Quán Cafe X94, 94 Đường Nguyễn Văn Quá, Phường Tân Hưng Thuận, Quận 12, Hồ Chí Minh, Việt Nam",
        "country_code": "VNM",
        "country_name": "Việt Nam",
        "city": "Hồ Chí Minh",
        "district": "Quận 12",
        "ward": "Phường Tân Hưng Thuận",
        "street": "Đường Nguyễn Văn Quá",
        "postal_code": "71509",
        "categories": [
            {
                "name": "Quán cà phê"
            },
            {
                "name": "Cà Phê/Trà"
            }
        ]
    },
    {
        "name": "Luxubu Cafe",
        "latitude": 10.81965,
        "longitude": 106.62142,
        "address": "Luxubu Cafe, Đường TTN 21, Phường Tân Thới Nhất, Quận 12, Hồ Chí Minh, Việt Nam",
        "country_code": "VNM",
        "country_name": "Việt Nam",
        "city": "Hồ Chí Minh",
        "district": "Quận 12",
        "ward": "Phường Tân Thới Nhất",
        "street": "Đường TTN 21",
        "postal_code": "71510",
        "categories": [
            {
                "name": "Cà Phê/Trà"
            }
        ]
    },
    {
        "name": "D'Mang Cafe",
        "latitude": 10.82867,
        "longitude": 106.62892,
        "address": "D'Mang Cafe, Đường Nguyễn Văn Quá, Phường Đông Hưng Thuận, Quận 12, Hồ Chí Minh, Việt Nam",
        "country_code": "VNM",
        "country_name": "Việt Nam",
        "city": "Hồ Chí Minh",
        "district": "Quận 12",
        "ward": "Phường Đông Hưng Thuận",
        "street": "Đường Nguyễn Văn Quá",
        "postal_code": "71508",
        "categories": [
            {
                "name": "Cà Phê/Trà"
            },
            {
                "name": "Quán cà phê"
            },
            {
                "name": "Quán cà phê internet"
            }
        ]
    },
    {
        "name": "Dã Quỳ Cafe - Nguyễn Văn Quá",
        "latitude": 10.83016,
        "longitude": 106.62713,
        "address": "Dã Quỳ Cafe - Nguyễn Văn Quá, Đường Nguyễn Văn Quá, Phường Đông Hưng Thuận, Quận 12, Hồ Chí Minh, Việt Nam",
        "country_code": "VNM",
        "country_name": "Việt Nam",
        "city": "Hồ Chí Minh",
        "district": "Quận 12",
        "ward": "Phường Đông Hưng Thuận",
        "street": "Đường Nguyễn Văn Quá",
        "postal_code": "71508",
        "categories": [
            {
                "name": "Cà Phê/Trà"
            },
            {
                "name": "Quán cà phê"
            }
        ]
    },
    {
        "name": "Quán Cafe Mai Lan",
        "latitude": 10.82546,
        "longitude": 106.63072,
        "address": "Quán Cafe Mai Lan, 36 Đường Phan Huy Ích, Phường 15, Quận Tân Bình, Hồ Chí Minh, Việt Nam",
        "country_code": "VNM",
        "country_name": "Việt Nam",
        "city": "Hồ Chí Minh",
        "district": "Quận Tân Bình",
        "ward": "Phường 15",
        "street": "Đường Phan Huy Ích",
        "postal_code": "72109",
        "categories": [
            {
                "name": "Quán cà phê"
            },
            {
                "name": "Cà Phê/Trà"
            }
        ]
    },
    {
        "name": "Giếng Cafe",
        "latitude": 10.82838,
        "longitude": 106.61917,
        "address": "Giếng Cafe, Đường Phan Văn Hớn, Phường Tân Thới Nhất, Quận 12, Hồ Chí Minh, Việt Nam",
        "country_code": "VNM",
        "country_name": "Việt Nam",
        "city": "Hồ Chí Minh",
        "district": "Quận 12",
        "ward": "Phường Tân Thới Nhất",
        "street": "Đường Phan Văn Hớn",
        "postal_code": "71510",
        "categories": [
            {
                "name": "Quán cà phê"
            },
            {
                "name": "Cà Phê/Trà"
            }
        ]
    },
    {
        "name": "Quán Cafe Nhật Vy",
        "latitude": 10.82549,
        "longitude": 106.63106,
        "address": "Quán Cafe Nhật Vy, 1A Đường Cống Lở, Phường 15, Quận Tân Bình, Hồ Chí Minh, Việt Nam",
        "country_code": "VNM",
        "country_name": "Việt Nam",
        "city": "Hồ Chí Minh",
        "district": "Quận Tân Bình",
        "ward": "Phường 15",
        "street": "Đường Cống Lở",
        "postal_code": "72109",
        "categories": [
            {
                "name": "Quán cà phê"
            },
            {
                "name": "Cà Phê/Trà"
            }
        ]
    },
    {
        "name": "Cà Phê Vườn Đào",
        "latitude": 10.82181,
        "longitude": 106.631,
        "address": "Cà Phê Vườn Đào, 9 Hẻm 14 Đường Nguyễn Phúc Chu, Phường 15, Quận Tân Bình, Hồ Chí Minh, Việt Nam",
        "country_code": "VNM",
        "country_name": "Việt Nam",
        "city": "Hồ Chí Minh",
        "district": "Quận Tân Bình",
        "ward": "Phường 15",
        "street": "Hẻm 14 Đường Nguyễn Phúc Chu",
        "postal_code": "72109",
        "categories": [
            {
                "name": "Quán cà phê"
            },
            {
                "name": "Cà Phê/Trà"
            }
        ]
    },
    {
        "name": "Quán Cafe Thanh Tân",
        "latitude": 10.82563,
        "longitude": 106.63167,
        "address": "Quán Cafe Thanh Tân, 15 Đường Cống Lở, Phường 15, Quận Tân Bình, Hồ Chí Minh, Việt Nam",
        "country_code": "VNM",
        "country_name": "Việt Nam",
        "city": "Hồ Chí Minh",
        "district": "Quận Tân Bình",
        "ward": "Phường 15",
        "street": "Đường Cống Lở",
        "postal_code": "72109",
        "categories": [
            {
                "name": "Quán cà phê"
            },
            {
                "name": "Cà Phê/Trà"
            }
        ]
    },
    {
        "name": "Quán Cafe Ước Mơ",
        "latitude": 10.82564,
        "longitude": 106.63173,
        "address": "Quán Cafe Ước Mơ, 13A Đường Cống Lở, Phường 15, Quận Tân Bình, Hồ Chí Minh, Việt Nam",
        "country_code": "VNM",
        "country_name": "Việt Nam",
        "city": "Hồ Chí Minh",
        "district": "Quận Tân Bình",
        "ward": "Phường 15",
        "street": "Đường Cống Lở",
        "postal_code": "72109",
        "categories": [
            {
                "name": "Quán cà phê"
            },
            {
                "name": "Cà Phê/Trà"
            }
        ]
    },
    {
        "name": "Coffee Minh Tuyết",
        "latitude": 10.82557,
        "longitude": 106.63177,
        "address": "Coffee Minh Tuyết, 14 Đường Cống Lở, Phường 15, Quận Tân Bình, Hồ Chí Minh, Việt Nam",
        "country_code": "VNM",
        "country_name": "Việt Nam",
        "city": "Hồ Chí Minh",
        "district": "Quận Tân Bình",
        "ward": "Phường 15",
        "street": "Đường Cống Lở",
        "postal_code": "72109",
        "categories": [
            {
                "name": "Quán cà phê"
            },
            {
                "name": "Cà Phê/Trà"
            }
        ]
    },
    {
        "name": "Cafe Giải Khát Tuyết Nhung - Tống Văn Hên",
        "latitude": 10.82139,
        "longitude": 106.63157,
        "address": "Cafe Giải Khát Tuyết Nhung - Tống Văn Hên, 23 Đường Tống Văn Hên, Phường 15, Quận Tân Bình, Hồ Chí Minh, Việt Nam",
        "country_code": "VNM",
        "country_name": "Việt Nam",
        "city": "Hồ Chí Minh",
        "district": "Quận Tân Bình",
        "ward": "Phường 15",
        "street": "Đường Tống Văn Hên",
        "postal_code": "72109",
        "categories": [
            {
                "name": "Quán cà phê"
            },
            {
                "name": "Cà Phê/Trà"
            }
        ]
    },
    {
        "name": "Cafe Nâu Đen",
        "latitude": 10.8275,
        "longitude": 106.63177,
        "address": "Cafe Nâu Đen, 74A Đường Phan Huy Ích, Phường 15, Quận Tân Bình, Hồ Chí Minh, Việt Nam",
        "country_code": "VNM",
        "country_name": "Việt Nam",
        "city": "Hồ Chí Minh",
        "district": "Quận Tân Bình",
        "ward": "Phường 15",
        "street": "Đường Phan Huy Ích",
        "postal_code": "72109",
        "categories": [
            {
                "name": "Cà Phê/Trà"
            },
            {
                "name": "Quán cà phê"
            }
        ]
    },
    {
        "name": "Trà Chanh 83",
        "latitude": 10.82787,
        "longitude": 106.63167,
        "address": "Trà Chanh 83, 83 Đường Phan Huy Ích, Phường 15, Quận Tân Bình, Hồ Chí Minh, Việt Nam",
        "country_code": "VNM",
        "country_name": "Việt Nam",
        "city": "Hồ Chí Minh",
        "district": "Quận Tân Bình",
        "ward": "Phường 15",
        "street": "Đường Phan Huy Ích",
        "postal_code": "72109",
        "categories": [
            {
                "name": "Cà Phê/Trà"
            }
        ]
    },
    {
        "name": "Cafe Giải Khát - 82 Phan Huy Ích",
        "latitude": 10.82784,
        "longitude": 106.63196,
        "address": "Cafe Giải Khát - 82 Phan Huy Ích, 82 Đường Phan Huy Ích, Phường 15, Quận Tân Bình, Hồ Chí Minh, Việt Nam",
        "country_code": "VNM",
        "country_name": "Việt Nam",
        "city": "Hồ Chí Minh",
        "district": "Quận Tân Bình",
        "ward": "Phường 15",
        "street": "Đường Phan Huy Ích",
        "postal_code": "72109",
        "categories": [
            {
                "name": "Quán cà phê"
            },
            {
                "name": "Cà Phê/Trà"
            }
        ]
    },
    {
        "name": "Quán Cafe Vô Thường",
        "latitude": 10.82097,
        "longitude": 106.63183,
        "address": "Quán Cafe Vô Thường, Đường Tống Văn Hên, Phường 15, Quận Tân Bình, Hồ Chí Minh, Việt Nam",
        "country_code": "VNM",
        "country_name": "Việt Nam",
        "city": "Hồ Chí Minh",
        "district": "Quận Tân Bình",
        "ward": "Phường 15",
        "street": "Đường Tống Văn Hên",
        "postal_code": "72109",
        "categories": [
            {
                "name": "Quán cà phê"
            },
            {
                "name": "Cà Phê/Trà"
            }
        ]
    },
    {
        "name": "Quán Cafe X9",
        "latitude": 10.81659,
        "longitude": 106.62599,
        "address": "Quán Cafe X9, 51 Đường Tây Thạnh, Phường Tây Thạnh, Quận Tân Phú, Hồ Chí Minh, Việt Nam",
        "country_code": "VNM",
        "country_name": "Việt Nam",
        "city": "Hồ Chí Minh",
        "district": "Quận Tân Phú",
        "ward": "Phường Tây Thạnh",
        "street": "Đường Tây Thạnh",
        "postal_code": "72009",
        "categories": [
            {
                "name": "Quán cà phê"
            },
            {
                "name": "Cà Phê/Trà"
            }
        ]
    },
    {
        "name": "Let's Coffee",
        "latitude": 10.8327,
        "longitude": 106.62627,
        "address": "Let's Coffee, Đường Đông Hưng Thuận 45, Phường Tân Hưng Thuận, Quận 12, Hồ Chí Minh, Việt Nam",
        "country_code": "VNM",
        "country_name": "Việt Nam",
        "city": "Hồ Chí Minh",
        "district": "Quận 12",
        "ward": "Phường Tân Hưng Thuận",
        "street": "Đường Đông Hưng Thuận 45",
        "postal_code": "71509",
        "categories": [
            {
                "name": "Cà Phê/Trà"
            }
        ]
    },
    {
        "name": "Phố Nhỏ Cafe - Trần Thái Tông",
        "latitude": 10.81973,
        "longitude": 106.63127,
        "address": "Phố Nhỏ Cafe - Trần Thái Tông, 4 Đường Trần Thái Tông, Phường 15, Quận Tân Bình, Hồ Chí Minh, Việt Nam",
        "country_code": "VNM",
        "country_name": "Việt Nam",
        "city": "Hồ Chí Minh",
        "district": "Quận Tân Bình",
        "ward": "Phường 15",
        "street": "Đường Trần Thái Tông",
        "postal_code": "72109",
        "categories": [
            {
                "name": "Quán cà phê"
            },
            {
                "name": "Cà Phê/Trà"
            }
        ]
    },
    {
        "name": "Sinh Tố Tình Cờ",
        "latitude": 10.83286,
        "longitude": 106.62131,
        "address": "Sinh Tố Tình Cờ, Đường Trường Chinh, Phường Tân Thới Nhất, Quận 12, Hồ Chí Minh, Việt Nam",
        "country_code": "VNM",
        "country_name": "Việt Nam",
        "city": "Hồ Chí Minh",
        "district": "Quận 12",
        "ward": "Phường Tân Thới Nhất",
        "street": "Đường Trường Chinh",
        "postal_code": "71510",
        "categories": [
            {
                "name": "Cà Phê/Trà"
            }
        ]
    },
    {
        "name": "Alba Coffee - Phan Huy Ích",
        "latitude": 10.82887,
        "longitude": 106.6324,
        "address": "Alba Coffee - Phan Huy Ích, 98B Đường Phan Huy Ích, Phường 15, Quận Tân Bình, Hồ Chí Minh, Việt Nam",
        "country_code": "VNM",
        "country_name": "Việt Nam",
        "city": "Hồ Chí Minh",
        "district": "Quận Tân Bình",
        "ward": "Phường 15",
        "street": "Đường Phan Huy Ích",
        "postal_code": "72109",
        "categories": [
            {
                "name": "Cà Phê/Trà"
            },
            {
                "name": "Quán cà phê"
            }
        ]
    },
    {
        "name": "Quán Cafe Ngôi Sao - Star",
        "latitude": 10.83332,
        "longitude": 106.62146,
        "address": "Quán Cafe Ngôi Sao - Star, Đường Trường Chinh, Phường Tân Hưng Thuận, Quận 12, Hồ Chí Minh, Việt Nam",
        "country_code": "VNM",
        "country_name": "Việt Nam",
        "city": "Hồ Chí Minh",
        "district": "Quận 12",
        "ward": "Phường Tân Hưng Thuận",
        "street": "Đường Trường Chinh",
        "postal_code": "71509",
        "categories": [
            {
                "name": "Quán cà phê"
            },
            {
                "name": "Cà Phê/Trà"
            }
        ]
    },
    {
        "name": "Cà Phê Tuyết Anh",
        "latitude": 10.82205,
        "longitude": 106.63359,
        "address": "Cà Phê Tuyết Anh, 92 Đường Nguyễn Phúc Chu, Phường 15, Quận Tân Bình, Hồ Chí Minh, Việt Nam",
        "country_code": "VNM",
        "country_name": "Việt Nam",
        "city": "Hồ Chí Minh",
        "district": "Quận Tân Bình",
        "ward": "Phường 15",
        "street": "Đường Nguyễn Phúc Chu",
        "postal_code": "72109",
        "categories": [
            {
                "name": "Quán cà phê"
            },
            {
                "name": "Cà Phê/Trà"
            }
        ]
    },
    {
        "name": "Cafe Thúy Hằng - Nguyễn Phúc Chu",
        "latitude": 10.82228,
        "longitude": 106.6337,
        "address": "Cafe Thúy Hằng - Nguyễn Phúc Chu, 79 Đường Nguyễn Phúc Chu, Phường 15, Quận Tân Bình, Hồ Chí Minh, Việt Nam",
        "country_code": "VNM",
        "country_name": "Việt Nam",
        "city": "Hồ Chí Minh",
        "district": "Quận Tân Bình",
        "ward": "Phường 15",
        "street": "Đường Nguyễn Phúc Chu",
        "postal_code": "72109",
        "categories": [
            {
                "name": "Quán cà phê"
            },
            {
                "name": "Cà Phê/Trà"
            }
        ]
    },
    {
        "name": "Quán Cafe Hi-Tek",
        "latitude": 10.82951,
        "longitude": 106.63264,
        "address": "Quán Cafe Hi-Tek, 102 Đường Phan Huy Ích, Phường 15, Quận Tân Bình, Hồ Chí Minh, Việt Nam",
        "country_code": "VNM",
        "country_name": "Việt Nam",
        "city": "Hồ Chí Minh",
        "district": "Quận Tân Bình",
        "ward": "Phường 15",
        "street": "Đường Phan Huy Ích",
        "postal_code": "72109",
        "categories": [
            {
                "name": "Quán cà phê"
            },
            {
                "name": "Cà Phê/Trà"
            }
        ]
    },
    {
        "name": "Quán Cafe Hoàng Linh",
        "latitude": 10.82951,
        "longitude": 106.63264,
        "address": "Quán Cafe Hoàng Linh, 102 Đường Phan Huy Ích, Phường 15, Quận Tân Bình, Hồ Chí Minh, Việt Nam",
        "country_code": "VNM",
        "country_name": "Việt Nam",
        "city": "Hồ Chí Minh",
        "district": "Quận Tân Bình",
        "ward": "Phường 15",
        "street": "Đường Phan Huy Ích",
        "postal_code": "72109",
        "categories": [
            {
                "name": "Quán cà phê"
            },
            {
                "name": "Cà Phê/Trà"
            }
        ]
    },
    {
        "name": "Quán Cafe Trúc Giang",
        "latitude": 10.81912,
        "longitude": 106.63235,
        "address": "Quán Cafe Trúc Giang, 47A Đường Trần Thái Tông, Phường 15, Quận Tân Bình, Hồ Chí Minh, Việt Nam",
        "country_code": "VNM",
        "country_name": "Việt Nam",
        "city": "Hồ Chí Minh",
        "district": "Quận Tân Bình",
        "ward": "Phường 15",
        "street": "Đường Trần Thái Tông",
        "postal_code": "72109",
        "categories": [
            {
                "name": "Quán cà phê"
            },
            {
                "name": "Cà Phê/Trà"
            }
        ]
    },
    {
        "name": "Thiên Lý Cafe",
        "latitude": 10.82058,
        "longitude": 106.63327,
        "address": "Thiên Lý Cafe, 20 Đường Trần Thái Tông, Phường 15, Quận Tân Bình, Hồ Chí Minh, Việt Nam",
        "country_code": "VNM",
        "country_name": "Việt Nam",
        "city": "Hồ Chí Minh",
        "district": "Quận Tân Bình",
        "ward": "Phường 15",
        "street": "Đường Trần Thái Tông",
        "postal_code": "72109",
        "categories": [
            {
                "name": "Quán cà phê"
            },
            {
                "name": "Cà Phê/Trà"
            }
        ]
    },
    {
        "name": "Phúc Lộc Quán",
        "latitude": 10.81503,
        "longitude": 106.62418,
        "address": "Phúc Lộc Quán, Đường Tây Thạnh, Phường Tây Thạnh, Quận Tân Phú, Hồ Chí Minh, Việt Nam",
        "country_code": "VNM",
        "country_name": "Việt Nam",
        "city": "Hồ Chí Minh",
        "district": "Quận Tân Phú",
        "ward": "Phường Tây Thạnh",
        "street": "Đường Tây Thạnh",
        "postal_code": "72009",
        "categories": [
            {
                "name": "Quán cà phê"
            },
            {
                "name": "Cà Phê/Trà"
            }
        ]
    },
    {
        "name": "Quán Cà Phê Gia Bảo",
        "latitude": 10.83364,
        "longitude": 106.62831,
        "address": "Quán Cà Phê Gia Bảo, 229 Hẻm 1 Đường Nguyễn Văn Quá, Phường Đông Hưng Thuận, Quận 12, Hồ Chí Minh, Việt Nam",
        "country_code": "VNM",
        "country_name": "Việt Nam",
        "city": "Hồ Chí Minh",
        "district": "Quận 12",
        "ward": "Phường Đông Hưng Thuận",
        "street": "Hẻm 1 Đường Nguyễn Văn Quá",
        "postal_code": "71508",
        "categories": [
            {
                "name": "Quán cà phê"
            },
            {
                "name": "Cà Phê/Trà"
            }
        ]
    },
    {
        "name": "Cá Biển La Gi",
        "latitude": 10.81473,
        "longitude": 106.62578,
        "address": "Cá Biển La Gi, 31 Đường D11, Phường Tây Thạnh, Quận Tân Phú, Hồ Chí Minh, Việt Nam",
        "country_code": "VNM",
        "country_name": "Việt Nam",
        "city": "Hồ Chí Minh",
        "district": "Quận Tân Phú",
        "ward": "Phường Tây Thạnh",
        "street": "Đường D11",
        "postal_code": "72009",
        "categories": [
            {
                "name": "Cà Phê/Trà"
            }
        ]
    },
    {
        "name": "Quán Cafe Phượng Hồng",
        "latitude": 10.81473,
        "longitude": 106.62137,
        "address": "Quán Cafe Phượng Hồng, Đường C1, Phường Tây Thạnh, Quận Tân Phú, Hồ Chí Minh, Việt Nam",
        "country_code": "VNM",
        "country_name": "Việt Nam",
        "city": "Hồ Chí Minh",
        "district": "Quận Tân Phú",
        "ward": "Phường Tây Thạnh",
        "street": "Đường C1",
        "postal_code": "72009",
        "categories": [
            {
                "name": "Quán cà phê"
            },
            {
                "name": "Cà Phê/Trà"
            }
        ]
    },
    {
        "name": "89 Cafe - Cống Lở Tại 80 Cống Lở",
        "latitude": 10.82637,
        "longitude": 106.63516,
        "address": "89 Cafe - Cống Lở Tại 80 Cống Lở, 80 Đường Cống Lở, Phường 15, Quận Tân Bình, Hồ Chí Minh, Việt Nam",
        "country_code": "VNM",
        "country_name": "Việt Nam",
        "city": "Hồ Chí Minh",
        "district": "Quận Tân Bình",
        "ward": "Phường 15",
        "street": "Đường Cống Lở",
        "postal_code": "72109",
        "categories": [
            {
                "name": "Cà Phê/Trà"
            }
        ]
    },
    {
        "name": "Quán Cafe 289",
        "latitude": 10.83479,
        "longitude": 106.6286,
        "address": "Quán Cafe 289, 289 Hẻm 2 Đường Nguyễn Văn Quá, Phường Đông Hưng Thuận, Quận 12, Hồ Chí Minh, Việt Nam",
        "country_code": "VNM",
        "country_name": "Việt Nam",
        "city": "Hồ Chí Minh",
        "district": "Quận 12",
        "ward": "Phường Đông Hưng Thuận",
        "street": "Hẻm 2 Đường Nguyễn Văn Quá",
        "postal_code": "71508",
        "categories": [
            {
                "name": "Quán cà phê"
            },
            {
                "name": "Cà Phê/Trà"
            }
        ]
    },
    {
        "name": "Trà Sữa Hytachi",
        "latitude": 10.83562,
        "longitude": 106.62513,
        "address": "Trà Sữa Hytachi, Đường ĐHT 3, Phường Tân Hưng Thuận, Quận 12, Hồ Chí Minh, Việt Nam",
        "country_code": "VNM",
        "country_name": "Việt Nam",
        "city": "Hồ Chí Minh",
        "district": "Quận 12",
        "ward": "Phường Tân Hưng Thuận",
        "street": "Đường ĐHT 3",
        "postal_code": "71509",
        "categories": [
            {
                "name": "Cà Phê/Trà"
            }
        ]
    },
    {
        "name": "Cà Phê Tường Vy",
        "latitude": 10.81414,
        "longitude": 106.62079,
        "address": "Cà Phê Tường Vy, Đường S11, Phường Tây Thạnh, Quận Tân Phú, Hồ Chí Minh, Việt Nam",
        "country_code": "VNM",
        "country_name": "Việt Nam",
        "city": "Hồ Chí Minh",
        "district": "Quận Tân Phú",
        "ward": "Phường Tây Thạnh",
        "street": "Đường S11",
        "postal_code": "72009",
        "categories": [
            {
                "name": "Cà Phê/Trà"
            }
        ]
    },
    {
        "name": "Quán Cafe Sao Băng",
        "latitude": 10.81359,
        "longitude": 106.62589,
        "address": "Quán Cafe Sao Băng, 43 Đường D9, Phường Tây Thạnh, Quận Tân Phú, Hồ Chí Minh, Việt Nam",
        "country_code": "VNM",
        "country_name": "Việt Nam",
        "city": "Hồ Chí Minh",
        "district": "Quận Tân Phú",
        "ward": "Phường Tây Thạnh",
        "street": "Đường D9",
        "postal_code": "72009",
        "categories": [
            {
                "name": "Quán cà phê"
            },
            {
                "name": "Cà Phê/Trà"
            }
        ]
    },
    {
        "name": "Quán Cafe Kem Thúy Lan",
        "latitude": 10.81403,
        "longitude": 106.62082,
        "address": "Quán Cafe Kem Thúy Lan, Đường S4, Phường Tây Thạnh, Quận Tân Phú, Hồ Chí Minh, Việt Nam",
        "country_code": "VNM",
        "country_name": "Việt Nam",
        "city": "Hồ Chí Minh",
        "district": "Quận Tân Phú",
        "ward": "Phường Tây Thạnh",
        "street": "Đường S4",
        "postal_code": "72009",
        "categories": [
            {
                "name": "Quán cà phê"
            },
            {
                "name": "Cà Phê/Trà"
            }
        ]
    },
    {
        "name": "Vườn Gió Cafe",
        "latitude": 10.82928,
        "longitude": 106.61411,
        "address": "Vườn Gió Cafe, Đường Tân Thới Nhất 1B, Phường Tân Thới Nhất, Quận 12, Hồ Chí Minh, Việt Nam",
        "country_code": "VNM",
        "country_name": "Việt Nam",
        "city": "Hồ Chí Minh",
        "district": "Quận 12",
        "ward": "Phường Tân Thới Nhất",
        "street": "Đường Tân Thới Nhất 1B",
        "postal_code": "71510",
        "categories": [
            {
                "name": "Cà Phê/Trà"
            }
        ]
    },
    {
        "name": "Cà Phê Phú Viên Thôn",
        "latitude": 10.83121,
        "longitude": 106.61525,
        "address": "Cà Phê Phú Viên Thôn, Đường Tân Thới Nhất 1, Phường Tân Thới Nhất, Quận 12, Hồ Chí Minh, Việt Nam",
        "country_code": "VNM",
        "country_name": "Việt Nam",
        "city": "Hồ Chí Minh",
        "district": "Quận 12",
        "ward": "Phường Tân Thới Nhất",
        "street": "Đường Tân Thới Nhất 1",
        "postal_code": "71510",
        "categories": [
            {
                "name": "Quán cà phê"
            },
            {
                "name": "Cà Phê/Trà"
            }
        ]
    },
    {
        "name": "Cafe Số 1 Tek",
        "latitude": 10.83164,
        "longitude": 106.63356,
        "address": "Cafe Số 1 Tek, 159A Đường Phan Huy Ích, Phường 15, Quận Tân Bình, Hồ Chí Minh, Việt Nam",
        "country_code": "VNM",
        "country_name": "Việt Nam",
        "city": "Hồ Chí Minh",
        "district": "Quận Tân Bình",
        "ward": "Phường 15",
        "street": "Đường Phan Huy Ích",
        "postal_code": "72109",
        "categories": [
            {
                "name": "Quán cà phê"
            },
            {
                "name": "Cà Phê/Trà"
            }
        ]
    },
    {
        "name": "Cafe, Giải Khát Thiên Nga Pleiku",
        "latitude": 10.83511,
        "longitude": 106.61987,
        "address": "Cafe, Giải Khát Thiên Nga Pleiku, 289 Đường Trường Chinh, Phường Tân Thới Nhất, Quận 12, Hồ Chí Minh, Việt Nam",
        "country_code": "VNM",
        "country_name": "Việt Nam",
        "city": "Hồ Chí Minh",
        "district": "Quận 12",
        "ward": "Phường Tân Thới Nhất",
        "street": "Đường Trường Chinh",
        "postal_code": "71510",
        "categories": [
            {
                "name": "Quán cà phê"
            },
            {
                "name": "Cà Phê/Trà"
            }
        ]
    },
    {
        "name": "Quán Cafe 128",
        "latitude": 10.83185,
        "longitude": 106.63373,
        "address": "Quán Cafe 128, 128 Đường Phan Huy Ích, Phường 15, Quận Tân Bình, Hồ Chí Minh, Việt Nam",
        "country_code": "VNM",
        "country_name": "Việt Nam",
        "city": "Hồ Chí Minh",
        "district": "Quận Tân Bình",
        "ward": "Phường 15",
        "street": "Đường Phan Huy Ích",
        "postal_code": "72109",
        "categories": [
            {
                "name": "Quán cà phê"
            },
            {
                "name": "Cà Phê/Trà"
            }
        ]
    },
    {
        "name": "Cafe Si",
        "latitude": 10.83597,
        "longitude": 106.62729,
        "address": "Cafe Si, Đường Đông Hưng Thuận 2, Phường Tân Hưng Thuận, Quận 12, Hồ Chí Minh, Việt Nam",
        "country_code": "VNM",
        "country_name": "Việt Nam",
        "city": "Hồ Chí Minh",
        "district": "Quận 12",
        "ward": "Phường Tân Hưng Thuận",
        "street": "Đường Đông Hưng Thuận 2",
        "postal_code": "71509",
        "categories": [
            {
                "name": "Cà Phê/Trà"
            }
        ]
    },
    {
        "name": "Quán Cafe Minh Trung - Phan Huy Ích",
        "latitude": 10.83214,
        "longitude": 106.63376,
        "address": "Quán Cafe Minh Trung - Phan Huy Ích, 167 Đường Phan Huy Ích, Phường 15, Quận Tân Bình, Hồ Chí Minh, Việt Nam",
        "country_code": "VNM",
        "country_name": "Việt Nam",
        "city": "Hồ Chí Minh",
        "district": "Quận Tân Bình",
        "ward": "Phường 15",
        "street": "Đường Phan Huy Ích",
        "postal_code": "72109",
        "categories": [
            {
                "name": "Cà Phê/Trà"
            }
        ]
    },
    {
        "name": "Quán Cafe",
        "latitude": 10.83254,
        "longitude": 106.61552,
        "address": "Quán Cafe, Đường TTN 1, Phường Tân Thới Nhất, Quận 12, Hồ Chí Minh, Việt Nam",
        "country_code": "VNM",
        "country_name": "Việt Nam",
        "city": "Hồ Chí Minh",
        "district": "Quận 12",
        "ward": "Phường Tân Thới Nhất",
        "street": "Đường TTN 1",
        "postal_code": "71510",
        "categories": [
            {
                "name": "Quán cà phê"
            },
            {
                "name": "Cà Phê/Trà"
            }
        ]
    },
    {
        "name": "Quán Cafe Đức Nhân",
        "latitude": 10.81269,
        "longitude": 106.62333,
        "address": "Quán Cafe Đức Nhân, 198 Đường Nguyễn Hữu Tiến, Phường Tây Thạnh, Quận Tân Phú, Hồ Chí Minh, Việt Nam",
        "country_code": "VNM",
        "country_name": "Việt Nam",
        "city": "Hồ Chí Minh",
        "district": "Quận Tân Phú",
        "ward": "Phường Tây Thạnh",
        "street": "Đường Nguyễn Hữu Tiến",
        "postal_code": "72009",
        "categories": [
            {
                "name": "Quán cà phê"
            },
            {
                "name": "Cà Phê/Trà"
            }
        ]
    },
    {
        "name": "Quán Cafe Bình Dân",
        "latitude": 10.83223,
        "longitude": 106.63407,
        "address": "Quán Cafe Bình Dân, 4 Đường Huỳnh Văn Nghệ, Phường 15, Quận Tân Bình, Hồ Chí Minh, Việt Nam",
        "country_code": "VNM",
        "country_name": "Việt Nam",
        "city": "Hồ Chí Minh",
        "district": "Quận Tân Bình",
        "ward": "Phường 15",
        "street": "Đường Huỳnh Văn Nghệ",
        "postal_code": "72109",
        "categories": [
            {
                "name": "Quán cà phê"
            },
            {
                "name": "Cà Phê/Trà"
            }
        ]
    },
    {
        "name": "Điệp Phố 3 Cafe",
        "latitude": 10.83597,
        "longitude": 106.62889,
        "address": "Điệp Phố 3 Cafe, Đường Nguyễn Văn Quá, Phường Đông Hưng Thuận, Quận 12, Hồ Chí Minh, Việt Nam",
        "country_code": "VNM",
        "country_name": "Việt Nam",
        "city": "Hồ Chí Minh",
        "district": "Quận 12",
        "ward": "Phường Đông Hưng Thuận",
        "street": "Đường Nguyễn Văn Quá",
        "postal_code": "71508",
        "categories": [
            {
                "name": "Quán cà phê"
            },
            {
                "name": "Cà Phê/Trà"
            }
        ]
    },
    {
        "name": "Cà Phê Sa Kê",
        "latitude": 10.8323,
        "longitude": 106.63411,
        "address": "Cà Phê Sa Kê, Đường Phan Huy Ích, Phường 14, Quận Gò Vấp, Hồ Chí Minh, Việt Nam",
        "country_code": "VNM",
        "country_name": "Việt Nam",
        "city": "Hồ Chí Minh",
        "district": "Quận Gò Vấp",
        "ward": "Phường 14",
        "street": "Đường Phan Huy Ích",
        "postal_code": "71418",
        "categories": [
            {
                "name": "Quán cà phê"
            },
            {
                "name": "Cà Phê/Trà"
            }
        ]
    },
    {
        "name": "Cafe Q&Q",
        "latitude": 10.8315,
        "longitude": 106.63481,
        "address": "Cafe Q&Q, Hẻm 36 Huỳnh Văn Nghệ, Phường 15, Quận Tân Bình, Hồ Chí Minh, Việt Nam",
        "country_code": "VNM",
        "country_name": "Việt Nam",
        "city": "Hồ Chí Minh",
        "district": "Quận Tân Bình",
        "ward": "Phường 15",
        "street": "Hẻm 36 Huỳnh Văn Nghệ",
        "postal_code": "72109",
        "categories": [
            {
                "name": "Cà Phê/Trà"
            }
        ]
    },
    {
        "name": "G20 Coffee",
        "latitude": 10.81314,
        "longitude": 106.62016,
        "address": "G20 Coffee, Đường S4, Phường Tây Thạnh, Quận Tân Phú, Hồ Chí Minh, Việt Nam",
        "country_code": "VNM",
        "country_name": "Việt Nam",
        "city": "Hồ Chí Minh",
        "district": "Quận Tân Phú",
        "ward": "Phường Tây Thạnh",
        "street": "Đường S4",
        "postal_code": "72009",
        "categories": [
            {
                "name": "Cà Phê/Trà"
            }
        ]
    },
    {
        "name": "Quán Cafe Phố Đêm",
        "latitude": 10.81356,
        "longitude": 106.61894,
        "address": "Quán Cafe Phố Đêm, 220 Đường Kênh 19/5, Phường Tây Thạnh, Quận Tân Phú, Hồ Chí Minh, Việt Nam",
        "country_code": "VNM",
        "country_name": "Việt Nam",
        "city": "Hồ Chí Minh",
        "district": "Quận Tân Phú",
        "ward": "Phường Tây Thạnh",
        "street": "Đường Kênh 19/5",
        "postal_code": "72009",
        "categories": [
            {
                "name": "Quán cà phê"
            },
            {
                "name": "Cà Phê/Trà"
            }
        ]
    },
    {
        "name": "Cafe Nước Mía Nhí Nhí - Nguyễn Phúc Chu",
        "latitude": 10.82379,
        "longitude": 106.63709,
        "address": "Cafe Nước Mía Nhí Nhí - Nguyễn Phúc Chu, 165 Đường Nguyễn Phúc Chu, Phường 15, Quận Tân Bình, Hồ Chí Minh, Việt Nam",
        "country_code": "VNM",
        "country_name": "Việt Nam",
        "city": "Hồ Chí Minh",
        "district": "Quận Tân Bình",
        "ward": "Phường 15",
        "street": "Đường Nguyễn Phúc Chu",
        "postal_code": "72109",
        "categories": [
            {
                "name": "Quán cà phê"
            },
            {
                "name": "Cà Phê/Trà"
            }
        ]
    },
    {
        "name": "Da Đỏ Coffee",
        "latitude": 10.81244,
        "longitude": 106.62211,
        "address": "Da Đỏ Coffee, 239 Đường Tây Thạnh, Phường Tây Thạnh, Quận Tân Phú, Hồ Chí Minh, Việt Nam",
        "country_code": "VNM",
        "country_name": "Việt Nam",
        "city": "Hồ Chí Minh",
        "district": "Quận Tân Phú",
        "ward": "Phường Tây Thạnh",
        "street": "Đường Tây Thạnh",
        "postal_code": "72009",
        "categories": [
            {
                "name": "Nhà hàng"
            },
            {
                "name": "Cà Phê/Trà"
            }
        ]
    },
    {
        "name": "Cafe Sân Vườn Cổ Viên",
        "latitude": 10.83184,
        "longitude": 106.63479,
        "address": "Cafe Sân Vườn Cổ Viên, 24 Đường Huỳnh Văn Nghệ, Phường 15, Quận Tân Bình, Hồ Chí Minh, Việt Nam",
        "country_code": "VNM",
        "country_name": "Việt Nam",
        "city": "Hồ Chí Minh",
        "district": "Quận Tân Bình",
        "ward": "Phường 15",
        "street": "Đường Huỳnh Văn Nghệ",
        "postal_code": "72109",
        "categories": [
            {
                "name": "Quán cà phê"
            },
            {
                "name": "Nhà hàng"
            },
            {
                "name": "Cà Phê/Trà"
            },
            {
                "name": "Quán cà phê internet"
            }
        ]
    },
    {
        "name": "Pho Do Cafe",
        "latitude": 10.83277,
        "longitude": 106.63421,
        "address": "Pho Do Cafe, 160 Đường Phan Huy Ích, Phường 14, Quận Gò Vấp, Hồ Chí Minh, Việt Nam",
        "country_code": "VNM",
        "country_name": "Việt Nam",
        "city": "Hồ Chí Minh",
        "district": "Quận Gò Vấp",
        "ward": "Phường 14",
        "street": "Đường Phan Huy Ích",
        "postal_code": "71418",
        "categories": [
            {
                "name": "Cà Phê/Trà"
            }
        ]
    },
    {
        "name": "Quán Cafe Ngọc Trinh",
        "latitude": 10.81331,
        "longitude": 106.61878,
        "address": "Quán Cafe Ngọc Trinh, Đường Kênh 19/5, Phường Tây Thạnh, Quận Tân Phú, Hồ Chí Minh, Việt Nam",
        "country_code": "VNM",
        "country_name": "Việt Nam",
        "city": "Hồ Chí Minh",
        "district": "Quận Tân Phú",
        "ward": "Phường Tây Thạnh",
        "street": "Đường Kênh 19/5",
        "postal_code": "72009",
        "categories": [
            {
                "name": "Quán cà phê"
            },
            {
                "name": "Cà Phê/Trà"
            }
        ]
    },
    {
        "name": "Quán Cafe Thảo Vân",
        "latitude": 10.81331,
        "longitude": 106.61878,
        "address": "Quán Cafe Thảo Vân, Đường Kênh 19/5, Phường Tây Thạnh, Quận Tân Phú, Hồ Chí Minh, Việt Nam",
        "country_code": "VNM",
        "country_name": "Việt Nam",
        "city": "Hồ Chí Minh",
        "district": "Quận Tân Phú",
        "ward": "Phường Tây Thạnh",
        "street": "Đường Kênh 19/5",
        "postal_code": "72009",
        "categories": [
            {
                "name": "Quán cà phê"
            },
            {
                "name": "Cà Phê/Trà"
            }
        ]
    },
    {
        "name": "Hưng Coffee",
        "latitude": 10.81238,
        "longitude": 106.62095,
        "address": "Hưng Coffee, 2 Đường S7, Phường Tây Thạnh, Quận Tân Phú, Hồ Chí Minh, Việt Nam",
        "country_code": "VNM",
        "country_name": "Việt Nam",
        "city": "Hồ Chí Minh",
        "district": "Quận Tân Phú",
        "ward": "Phường Tây Thạnh",
        "street": "Đường S7",
        "postal_code": "72009",
        "categories": [
            {
                "name": "Cà Phê/Trà"
            },
            {
                "name": "Quán ăn bình dân"
            }
        ]
    },
    {
        "name": "Quán Cafe Trúc Quỳnh",
        "latitude": 10.83156,
        "longitude": 106.6354,
        "address": "Quán Cafe Trúc Quỳnh, 11 Đường Huỳnh Văn Nghệ, Phường 12, Quận Gò Vấp, Hồ Chí Minh, Việt Nam",
        "country_code": "VNM",
        "country_name": "Việt Nam",
        "city": "Hồ Chí Minh",
        "district": "Quận Gò Vấp",
        "ward": "Phường 12",
        "street": "Đường Huỳnh Văn Nghệ",
        "postal_code": "71420",
        "categories": [
            {
                "name": "Quán cà phê"
            },
            {
                "name": "Cà Phê/Trà"
            }
        ]
    },
    {
        "name": "Celado Coffee",
        "latitude": 10.8358,
        "longitude": 106.61755,
        "address": "Celado Coffee, Hẻm 363 Đường Trường Chinh, Phường Tân Thới Nhất, Quận 12, Hồ Chí Minh, Việt Nam",
        "country_code": "VNM",
        "country_name": "Việt Nam",
        "city": "Hồ Chí Minh",
        "district": "Quận 12",
        "ward": "Phường Tân Thới Nhất",
        "street": "Hẻm 363 Đường Trường Chinh",
        "postal_code": "71510",
        "categories": [
            {
                "name": "Cà Phê/Trà"
            }
        ]
    },
    {
        "name": "Cafe Lộc Uyển",
        "latitude": 10.81462,
        "longitude": 106.63328,
        "address": "Cafe Lộc Uyển, Hẻm 698 Đường Trường Chinh, Phường 15, Quận Tân Bình, Hồ Chí Minh, Việt Nam",
        "country_code": "VNM",
        "country_name": "Việt Nam",
        "city": "Hồ Chí Minh",
        "district": "Quận Tân Bình",
        "ward": "Phường 15",
        "street": "Hẻm 698 Đường Trường Chinh",
        "postal_code": "72109",
        "categories": [
            {
                "name": "Cà Phê/Trà"
            },
            {
                "name": "Quán cà phê"
            },
            {
                "name": "Quán cà phê internet"
            }
        ]
    },
    {
        "name": "Nâu Đen Café",
        "latitude": 10.83113,
        "longitude": 106.63621,
        "address": "Nâu Đen Café, Đường Huỳnh Văn Nghệ, Phường 12, Quận Gò Vấp, Hồ Chí Minh, Việt Nam",
        "country_code": "VNM",
        "country_name": "Việt Nam",
        "city": "Hồ Chí Minh",
        "district": "Quận Gò Vấp",
        "ward": "Phường 12",
        "street": "Đường Huỳnh Văn Nghệ",
        "postal_code": "71420",
        "categories": [
            {
                "name": "Cà Phê/Trà"
            }
        ]
    },
    {
        "name": "55 Coffee",
        "latitude": 10.81505,
        "longitude": 106.63419,
        "address": "55 Coffee, 55 Đường Phạm Văn Bạch, Phường 15, Quận Tân Bình, Hồ Chí Minh, Việt Nam",
        "country_code": "VNM",
        "country_name": "Việt Nam",
        "city": "Hồ Chí Minh",
        "district": "Quận Tân Bình",
        "ward": "Phường 15",
        "street": "Đường Phạm Văn Bạch",
        "postal_code": "72109",
        "categories": [
            {
                "name": "Cà Phê/Trà"
            },
            {
                "name": "Quán cà phê"
            }
        ]
    },
    {
        "name": "Cafe Ngọc Anh",
        "latitude": 10.81145,
        "longitude": 106.62119,
        "address": "Cafe Ngọc Anh, 281 Đường Tây Thạnh, Phường Tây Thạnh, Quận Tân Phú, Hồ Chí Minh, Việt Nam",
        "country_code": "VNM",
        "country_name": "Việt Nam",
        "city": "Hồ Chí Minh",
        "district": "Quận Tân Phú",
        "ward": "Phường Tây Thạnh",
        "street": "Đường Tây Thạnh",
        "postal_code": "72009",
        "categories": [
            {
                "name": "Quán cà phê"
            },
            {
                "name": "Cà Phê/Trà"
            }
        ]
    },
    {
        "name": "Hồng Phượng Café",
        "latitude": 10.81186,
        "longitude": 106.61964,
        "address": "Hồng Phượng Café, Hẻm 242/16 Tây Thạnh, Phường Tây Thạnh, Quận Tân Phú, Hồ Chí Minh, Việt Nam",
        "country_code": "VNM",
        "country_name": "Việt Nam",
        "city": "Hồ Chí Minh",
        "district": "Quận Tân Phú",
        "ward": "Phường Tây Thạnh",
        "street": "Hẻm 242/16 Tây Thạnh",
        "postal_code": "72009",
        "categories": [
            {
                "name": "Cà Phê/Trà"
            }
        ]
    },
    {
        "name": "Quán Cafe Bảy Lộc",
        "latitude": 10.81162,
        "longitude": 106.61996,
        "address": "Quán Cafe Bảy Lộc, Đường S3, Phường Tây Thạnh, Quận Tân Phú, Hồ Chí Minh, Việt Nam",
        "country_code": "VNM",
        "country_name": "Việt Nam",
        "city": "Hồ Chí Minh",
        "district": "Quận Tân Phú",
        "ward": "Phường Tây Thạnh",
        "street": "Đường S3",
        "postal_code": "72009",
        "categories": [
            {
                "name": "Quán cà phê"
            },
            {
                "name": "Cà Phê/Trà"
            }
        ]
    },
    {
        "name": "Coffee Song May - Quán Cafe Sân Vườn",
        "latitude": 10.8375,
        "longitude": 106.62943,
        "address": "Coffee Song May - Quán Cafe Sân Vườn, 368 Hẻm 7 Đường Nguyễn Văn Quá, Phường Đông Hưng Thuận, Quận 12, Hồ Chí Minh, Việt Nam",
        "country_code": "VNM",
        "country_name": "Việt Nam",
        "city": "Hồ Chí Minh",
        "district": "Quận 12",
        "ward": "Phường Đông Hưng Thuận",
        "street": "Hẻm 7 Đường Nguyễn Văn Quá",
        "postal_code": "71508",
        "categories": [
            {
                "name": "Cà Phê/Trà"
            }
        ]
    },
    {
        "name": "Cafe Trúc Mai",
        "latitude": 10.81117,
        "longitude": 106.62094,
        "address": "Cafe Trúc Mai, 283 Đường Tây Thạnh, Phường Tây Thạnh, Quận Tân Phú, Hồ Chí Minh, Việt Nam",
        "country_code": "VNM",
        "country_name": "Việt Nam",
        "city": "Hồ Chí Minh",
        "district": "Quận Tân Phú",
        "ward": "Phường Tây Thạnh",
        "street": "Đường Tây Thạnh",
        "postal_code": "72009",
        "categories": [
            {
                "name": "Quán cà phê"
            },
            {
                "name": "Cà Phê/Trà"
            }
        ]
    },
    {
        "name": "Quán Cafe 999",
        "latitude": 10.81077,
        "longitude": 106.62563,
        "address": "Quán Cafe 999, 80 Đường Nguyễn Hữu Tiến, Phường Tây Thạnh, Quận Tân Phú, Hồ Chí Minh, Việt Nam",
        "country_code": "VNM",
        "country_name": "Việt Nam",
        "city": "Hồ Chí Minh",
        "district": "Quận Tân Phú",
        "ward": "Phường Tây Thạnh",
        "street": "Đường Nguyễn Hữu Tiến",
        "postal_code": "72009",
        "categories": [
            {
                "name": "Quán cà phê"
            },
            {
                "name": "Cà Phê/Trà"
            }
        ]
    },
    {
        "name": "Hancoffee",
        "latitude": 10.8373,
        "longitude": 106.61837,
        "address": "Hancoffee, 401 Đường Trường Chinh, Phường Tân Thới Nhất, Quận 12, Hồ Chí Minh, Việt Nam",
        "country_code": "VNM",
        "country_name": "Việt Nam",
        "city": "Hồ Chí Minh",
        "district": "Quận 12",
        "ward": "Phường Tân Thới Nhất",
        "street": "Đường Trường Chinh",
        "postal_code": "71510",
        "categories": [
            {
                "name": "Cà Phê/Trà"
            }
        ]
    },
    {
        "name": "148 Cafe - Cống Lở",
        "latitude": 10.8272,
        "longitude": 106.63869,
        "address": "148 Cafe - Cống Lở, 148 Đường Cống Lở, Phường 15, Quận Tân Bình, Hồ Chí Minh, Việt Nam",
        "country_code": "VNM",
        "country_name": "Việt Nam",
        "city": "Hồ Chí Minh",
        "district": "Quận Tân Bình",
        "ward": "Phường 15",
        "street": "Đường Cống Lở",
        "postal_code": "72109",
        "categories": [
            {
                "name": "Quán cà phê"
            },
            {
                "name": "Cà Phê/Trà"
            }
        ]
    },
    {
        "name": "Idea Coffee",
        "latitude": 10.81064,
        "longitude": 106.6273,
        "address": "Idea Coffee, Hẻm 84 Đường Dương Đức Hiền, Phường Tây Thạnh, Quận Tân Phú, Hồ Chí Minh, Việt Nam",
        "country_code": "VNM",
        "country_name": "Việt Nam",
        "city": "Hồ Chí Minh",
        "district": "Quận Tân Phú",
        "ward": "Phường Tây Thạnh",
        "street": "Hẻm 84 Đường Dương Đức Hiền",
        "postal_code": "72009",
        "categories": [
            {
                "name": "Cà Phê/Trà"
            }
        ]
    },
    {
        "name": "Cà Phê Hải",
        "latitude": 10.81317,
        "longitude": 106.63326,
        "address": "Cà Phê Hải, Đường Trường Chinh, Phường 15, Quận Tân Bình, Hồ Chí Minh, Việt Nam",
        "country_code": "VNM",
        "country_name": "Việt Nam",
        "city": "Hồ Chí Minh",
        "district": "Quận Tân Bình",
        "ward": "Phường 15",
        "street": "Đường Trường Chinh",
        "postal_code": "72109",
        "categories": [
            {
                "name": "Quán cà phê"
            },
            {
                "name": "Cà Phê/Trà"
            }
        ]
    },
    {
        "name": "Cafe Hoa Sứ",
        "latitude": 10.82256,
        "longitude": 106.63914,
        "address": "Cafe Hoa Sứ, 405 Đường Phạm Văn Bạch, Phường 15, Quận Tân Bình, Hồ Chí Minh, Việt Nam",
        "country_code": "VNM",
        "country_name": "Việt Nam",
        "city": "Hồ Chí Minh",
        "district": "Quận Tân Bình",
        "ward": "Phường 15",
        "street": "Đường Phạm Văn Bạch",
        "postal_code": "72109",
        "categories": [
            {
                "name": "Quán cà phê"
            },
            {
                "name": "Cà Phê/Trà"
            }
        ]
    },
    {
        "name": "Cafe Xích Lô",
        "latitude": 10.81007,
        "longitude": 106.62235,
        "address": "Cafe Xích Lô, Hẻm 26 Đường B3, Phường Tây Thạnh, Quận Tân Phú, Hồ Chí Minh, Việt Nam",
        "country_code": "VNM",
        "country_name": "Việt Nam",
        "city": "Hồ Chí Minh",
        "district": "Quận Tân Phú",
        "ward": "Phường Tây Thạnh",
        "street": "Hẻm 26 Đường B3",
        "postal_code": "72009",
        "categories": [
            {
                "name": "Cà Phê/Trà"
            }
        ]
    },
    {
        "name": "Cà Phê K.T",
        "latitude": 10.82335,
        "longitude": 106.63943,
        "address": "Cà Phê K.T, Đường Phạm Văn Bạch, Phường 15, Quận Tân Bình, Hồ Chí Minh, Việt Nam",
        "country_code": "VNM",
        "country_name": "Việt Nam",
        "city": "Hồ Chí Minh",
        "district": "Quận Tân Bình",
        "ward": "Phường 15",
        "street": "Đường Phạm Văn Bạch",
        "postal_code": "72109",
        "categories": [
            {
                "name": "Quán cà phê"
            },
            {
                "name": "Cà Phê/Trà"
            }
        ]
    }
]
