[
    {
        "name": "Cháo Lòng Bình Dân",
        "latitude": 10.82467,
        "longitude": 106.62427,
        "address": "Cháo Lòng Bình Dân, Đường Tân Thới Nhất 17, Phường Tân Thới Nhất, Quận 12, Hồ Chí Minh, Việt Nam",
        "country_code": "VNM",
        "country_name": "Việt Nam",
        "city": "Hồ Chí Minh",
        "district": "Quận 12",
        "ward": "Phường Tân Thới Nhất",
        "street": "Đường Tân Thới Nhất 17",
        "postal_code": "71510",
        "categories": [
            {
                "name": "Nhà hàng"
            }
        ]
    },
    {
        "name": "Quán Mỹ Châu",
        "latitude": 10.82432,
        "longitude": 106.6246,
        "address": "Quán Mỹ Châu, Dương Thị Giang, Phường Tân Thới Nhất, Quận 12, Hồ Chí Minh, Việt Nam",
        "country_code": "VNM",
        "country_name": "Việt Nam",
        "city": "Hồ Chí Minh",
        "district": "Quận 12",
        "ward": "Phường Tân Thới Nhất",
        "street": "Dương Thị Giang",
        "postal_code": "71510",
        "categories": [
            {
                "name": "Nhà hàng"
            }
        ]
    },
    {
        "name": "Cơm Chiên",
        "latitude": 10.82418,
        "longitude": 106.62441,
        "address": "Cơm Chiên, Đường Tân Thới Nhất 17, Phường Tân Thới Nhất, Quận 12, Hồ Chí Minh, Việt Nam",
        "country_code": "VNM",
        "country_name": "Việt Nam",
        "city": "Hồ Chí Minh",
        "district": "Quận 12",
        "ward": "Phường Tân Thới Nhất",
        "street": "Đường Tân Thới Nhất 17",
        "postal_code": "71510",
        "categories": [
            {
                "name": "Nhà hàng"
            }
        ]
    },
    {
        "name": "Dừa Xiêm Cam Ép",
        "latitude": 10.82418,
        "longitude": 106.62441,
        "address": "Dừa Xiêm Cam Ép, Đường Tân Thới Nhất 17, Phường Tân Thới Nhất, Quận 12, Hồ Chí Minh, Việt Nam",
        "country_code": "VNM",
        "country_name": "Việt Nam",
        "city": "Hồ Chí Minh",
        "district": "Quận 12",
        "ward": "Phường Tân Thới Nhất",
        "street": "Đường Tân Thới Nhất 17",
        "postal_code": "71510",
        "categories": [
            {
                "name": "Nhà hàng"
            }
        ]
    },
    {
        "name": "Bò Xào 35K",
        "latitude": 10.82418,
        "longitude": 106.62441,
        "address": "Bò Xào 35K, Đường Tân Thới Nhất 17, Phường Tân Thới Nhất, Quận 12, Hồ Chí Minh, Việt Nam",
        "country_code": "VNM",
        "country_name": "Việt Nam",
        "city": "Hồ Chí Minh",
        "district": "Quận 12",
        "ward": "Phường Tân Thới Nhất",
        "street": "Đường Tân Thới Nhất 17",
        "postal_code": "71510",
        "categories": [
            {
                "name": "Nhà hàng"
            }
        ]
    },
    {
        "name": "Cơm Bình Dân",
        "latitude": 10.82418,
        "longitude": 106.62441,
        "address": "Cơm Bình Dân, Đường Tân Thới Nhất 17, Phường Tân Thới Nhất, Quận 12, Hồ Chí Minh, Việt Nam",
        "country_code": "VNM",
        "country_name": "Việt Nam",
        "city": "Hồ Chí Minh",
        "district": "Quận 12",
        "ward": "Phường Tân Thới Nhất",
        "street": "Đường Tân Thới Nhất 17",
        "postal_code": "71510",
        "categories": [
            {
                "name": "Nhà hàng"
            }
        ]
    },
    {
        "name": "Thanh Tùng Cháo Lòng Cơm Trưa",
        "latitude": 10.82448,
        "longitude": 106.624,
        "address": "Thanh Tùng Cháo Lòng Cơm Trưa, Đường Tân Thới Nhất 17, Phường Tân Thới Nhất, Quận 12, Hồ Chí Minh, Việt Nam",
        "country_code": "VNM",
        "country_name": "Việt Nam",
        "city": "Hồ Chí Minh",
        "district": "Quận 12",
        "ward": "Phường Tân Thới Nhất",
        "street": "Đường Tân Thới Nhất 17",
        "postal_code": "71510",
        "categories": [
            {
                "name": "Nhà hàng"
            }
        ]
    },
    {
        "name": "Tham Luong Quan",
        "latitude": 10.8237,
        "longitude": 106.62472,
        "address": "Tham Luong Quan, Dương Thị Giang, Phường Tân Thới Nhất, Quận 12, Hồ Chí Minh, Việt Nam",
        "country_code": "VNM",
        "country_name": "Việt Nam",
        "city": "Hồ Chí Minh",
        "district": "Quận 12",
        "ward": "Phường Tân Thới Nhất",
        "street": "Dương Thị Giang",
        "postal_code": "71510",
        "categories": [
            {
                "name": "Nhà hàng"
            }
        ]
    },
    {
        "name": "Cơm Gà Hải Nam",
        "latitude": 10.82421,
        "longitude": 106.6232,
        "address": "Cơm Gà Hải Nam, Đường Tân Thới Nhất 17, Phường Tân Thới Nhất, Quận 12, Hồ Chí Minh, Việt Nam",
        "country_code": "VNM",
        "country_name": "Việt Nam",
        "city": "Hồ Chí Minh",
        "district": "Quận 12",
        "ward": "Phường Tân Thới Nhất",
        "street": "Đường Tân Thới Nhất 17",
        "postal_code": "71510",
        "categories": [
            {
                "name": "Nhà hàng"
            }
        ]
    },
    {
        "name": "Trạm Dừng Quang Hải",
        "latitude": 10.8238,
        "longitude": 106.62277,
        "address": "Trạm Dừng Quang Hải, Đường D1, Phường Tân Thới Nhất, Quận 12, Hồ Chí Minh, Việt Nam",
        "country_code": "VNM",
        "country_name": "Việt Nam",
        "city": "Hồ Chí Minh",
        "district": "Quận 12",
        "ward": "Phường Tân Thới Nhất",
        "street": "Đường D1",
        "postal_code": "71510",
        "categories": [
            {
                "name": "Nhà hàng"
            }
        ]
    },
    {
        "name": "Đặc Sản Trảng Bàng Tuấn Nị",
        "latitude": 10.82333,
        "longitude": 106.62298,
        "address": "Đặc Sản Trảng Bàng Tuấn Nị, B41 Đường C1, Phường Tân Thới Nhất, Quận 12, Hồ Chí Minh, Việt Nam",
        "country_code": "VNM",
        "country_name": "Việt Nam",
        "city": "Hồ Chí Minh",
        "district": "Quận 12",
        "ward": "Phường Tân Thới Nhất",
        "street": "Đường C1",
        "postal_code": "71510",
        "categories": [
            {
                "name": "Nhà hàng"
            }
        ]
    },
    {
        "name": "Nhà Hàng Hương Cau",
        "latitude": 10.82622,
        "longitude": 106.62577,
        "address": "Nhà Hàng Hương Cau, Đường Trường Chinh, Phường Tân Thới Nhất, Quận 12, Hồ Chí Minh, Việt Nam",
        "country_code": "VNM",
        "country_name": "Việt Nam",
        "city": "Hồ Chí Minh",
        "district": "Quận 12",
        "ward": "Phường Tân Thới Nhất",
        "street": "Đường Trường Chinh",
        "postal_code": "71510",
        "categories": [
            {
                "name": "Nhà hàng"
            }
        ]
    },
    {
        "name": "Be Bi",
        "latitude": 10.82599,
        "longitude": 106.62609,
        "address": "Be Bi, 17 Đường Trường Chinh, Phường Tân Thới Nhất, Quận 12, Hồ Chí Minh, Việt Nam",
        "country_code": "VNM",
        "country_name": "Việt Nam",
        "city": "Hồ Chí Minh",
        "district": "Quận 12",
        "ward": "Phường Tân Thới Nhất",
        "street": "Đường Trường Chinh",
        "postal_code": "71510",
        "categories": [
            {
                "name": "Nhà hàng"
            }
        ]
    },
    {
        "name": "Lẩu Bò Tham Lương",
        "latitude": 10.82565,
        "longitude": 106.62637,
        "address": "Lẩu Bò Tham Lương, Đường Trường Chinh, Phường Tân Thới Nhất, Quận 12, Hồ Chí Minh, Việt Nam",
        "country_code": "VNM",
        "country_name": "Việt Nam",
        "city": "Hồ Chí Minh",
        "district": "Quận 12",
        "ward": "Phường Tân Thới Nhất",
        "street": "Đường Trường Chinh",
        "postal_code": "71510",
        "categories": [
            {
                "name": "Nhà hàng"
            }
        ]
    },
    {
        "name": "Phở Kiên Nam Định",
        "latitude": 10.8263,
        "longitude": 106.62581,
        "address": "Phở Kiên Nam Định, Đường Trường Chinh, Phường Tân Thới Nhất, Quận 12, Hồ Chí Minh, Việt Nam",
        "country_code": "VNM",
        "country_name": "Việt Nam",
        "city": "Hồ Chí Minh",
        "district": "Quận 12",
        "ward": "Phường Tân Thới Nhất",
        "street": "Đường Trường Chinh",
        "postal_code": "71510",
        "categories": [
            {
                "name": "Nhà hàng"
            }
        ]
    },
    {
        "name": "Quán Ăn Vườn Gió",
        "latitude": 10.82647,
        "longitude": 106.62567,
        "address": "Quán Ăn Vườn Gió, Đường Trường Chinh, Phường Tân Thới Nhất, Quận 12, Hồ Chí Minh, Việt Nam",
        "country_code": "VNM",
        "country_name": "Việt Nam",
        "city": "Hồ Chí Minh",
        "district": "Quận 12",
        "ward": "Phường Tân Thới Nhất",
        "street": "Đường Trường Chinh",
        "postal_code": "71510",
        "categories": [
            {
                "name": "Nhà hàng"
            },
            {
                "name": "Siêu thị"
            }
        ]
    },
    {
        "name": "Dê Tươi Minh Hằng",
        "latitude": 10.82586,
        "longitude": 106.62635,
        "address": "Dê Tươi Minh Hằng, 2/3 Đường Trường Chinh, Phường Tân Thới Nhất, Quận 12, Hồ Chí Minh, Việt Nam",
        "country_code": "VNM",
        "country_name": "Việt Nam",
        "city": "Hồ Chí Minh",
        "district": "Quận 12",
        "ward": "Phường Tân Thới Nhất",
        "street": "Đường Trường Chinh",
        "postal_code": "71510",
        "categories": [
            {
                "name": "Nhà hàng"
            },
            {
                "name": "Đặc sản & Đồ uống"
            }
        ]
    },
    {
        "name": "Cơm Tấm Xuân Hương",
        "latitude": 10.82586,
        "longitude": 106.62635,
        "address": "Cơm Tấm Xuân Hương, Đường Trường Chinh, Phường Tân Thới Nhất, Quận 12, Hồ Chí Minh, Việt Nam",
        "country_code": "VNM",
        "country_name": "Việt Nam",
        "city": "Hồ Chí Minh",
        "district": "Quận 12",
        "ward": "Phường Tân Thới Nhất",
        "street": "Đường Trường Chinh",
        "postal_code": "71510",
        "categories": [
            {
                "name": "Nhà hàng"
            }
        ]
    },
    {
        "name": "Trường Sơn",
        "latitude": 10.82574,
        "longitude": 106.62648,
        "address": "Trường Sơn, Đường Trường Chinh, Phường Tân Thới Nhất, Quận 12, Hồ Chí Minh, Việt Nam",
        "country_code": "VNM",
        "country_name": "Việt Nam",
        "city": "Hồ Chí Minh",
        "district": "Quận 12",
        "ward": "Phường Tân Thới Nhất",
        "street": "Đường Trường Chinh",
        "postal_code": "71510",
        "categories": [
            {
                "name": "Nhà hàng"
            }
        ]
    },
    {
        "name": "Quán Chay",
        "latitude": 10.82355,
        "longitude": 106.62232,
        "address": "Quán Chay, Đường D1, Phường Tân Thới Nhất, Quận 12, Hồ Chí Minh, Việt Nam",
        "country_code": "VNM",
        "country_name": "Việt Nam",
        "city": "Hồ Chí Minh",
        "district": "Quận 12",
        "ward": "Phường Tân Thới Nhất",
        "street": "Đường D1",
        "postal_code": "71510",
        "categories": [
            {
                "name": "Nhà hàng"
            }
        ]
    },
    {
        "name": "Quán Cơm",
        "latitude": 10.82399,
        "longitude": 106.62199,
        "address": "Quán Cơm, Đường Tân Thới Nhất 17, Phường Tân Thới Nhất, Quận 12, Hồ Chí Minh, Việt Nam",
        "country_code": "VNM",
        "country_name": "Việt Nam",
        "city": "Hồ Chí Minh",
        "district": "Quận 12",
        "ward": "Phường Tân Thới Nhất",
        "street": "Đường Tân Thới Nhất 17",
        "postal_code": "71510",
        "categories": [
            {
                "name": "Nhà hàng"
            }
        ]
    },
    {
        "name": "Mỳ Quảng Trần Đà Nẵng",
        "latitude": 10.82399,
        "longitude": 106.62199,
        "address": "Mỳ Quảng Trần Đà Nẵng, Đường Tân Thới Nhất 17, Phường Tân Thới Nhất, Quận 12, Hồ Chí Minh, Việt Nam",
        "country_code": "VNM",
        "country_name": "Việt Nam",
        "city": "Hồ Chí Minh",
        "district": "Quận 12",
        "ward": "Phường Tân Thới Nhất",
        "street": "Đường Tân Thới Nhất 17",
        "postal_code": "71510",
        "categories": [
            {
                "name": "Nhà hàng"
            }
        ]
    },
    {
        "name": "Tư Râu",
        "latitude": 10.82679,
        "longitude": 106.62592,
        "address": "Tư Râu, Đường Trường Chinh, Phường Tân Hưng Thuận, Quận 12, Hồ Chí Minh, Việt Nam",
        "country_code": "VNM",
        "country_name": "Việt Nam",
        "city": "Hồ Chí Minh",
        "district": "Quận 12",
        "ward": "Phường Tân Hưng Thuận",
        "street": "Đường Trường Chinh",
        "postal_code": "71509",
        "categories": [
            {
                "name": "Nhà hàng"
            }
        ]
    },
    {
        "name": "Quán Bún Bò",
        "latitude": 10.82394,
        "longitude": 106.62196,
        "address": "Quán Bún Bò, Đường TTN 17, Phường Tân Thới Nhất, Quận 12, Hồ Chí Minh, Việt Nam",
        "country_code": "VNM",
        "country_name": "Việt Nam",
        "city": "Hồ Chí Minh",
        "district": "Quận 12",
        "ward": "Phường Tân Thới Nhất",
        "street": "Đường TTN 17",
        "postal_code": "71510",
        "categories": [
            {
                "name": "Nhà hàng"
            }
        ]
    },
    {
        "name": "Quán Ốc Bà Sáu",
        "latitude": 10.82724,
        "longitude": 106.62455,
        "address": "Quán Ốc Bà Sáu, 11 Đường Phan Văn Hớn, Phường Tân Thới Nhất, Quận 12, Hồ Chí Minh, Việt Nam",
        "country_code": "VNM",
        "country_name": "Việt Nam",
        "city": "Hồ Chí Minh",
        "district": "Quận 12",
        "ward": "Phường Tân Thới Nhất",
        "street": "Đường Phan Văn Hớn",
        "postal_code": "71510",
        "categories": [
            {
                "name": "Nhà hàng"
            }
        ]
    },
    {
        "name": "Điểm Tâm Sáng, 131 TTN17 Q12",
        "latitude": 10.82392,
        "longitude": 106.62192,
        "address": "Điểm Tâm Sáng, 131 TTN17 Q12, Đường Tân Thới Nhất 17, Phường Tân Thới Nhất, Quận 12, Hồ Chí Minh, Việt Nam",
        "country_code": "VNM",
        "country_name": "Việt Nam",
        "city": "Hồ Chí Minh",
        "district": "Quận 12",
        "ward": "Phường Tân Thới Nhất",
        "street": "Đường Tân Thới Nhất 17",
        "postal_code": "71510",
        "categories": [
            {
                "name": "Nhà hàng"
            }
        ]
    },
    {
        "name": "Học Viện Cầu Lông Trần",
        "latitude": 10.82392,
        "longitude": 106.62192,
        "address": "Học Viện Cầu Lông Trần, Đường Tân Thới Nhất 17, Phường Tân Thới Nhất, Quận 12, Hồ Chí Minh, Việt Nam",
        "country_code": "VNM",
        "country_name": "Việt Nam",
        "city": "Hồ Chí Minh",
        "district": "Quận 12",
        "ward": "Phường Tân Thới Nhất",
        "street": "Đường Tân Thới Nhất 17",
        "postal_code": "71510",
        "categories": [
            {
                "name": "Quán ăn nhanh"
            },
            {
                "name": "Nhà hàng"
            }
        ]
    },
    {
        "name": "Hota",
        "latitude": 10.82671,
        "longitude": 106.62612,
        "address": "Hota, Đường Trường Chinh, Phường Tân Hưng Thuận, Quận 12, Hồ Chí Minh, Việt Nam",
        "country_code": "VNM",
        "country_name": "Việt Nam",
        "city": "Hồ Chí Minh",
        "district": "Quận 12",
        "ward": "Phường Tân Hưng Thuận",
        "street": "Đường Trường Chinh",
        "postal_code": "71509",
        "categories": [
            {
                "name": "Nhà hàng"
            }
        ]
    },
    {
        "name": "Phơ 38",
        "latitude": 10.82403,
        "longitude": 106.62182,
        "address": "Phơ 38, Đường TTN 17, Phường Tân Thới Nhất, Quận 12, Hồ Chí Minh, Việt Nam",
        "country_code": "VNM",
        "country_name": "Việt Nam",
        "city": "Hồ Chí Minh",
        "district": "Quận 12",
        "ward": "Phường Tân Thới Nhất",
        "street": "Đường TTN 17",
        "postal_code": "71510",
        "categories": [
            {
                "name": "Nhà hàng"
            }
        ]
    },
    {
        "name": "Trúc Mai",
        "latitude": 10.82732,
        "longitude": 106.62415,
        "address": "Trúc Mai, 17 Đường Phan Văn Hớn, Phường Tân Thới Nhất, Quận 12, Hồ Chí Minh, Việt Nam",
        "country_code": "VNM",
        "country_name": "Việt Nam",
        "city": "Hồ Chí Minh",
        "district": "Quận 12",
        "ward": "Phường Tân Thới Nhất",
        "street": "Đường Phan Văn Hớn",
        "postal_code": "71510",
        "categories": [
            {
                "name": "Nhà hàng"
            }
        ]
    },
    {
        "name": "Ốc Zô Zô",
        "latitude": 10.82732,
        "longitude": 106.62415,
        "address": "Ốc Zô Zô, Đường Phan Văn Hớn, Phường Tân Thới Nhất, Quận 12, Hồ Chí Minh, Việt Nam",
        "country_code": "VNM",
        "country_name": "Việt Nam",
        "city": "Hồ Chí Minh",
        "district": "Quận 12",
        "ward": "Phường Tân Thới Nhất",
        "street": "Đường Phan Văn Hớn",
        "postal_code": "71510",
        "categories": [
            {
                "name": "Nhà hàng"
            }
        ]
    },
    {
        "name": "Nhà Hàng Kim Hồng",
        "latitude": 10.8274,
        "longitude": 106.62454,
        "address": "Nhà Hàng Kim Hồng, 6 Đường Phan Văn Hớn, Phường Tân Thới Nhất, Quận 12, Hồ Chí Minh, Việt Nam",
        "country_code": "VNM",
        "country_name": "Việt Nam",
        "city": "Hồ Chí Minh",
        "district": "Quận 12",
        "ward": "Phường Tân Thới Nhất",
        "street": "Đường Phan Văn Hớn",
        "postal_code": "71510",
        "categories": [
            {
                "name": "Nhà hàng"
            }
        ]
    },
    {
        "name": "Quán Phở Phú Quý",
        "latitude": 10.82741,
        "longitude": 106.62446,
        "address": "Quán Phở Phú Quý, Đường Phan Văn Hớn, Phường Tân Thới Nhất, Quận 12, Hồ Chí Minh, Việt Nam",
        "country_code": "VNM",
        "country_name": "Việt Nam",
        "city": "Hồ Chí Minh",
        "district": "Quận 12",
        "ward": "Phường Tân Thới Nhất",
        "street": "Đường Phan Văn Hớn",
        "postal_code": "71510",
        "categories": [
            {
                "name": "Nhà hàng"
            }
        ]
    },
    {
        "name": "Khoai Lang Lắc Bắp Lắc Chuối Chiên",
        "latitude": 10.82647,
        "longitude": 106.62663,
        "address": "Khoai Lang Lắc Bắp Lắc Chuối Chiên, Đường Nguyễn Văn Quá, Phường Tân Hưng Thuận, Quận 12, Hồ Chí Minh, Việt Nam",
        "country_code": "VNM",
        "country_name": "Việt Nam",
        "city": "Hồ Chí Minh",
        "district": "Quận 12",
        "ward": "Phường Tân Hưng Thuận",
        "street": "Đường Nguyễn Văn Quá",
        "postal_code": "71509",
        "categories": [
            {
                "name": "Nhà hàng"
            }
        ]
    },
    {
        "name": "Ẩm Thực Phù Sa",
        "latitude": 10.82743,
        "longitude": 106.62436,
        "address": "Ẩm Thực Phù Sa, Đường Phan Văn Hớn, Phường Tân Thới Nhất, Quận 12, Hồ Chí Minh, Việt Nam",
        "country_code": "VNM",
        "country_name": "Việt Nam",
        "city": "Hồ Chí Minh",
        "district": "Quận 12",
        "ward": "Phường Tân Thới Nhất",
        "street": "Đường Phan Văn Hớn",
        "postal_code": "71510",
        "categories": [
            {
                "name": "Nhà hàng"
            }
        ]
    },
    {
        "name": "Quán Như Ý",
        "latitude": 10.82743,
        "longitude": 106.62436,
        "address": "Quán Như Ý, 16 Đường Phan Văn Hớn, Phường Tân Thới Nhất, Quận 12, Hồ Chí Minh, Việt Nam",
        "country_code": "VNM",
        "country_name": "Việt Nam",
        "city": "Hồ Chí Minh",
        "district": "Quận 12",
        "ward": "Phường Tân Thới Nhất",
        "street": "Đường Phan Văn Hớn",
        "postal_code": "71510",
        "categories": [
            {
                "name": "Nhà hàng"
            }
        ]
    },
    {
        "name": "Cơm Gà Xối Mỡ Thiên Hà 2",
        "latitude": 10.82744,
        "longitude": 106.62442,
        "address": "Cơm Gà Xối Mỡ Thiên Hà 2, Đường Phan Văn Hớn, Phường Tân Thới Nhất, Quận 12, Hồ Chí Minh, Việt Nam",
        "country_code": "VNM",
        "country_name": "Việt Nam",
        "city": "Hồ Chí Minh",
        "district": "Quận 12",
        "ward": "Phường Tân Thới Nhất",
        "street": "Đường Phan Văn Hớn",
        "postal_code": "71510",
        "categories": [
            {
                "name": "Nhà hàng"
            }
        ]
    },
    {
        "name": "Cơm Thuận Kiều",
        "latitude": 10.82738,
        "longitude": 106.62389,
        "address": "Cơm Thuận Kiều, Đường Phan Văn Hớn, Phường Tân Thới Nhất, Quận 12, Hồ Chí Minh, Việt Nam",
        "country_code": "VNM",
        "country_name": "Việt Nam",
        "city": "Hồ Chí Minh",
        "district": "Quận 12",
        "ward": "Phường Tân Thới Nhất",
        "street": "Đường Phan Văn Hớn",
        "postal_code": "71510",
        "categories": [
            {
                "name": "Nhà hàng"
            },
            {
                "name": "Trường học"
            }
        ]
    },
    {
        "name": "Mì Quảng Lộc 02",
        "latitude": 10.82738,
        "longitude": 106.62389,
        "address": "Mì Quảng Lộc 02, Đường Phan Văn Hớn, Phường Tân Thới Nhất, Quận 12, Hồ Chí Minh, Việt Nam",
        "country_code": "VNM",
        "country_name": "Việt Nam",
        "city": "Hồ Chí Minh",
        "district": "Quận 12",
        "ward": "Phường Tân Thới Nhất",
        "street": "Đường Phan Văn Hớn",
        "postal_code": "71510",
        "categories": [
            {
                "name": "Nhà hàng"
            }
        ]
    },
    {
        "name": "Quán Cơm Tấm Thuận Kiều",
        "latitude": 10.82738,
        "longitude": 106.62389,
        "address": "Quán Cơm Tấm Thuận Kiều, 21 Đường Phan Văn Hớn, Phường Tân Thới Nhất, Quận 12, Hồ Chí Minh, Việt Nam",
        "country_code": "VNM",
        "country_name": "Việt Nam",
        "city": "Hồ Chí Minh",
        "district": "Quận 12",
        "ward": "Phường Tân Thới Nhất",
        "street": "Đường Phan Văn Hớn",
        "postal_code": "71510",
        "categories": [
            {
                "name": "Nhà hàng"
            }
        ]
    },
    {
        "name": "Phở Việt Gia Truyền Nam Định",
        "latitude": 10.82746,
        "longitude": 106.62424,
        "address": "Phở Việt Gia Truyền Nam Định, Đường Phan Văn Hớn, Phường Tân Thới Nhất, Quận 12, Hồ Chí Minh, Việt Nam",
        "country_code": "VNM",
        "country_name": "Việt Nam",
        "city": "Hồ Chí Minh",
        "district": "Quận 12",
        "ward": "Phường Tân Thới Nhất",
        "street": "Đường Phan Văn Hớn",
        "postal_code": "71510",
        "categories": [
            {
                "name": "Nhà hàng"
            }
        ]
    },
    {
        "name": "Quán Hoa Hồng",
        "latitude": 10.82746,
        "longitude": 106.62424,
        "address": "Quán Hoa Hồng, 20 Đường Phan Văn Hớn, Phường Tân Thới Nhất, Quận 12, Hồ Chí Minh, Việt Nam",
        "country_code": "VNM",
        "country_name": "Việt Nam",
        "city": "Hồ Chí Minh",
        "district": "Quận 12",
        "ward": "Phường Tân Thới Nhất",
        "street": "Đường Phan Văn Hớn",
        "postal_code": "71510",
        "categories": [
            {
                "name": "Nhà hàng"
            }
        ]
    },
    {
        "name": "Quán Phở Anh",
        "latitude": 10.82383,
        "longitude": 106.62171,
        "address": "Quán Phở Anh, Đường Tân Thới Nhất 17, Phường Tân Thới Nhất, Quận 12, Hồ Chí Minh, Việt Nam",
        "country_code": "VNM",
        "country_name": "Việt Nam",
        "city": "Hồ Chí Minh",
        "district": "Quận 12",
        "ward": "Phường Tân Thới Nhất",
        "street": "Đường Tân Thới Nhất 17",
        "postal_code": "71510",
        "categories": [
            {
                "name": "Nhà hàng"
            }
        ]
    },
    {
        "name": "Ẩm Thực Sân Làng",
        "latitude": 10.82748,
        "longitude": 106.62413,
        "address": "Ẩm Thực Sân Làng, Đường Phan Văn Hớn, Phường Tân Thới Nhất, Quận 12, Hồ Chí Minh, Việt Nam",
        "country_code": "VNM",
        "country_name": "Việt Nam",
        "city": "Hồ Chí Minh",
        "district": "Quận 12",
        "ward": "Phường Tân Thới Nhất",
        "street": "Đường Phan Văn Hớn",
        "postal_code": "71510",
        "categories": [
            {
                "name": "Nhà hàng"
            }
        ]
    },
    {
        "name": "Cơm Tấm Hằng",
        "latitude": 10.82749,
        "longitude": 106.62407,
        "address": "Cơm Tấm Hằng, Đường Phan Văn Hớn, Phường Tân Thới Nhất, Quận 12, Hồ Chí Minh, Việt Nam",
        "country_code": "VNM",
        "country_name": "Việt Nam",
        "city": "Hồ Chí Minh",
        "district": "Quận 12",
        "ward": "Phường Tân Thới Nhất",
        "street": "Đường Phan Văn Hớn",
        "postal_code": "71510",
        "categories": [
            {
                "name": "Nhà hàng"
            }
        ]
    },
    {
        "name": "Nhà Hàng Tân Vinh Sơn",
        "latitude": 10.82749,
        "longitude": 106.62386,
        "address": "Nhà Hàng Tân Vinh Sơn, 33 Đường Phan Văn Hớn, Phường Tân Thới Nhất, Quận 12, Hồ Chí Minh, Việt Nam",
        "country_code": "VNM",
        "country_name": "Việt Nam",
        "city": "Hồ Chí Minh",
        "district": "Quận 12",
        "ward": "Phường Tân Thới Nhất",
        "street": "Đường Phan Văn Hớn",
        "postal_code": "71510",
        "categories": [
            {
                "name": "Nhà hàng"
            }
        ]
    },
    {
        "name": "Vườn Cau Xanh",
        "latitude": 10.82549,
        "longitude": 106.62736,
        "address": "Vườn Cau Xanh, 22/14 Đường Trường Chinh, Phường Đông Hưng Thuận, Quận 12, Hồ Chí Minh, Việt Nam",
        "country_code": "VNM",
        "country_name": "Việt Nam",
        "city": "Hồ Chí Minh",
        "district": "Quận 12",
        "ward": "Phường Đông Hưng Thuận",
        "street": "Đường Trường Chinh",
        "postal_code": "71508",
        "categories": [
            {
                "name": "Nhà hàng"
            }
        ]
    },
    {
        "name": "Mì Quảng 3 Anh Em",
        "latitude": 10.82659,
        "longitude": 106.62674,
        "address": "Mì Quảng 3 Anh Em, Đường Nguyễn Văn Quá, Phường Tân Hưng Thuận, Quận 12, Hồ Chí Minh, Việt Nam",
        "country_code": "VNM",
        "country_name": "Việt Nam",
        "city": "Hồ Chí Minh",
        "district": "Quận 12",
        "ward": "Phường Tân Hưng Thuận",
        "street": "Đường Nguyễn Văn Quá",
        "postal_code": "71509",
        "categories": [
            {
                "name": "Nhà hàng"
            }
        ]
    },
    {
        "name": "Korean Restaurant",
        "latitude": 10.82666,
        "longitude": 106.62668,
        "address": "Korean Restaurant, Hẻm 26 Đường Nguyễn Văn Quá, Phường Đông Hưng Thuận, Quận 12, Hồ Chí Minh, Việt Nam",
        "country_code": "VNM",
        "country_name": "Việt Nam",
        "city": "Hồ Chí Minh",
        "district": "Quận 12",
        "ward": "Phường Đông Hưng Thuận",
        "street": "Hẻm 26 Đường Nguyễn Văn Quá",
        "postal_code": "71508",
        "categories": [
            {
                "name": "Nhà hàng"
            }
        ]
    },
    {
        "name": "Tham Lương Quán",
        "latitude": 10.82754,
        "longitude": 106.62384,
        "address": "Tham Lương Quán, 34 Đường Phan Văn Hớn, Phường Tân Thới Nhất, Quận 12, Hồ Chí Minh, Việt Nam",
        "country_code": "VNM",
        "country_name": "Việt Nam",
        "city": "Hồ Chí Minh",
        "district": "Quận 12",
        "ward": "Phường Tân Thới Nhất",
        "street": "Đường Phan Văn Hớn",
        "postal_code": "71510",
        "categories": [
            {
                "name": "Nhà hàng"
            },
            {
                "name": "Quán cà phê"
            }
        ]
    },
    {
        "name": "Quán Ăn Sake",
        "latitude": 10.82754,
        "longitude": 106.62384,
        "address": "Quán Ăn Sake, 34 Đường Phan Văn Hớn, Phường Tân Thới Nhất, Quận 12, Hồ Chí Minh, Việt Nam",
        "country_code": "VNM",
        "country_name": "Việt Nam",
        "city": "Hồ Chí Minh",
        "district": "Quận 12",
        "ward": "Phường Tân Thới Nhất",
        "street": "Đường Phan Văn Hớn",
        "postal_code": "71510",
        "categories": [
            {
                "name": "Nhà hàng"
            }
        ]
    },
    {
        "name": "Hội Quán Bia Đen Phố Việt",
        "latitude": 10.8267,
        "longitude": 106.62669,
        "address": "Hội Quán Bia Đen Phố Việt, Đường Nguyễn Văn Quá, Phường Tân Hưng Thuận, Quận 12, Hồ Chí Minh, Việt Nam",
        "country_code": "VNM",
        "country_name": "Việt Nam",
        "city": "Hồ Chí Minh",
        "district": "Quận 12",
        "ward": "Phường Tân Hưng Thuận",
        "street": "Đường Nguyễn Văn Quá",
        "postal_code": "71509",
        "categories": [
            {
                "name": "Nhà hàng"
            },
            {
                "name": "Bar hoặc Quán rượu"
            }
        ]
    },
    {
        "name": "Quán Ăn Hiền Hậu",
        "latitude": 10.82756,
        "longitude": 106.62377,
        "address": "Quán Ăn Hiền Hậu, Đường Phan Văn Hớn, Phường Tân Thới Nhất, Quận 12, Hồ Chí Minh, Việt Nam",
        "country_code": "VNM",
        "country_name": "Việt Nam",
        "city": "Hồ Chí Minh",
        "district": "Quận 12",
        "ward": "Phường Tân Thới Nhất",
        "street": "Đường Phan Văn Hớn",
        "postal_code": "71510",
        "categories": [
            {
                "name": "Nhà hàng"
            }
        ]
    },
    {
        "name": "Tham Lương Quán",
        "latitude": 10.82767,
        "longitude": 106.62515,
        "address": "Tham Lương Quán, Đường Trường Chinh, Phường Tân Hưng Thuận, Quận 12, Hồ Chí Minh, Việt Nam",
        "country_code": "VNM",
        "country_name": "Việt Nam",
        "city": "Hồ Chí Minh",
        "district": "Quận 12",
        "ward": "Phường Tân Hưng Thuận",
        "street": "Đường Trường Chinh",
        "postal_code": "71509",
        "categories": [
            {
                "name": "Nhà hàng"
            }
        ]
    },
    {
        "name": "Thuý Anh",
        "latitude": 10.82764,
        "longitude": 106.62367,
        "address": "Thuý Anh, 18 Đường Phan Văn Hớn, Phường Tân Thới Nhất, Quận 12, Hồ Chí Minh, Việt Nam",
        "country_code": "VNM",
        "country_name": "Việt Nam",
        "city": "Hồ Chí Minh",
        "district": "Quận 12",
        "ward": "Phường Tân Thới Nhất",
        "street": "Đường Phan Văn Hớn",
        "postal_code": "71510",
        "categories": [
            {
                "name": "Nhà hàng"
            }
        ]
    },
    {
        "name": "Quán Cháo Lươn Xứ Nghệ",
        "latitude": 10.82681,
        "longitude": 106.6268,
        "address": "Quán Cháo Lươn Xứ Nghệ, Đường Song Hành Quốc Lộ 22, Phường Đông Hưng Thuận, Quận 12, Hồ Chí Minh, Việt Nam",
        "country_code": "VNM",
        "country_name": "Việt Nam",
        "city": "Hồ Chí Minh",
        "district": "Quận 12",
        "ward": "Phường Đông Hưng Thuận",
        "street": "Đường Song Hành Quốc Lộ 22",
        "postal_code": "71508",
        "categories": [
            {
                "name": "Nhà hàng"
            }
        ]
    },
    {
        "name": "Cơm Trường Giang",
        "latitude": 10.82681,
        "longitude": 106.6268,
        "address": "Cơm Trường Giang, Đường Song Hành Quốc Lộ 22, Phường Đông Hưng Thuận, Quận 12, Hồ Chí Minh, Việt Nam",
        "country_code": "VNM",
        "country_name": "Việt Nam",
        "city": "Hồ Chí Minh",
        "district": "Quận 12",
        "ward": "Phường Đông Hưng Thuận",
        "street": "Đường Song Hành Quốc Lộ 22",
        "postal_code": "71508",
        "categories": [
            {
                "name": "Nhà hàng"
            }
        ]
    },
    {
        "name": "Nhà Hàng Ngôi Sao Xanh",
        "latitude": 10.82699,
        "longitude": 106.62662,
        "address": "Nhà Hàng Ngôi Sao Xanh, Đường Nguyễn Văn Quá, Phường Tân Hưng Thuận, Quận 12, Hồ Chí Minh, Việt Nam",
        "country_code": "VNM",
        "country_name": "Việt Nam",
        "city": "Hồ Chí Minh",
        "district": "Quận 12",
        "ward": "Phường Tân Hưng Thuận",
        "street": "Đường Nguyễn Văn Quá",
        "postal_code": "71509",
        "categories": [
            {
                "name": "Nhà hàng"
            }
        ]
    },
    {
        "name": "Ốc Nướng Minh Hồng Kông",
        "latitude": 10.82693,
        "longitude": 106.62671,
        "address": "Ốc Nướng Minh Hồng Kông, Đường Song Hành Quốc Lộ 22, Phường Đông Hưng Thuận, Quận 12, Hồ Chí Minh, Việt Nam",
        "country_code": "VNM",
        "country_name": "Việt Nam",
        "city": "Hồ Chí Minh",
        "district": "Quận 12",
        "ward": "Phường Đông Hưng Thuận",
        "street": "Đường Song Hành Quốc Lộ 22",
        "postal_code": "71508",
        "categories": [
            {
                "name": "Nhà hàng"
            }
        ]
    },
    {
        "name": "Bún Bò-Bún Riêu-Mì Quảng",
        "latitude": 10.82688,
        "longitude": 106.62679,
        "address": "Bún Bò-Bún Riêu-Mì Quảng, Đường Song Hành Quốc Lộ 22, Phường Đông Hưng Thuận, Quận 12, Hồ Chí Minh, Việt Nam",
        "country_code": "VNM",
        "country_name": "Việt Nam",
        "city": "Hồ Chí Minh",
        "district": "Quận 12",
        "ward": "Phường Đông Hưng Thuận",
        "street": "Đường Song Hành Quốc Lộ 22",
        "postal_code": "71508",
        "categories": [
            {
                "name": "Nhà hàng"
            }
        ]
    },
    {
        "name": "Vườn Cau",
        "latitude": 10.82743,
        "longitude": 106.62293,
        "address": "Vườn Cau, 8 Hẻm 33 Phan Văn Hớn, Phường Tân Thới Nhất, Quận 12, Hồ Chí Minh, Việt Nam",
        "country_code": "VNM",
        "country_name": "Việt Nam",
        "city": "Hồ Chí Minh",
        "district": "Quận 12",
        "ward": "Phường Tân Thới Nhất",
        "street": "Hẻm 33 Phan Văn Hớn",
        "postal_code": "71510",
        "categories": [
            {
                "name": "Nhà hàng"
            }
        ]
    },
    {
        "name": "Ốc-Hải Sản-Bia Tô",
        "latitude": 10.82378,
        "longitude": 106.62135,
        "address": "Ốc-Hải Sản-Bia Tô, Đường Tân Thới Nhất 17, Phường Tân Thới Nhất, Quận 12, Hồ Chí Minh, Việt Nam",
        "country_code": "VNM",
        "country_name": "Việt Nam",
        "city": "Hồ Chí Minh",
        "district": "Quận 12",
        "ward": "Phường Tân Thới Nhất",
        "street": "Đường Tân Thới Nhất 17",
        "postal_code": "71510",
        "categories": [
            {
                "name": "Nhà hàng"
            }
        ]
    },
    {
        "name": "Hủ Tiếu Nam Vang",
        "latitude": 10.82376,
        "longitude": 106.62133,
        "address": "Hủ Tiếu Nam Vang, Đường Tân Thới Nhất 17, Phường Tân Thới Nhất, Quận 12, Hồ Chí Minh, Việt Nam",
        "country_code": "VNM",
        "country_name": "Việt Nam",
        "city": "Hồ Chí Minh",
        "district": "Quận 12",
        "ward": "Phường Tân Thới Nhất",
        "street": "Đường Tân Thới Nhất 17",
        "postal_code": "71510",
        "categories": [
            {
                "name": "Nhà hàng"
            }
        ]
    },
    {
        "name": "Quán Hương Vị Thủy",
        "latitude": 10.82656,
        "longitude": 106.6272,
        "address": "Quán Hương Vị Thủy, Đường Song Hành Quốc Lộ 22, Phường Đông Hưng Thuận, Quận 12, Hồ Chí Minh, Việt Nam",
        "country_code": "VNM",
        "country_name": "Việt Nam",
        "city": "Hồ Chí Minh",
        "district": "Quận 12",
        "ward": "Phường Đông Hưng Thuận",
        "street": "Đường Song Hành Quốc Lộ 22",
        "postal_code": "71508",
        "categories": [
            {
                "name": "Nhà hàng"
            },
            {
                "name": "Cà Phê/Trà"
            },
            {
                "name": "Quán cà phê"
            }
        ]
    },
    {
        "name": "Ao Làng Quán",
        "latitude": 10.82656,
        "longitude": 106.6272,
        "address": "Ao Làng Quán, Đường Song Hành Quốc Lộ 22, Phường Đông Hưng Thuận, Quận 12, Hồ Chí Minh, Việt Nam",
        "country_code": "VNM",
        "country_name": "Việt Nam",
        "city": "Hồ Chí Minh",
        "district": "Quận 12",
        "ward": "Phường Đông Hưng Thuận",
        "street": "Đường Song Hành Quốc Lộ 22",
        "postal_code": "71508",
        "categories": [
            {
                "name": "Nhà hàng"
            }
        ]
    },
    {
        "name": "Đặc Sản Lươn Xứ Nghệ",
        "latitude": 10.82692,
        "longitude": 106.6269,
        "address": "Đặc Sản Lươn Xứ Nghệ, Đường Song Hành Quốc Lộ 22, Phường Đông Hưng Thuận, Quận 12, Hồ Chí Minh, Việt Nam",
        "country_code": "VNM",
        "country_name": "Việt Nam",
        "city": "Hồ Chí Minh",
        "district": "Quận 12",
        "ward": "Phường Đông Hưng Thuận",
        "street": "Đường Song Hành Quốc Lộ 22",
        "postal_code": "71508",
        "categories": [
            {
                "name": "Nhà hàng"
            }
        ]
    },
    {
        "name": "Mì Quảng Bà Thu",
        "latitude": 10.8272,
        "longitude": 106.62659,
        "address": "Mì Quảng Bà Thu, Đường Nguyễn Văn Quá, Phường Tân Hưng Thuận, Quận 12, Hồ Chí Minh, Việt Nam",
        "country_code": "VNM",
        "country_name": "Việt Nam",
        "city": "Hồ Chí Minh",
        "district": "Quận 12",
        "ward": "Phường Tân Hưng Thuận",
        "street": "Đường Nguyễn Văn Quá",
        "postal_code": "71509",
        "categories": [
            {
                "name": "Nhà hàng"
            }
        ]
    },
    {
        "name": "Quán Ăn 3 Miền",
        "latitude": 10.82716,
        "longitude": 106.62664,
        "address": "Quán Ăn 3 Miền, Đường Nguyễn Văn Quá, Phường Tân Hưng Thuận, Quận 12, Hồ Chí Minh, Việt Nam",
        "country_code": "VNM",
        "country_name": "Việt Nam",
        "city": "Hồ Chí Minh",
        "district": "Quận 12",
        "ward": "Phường Tân Hưng Thuận",
        "street": "Đường Nguyễn Văn Quá",
        "postal_code": "71509",
        "categories": [
            {
                "name": "Nhà hàng"
            }
        ]
    },
    {
        "name": "Quán Ốc Xóm Nhà Lá",
        "latitude": 10.82771,
        "longitude": 106.62325,
        "address": "Quán Ốc Xóm Nhà Lá, Đường Phan Văn Hớn, Phường Tân Thới Nhất, Quận 12, Hồ Chí Minh, Việt Nam",
        "country_code": "VNM",
        "country_name": "Việt Nam",
        "city": "Hồ Chí Minh",
        "district": "Quận 12",
        "ward": "Phường Tân Thới Nhất",
        "street": "Đường Phan Văn Hớn",
        "postal_code": "71510",
        "categories": [
            {
                "name": "Nhà hàng"
            }
        ]
    },
    {
        "name": "Hải Sản Phan Thiết",
        "latitude": 10.82721,
        "longitude": 106.62662,
        "address": "Hải Sản Phan Thiết, Đường Nguyễn Văn Quá, Phường Tân Hưng Thuận, Quận 12, Hồ Chí Minh, Việt Nam",
        "country_code": "VNM",
        "country_name": "Việt Nam",
        "city": "Hồ Chí Minh",
        "district": "Quận 12",
        "ward": "Phường Tân Hưng Thuận",
        "street": "Đường Nguyễn Văn Quá",
        "postal_code": "71509",
        "categories": [
            {
                "name": "Nhà hàng"
            }
        ]
    },
    {
        "name": "Cơm Tấm Đêm",
        "latitude": 10.82795,
        "longitude": 106.62416,
        "address": "Cơm Tấm Đêm, Đường Phan Văn Hớn, Phường Tân Thới Nhất, Quận 12, Hồ Chí Minh, Việt Nam",
        "country_code": "VNM",
        "country_name": "Việt Nam",
        "city": "Hồ Chí Minh",
        "district": "Quận 12",
        "ward": "Phường Tân Thới Nhất",
        "street": "Đường Phan Văn Hớn",
        "postal_code": "71510",
        "categories": [
            {
                "name": "Nhà hàng"
            }
        ]
    },
    {
        "name": "Thanh Hương",
        "latitude": 10.82722,
        "longitude": 106.62664,
        "address": "Thanh Hương, Đường Nguyễn Văn Quá, Phường Tân Hưng Thuận, Quận 12, Hồ Chí Minh, Việt Nam",
        "country_code": "VNM",
        "country_name": "Việt Nam",
        "city": "Hồ Chí Minh",
        "district": "Quận 12",
        "ward": "Phường Tân Hưng Thuận",
        "street": "Đường Nguyễn Văn Quá",
        "postal_code": "71509",
        "categories": [
            {
                "name": "Nhà hàng"
            }
        ]
    },
    {
        "name": "Quán Bia Đông Lạnh",
        "latitude": 10.82719,
        "longitude": 106.62673,
        "address": "Quán Bia Đông Lạnh, 42 Hẻm 42 Đường Nguyễn Văn Quá, Phường Tân Hưng Thuận, Quận 12, Hồ Chí Minh, Việt Nam",
        "country_code": "VNM",
        "country_name": "Việt Nam",
        "city": "Hồ Chí Minh",
        "district": "Quận 12",
        "ward": "Phường Tân Hưng Thuận",
        "street": "Hẻm 42 Đường Nguyễn Văn Quá",
        "postal_code": "71509",
        "categories": [
            {
                "name": "Nhà hàng"
            },
            {
                "name": "Quán ăn bình dân"
            }
        ]
    },
    {
        "name": "Quán Cháo Lòng Chị Béo",
        "latitude": 10.82719,
        "longitude": 106.62673,
        "address": "Quán Cháo Lòng Chị Béo, Đường Nguyễn Văn Quá, Phường Tân Hưng Thuận, Quận 12, Hồ Chí Minh, Việt Nam",
        "country_code": "VNM",
        "country_name": "Việt Nam",
        "city": "Hồ Chí Minh",
        "district": "Quận 12",
        "ward": "Phường Tân Hưng Thuận",
        "street": "Đường Nguyễn Văn Quá",
        "postal_code": "71509",
        "categories": [
            {
                "name": "Nhà hàng"
            }
        ]
    },
    {
        "name": "Bún Đậu Hà Nội Phố",
        "latitude": 10.82719,
        "longitude": 106.62673,
        "address": "Bún Đậu Hà Nội Phố, Đường Nguyễn Văn Quá, Phường Tân Hưng Thuận, Quận 12, Hồ Chí Minh, Việt Nam",
        "country_code": "VNM",
        "country_name": "Việt Nam",
        "city": "Hồ Chí Minh",
        "district": "Quận 12",
        "ward": "Phường Tân Hưng Thuận",
        "street": "Đường Nguyễn Văn Quá",
        "postal_code": "71509",
        "categories": [
            {
                "name": "Nhà hàng"
            }
        ]
    },
    {
        "name": "Sơn Hải Quán",
        "latitude": 10.82719,
        "longitude": 106.62673,
        "address": "Sơn Hải Quán, Đường Nguyễn Văn Quá, Phường Tân Hưng Thuận, Quận 12, Hồ Chí Minh, Việt Nam",
        "country_code": "VNM",
        "country_name": "Việt Nam",
        "city": "Hồ Chí Minh",
        "district": "Quận 12",
        "ward": "Phường Tân Hưng Thuận",
        "street": "Đường Nguyễn Văn Quá",
        "postal_code": "71509",
        "categories": [
            {
                "name": "Nhà hàng"
            }
        ]
    },
    {
        "name": "Đức Tuyền Đặc Sản Quảng Trị",
        "latitude": 10.82719,
        "longitude": 106.62673,
        "address": "Đức Tuyền Đặc Sản Quảng Trị, Đường Nguyễn Văn Quá, Phường Tân Hưng Thuận, Quận 12, Hồ Chí Minh, Việt Nam",
        "country_code": "VNM",
        "country_name": "Việt Nam",
        "city": "Hồ Chí Minh",
        "district": "Quận 12",
        "ward": "Phường Tân Hưng Thuận",
        "street": "Đường Nguyễn Văn Quá",
        "postal_code": "71509",
        "categories": [
            {
                "name": "Nhà hàng"
            }
        ]
    },
    {
        "name": "Bún Cá Rô Đồng Hương Quê",
        "latitude": 10.82719,
        "longitude": 106.62673,
        "address": "Bún Cá Rô Đồng Hương Quê, Đường Nguyễn Văn Quá, Phường Tân Hưng Thuận, Quận 12, Hồ Chí Minh, Việt Nam",
        "country_code": "VNM",
        "country_name": "Việt Nam",
        "city": "Hồ Chí Minh",
        "district": "Quận 12",
        "ward": "Phường Tân Hưng Thuận",
        "street": "Đường Nguyễn Văn Quá",
        "postal_code": "71509",
        "categories": [
            {
                "name": "Nhà hàng"
            }
        ]
    },
    {
        "name": "Cơm Chay Diệu Phước",
        "latitude": 10.82719,
        "longitude": 106.62673,
        "address": "Cơm Chay Diệu Phước, Đường Nguyễn Văn Quá, Phường Tân Hưng Thuận, Quận 12, Hồ Chí Minh, Việt Nam",
        "country_code": "VNM",
        "country_name": "Việt Nam",
        "city": "Hồ Chí Minh",
        "district": "Quận 12",
        "ward": "Phường Tân Hưng Thuận",
        "street": "Đường Nguyễn Văn Quá",
        "postal_code": "71509",
        "categories": [
            {
                "name": "Nhà hàng"
            }
        ]
    },
    {
        "name": "Quán Cô Hạnh",
        "latitude": 10.82719,
        "longitude": 106.62673,
        "address": "Quán Cô Hạnh, Đường Nguyễn Văn Quá, Phường Tân Hưng Thuận, Quận 12, Hồ Chí Minh, Việt Nam",
        "country_code": "VNM",
        "country_name": "Việt Nam",
        "city": "Hồ Chí Minh",
        "district": "Quận 12",
        "ward": "Phường Tân Hưng Thuận",
        "street": "Đường Nguyễn Văn Quá",
        "postal_code": "71509",
        "categories": [
            {
                "name": "Nhà hàng"
            },
            {
                "name": "Cửa hàng tiện lợi"
            },
            {
                "name": "Đặc sản & Đồ uống"
            },
            {
                "name": "Siêu thị"
            }
        ]
    },
    {
        "name": "Bê Thui Lẩu Chiên-Xào",
        "latitude": 10.82774,
        "longitude": 106.62596,
        "address": "Bê Thui Lẩu Chiên-Xào, Đường Song Hành Quốc Lộ 22, Phường Tân Hưng Thuận, Quận 12, Hồ Chí Minh, Việt Nam",
        "country_code": "VNM",
        "country_name": "Việt Nam",
        "city": "Hồ Chí Minh",
        "district": "Quận 12",
        "ward": "Phường Tân Hưng Thuận",
        "street": "Đường Song Hành Quốc Lộ 22",
        "postal_code": "71509",
        "categories": [
            {
                "name": "Nhà hàng"
            }
        ]
    },
    {
        "name": "Quán Bê Thui 45",
        "latitude": 10.82774,
        "longitude": 106.62596,
        "address": "Quán Bê Thui 45, Đường Song Hành Quốc Lộ 22, Phường Tân Hưng Thuận, Quận 12, Hồ Chí Minh, Việt Nam",
        "country_code": "VNM",
        "country_name": "Việt Nam",
        "city": "Hồ Chí Minh",
        "district": "Quận 12",
        "ward": "Phường Tân Hưng Thuận",
        "street": "Đường Song Hành Quốc Lộ 22",
        "postal_code": "71509",
        "categories": [
            {
                "name": "Nhà hàng"
            }
        ]
    },
    {
        "name": "Bánh Cuốn Ngon Kim Huệ",
        "latitude": 10.82185,
        "longitude": 106.6224,
        "address": "Bánh Cuốn Ngon Kim Huệ, Đường Tân Thới Nhất 21, Phường Tân Thới Nhất, Quận 12, Hồ Chí Minh, Việt Nam",
        "country_code": "VNM",
        "country_name": "Việt Nam",
        "city": "Hồ Chí Minh",
        "district": "Quận 12",
        "ward": "Phường Tân Thới Nhất",
        "street": "Đường Tân Thới Nhất 21",
        "postal_code": "71510",
        "categories": [
            {
                "name": "Nhà hàng"
            }
        ]
    },
    {
        "name": "Quán Hủ Tíu Nam Vang",
        "latitude": 10.82174,
        "longitude": 106.62254,
        "address": "Quán Hủ Tíu Nam Vang, Đường D3, Phường Tân Thới Nhất, Quận 12, Hồ Chí Minh, Việt Nam",
        "country_code": "VNM",
        "country_name": "Việt Nam",
        "city": "Hồ Chí Minh",
        "district": "Quận 12",
        "ward": "Phường Tân Thới Nhất",
        "street": "Đường D3",
        "postal_code": "71510",
        "categories": [
            {
                "name": "Nhà hàng"
            }
        ]
    },
    {
        "name": "Ốc Đêm Thế Giới Ốc 2",
        "latitude": 10.82738,
        "longitude": 106.62664,
        "address": "Ốc Đêm Thế Giới Ốc 2, Đường Nguyễn Văn Quá, Phường Tân Hưng Thuận, Quận 12, Hồ Chí Minh, Việt Nam",
        "country_code": "VNM",
        "country_name": "Việt Nam",
        "city": "Hồ Chí Minh",
        "district": "Quận 12",
        "ward": "Phường Tân Hưng Thuận",
        "street": "Đường Nguyễn Văn Quá",
        "postal_code": "71509",
        "categories": [
            {
                "name": "Nhà hàng"
            },
            {
                "name": "Chợ/Gian hàng ẩm thực"
            }
        ]
    },
    {
        "name": "Cơm Chay Diệu Vy",
        "latitude": 10.82744,
        "longitude": 106.62656,
        "address": "Cơm Chay Diệu Vy, Đường Nguyễn Văn Quá, Phường Tân Hưng Thuận, Quận 12, Hồ Chí Minh, Việt Nam",
        "country_code": "VNM",
        "country_name": "Việt Nam",
        "city": "Hồ Chí Minh",
        "district": "Quận 12",
        "ward": "Phường Tân Hưng Thuận",
        "street": "Đường Nguyễn Văn Quá",
        "postal_code": "71509",
        "categories": [
            {
                "name": "Nhà hàng"
            }
        ]
    },
    {
        "name": "Quán O Bé",
        "latitude": 10.82339,
        "longitude": 106.62117,
        "address": "Quán O Bé, 18 Hẻm 149 Tân Thới Nhất 17, Phường Tân Thới Nhất, Quận 12, Hồ Chí Minh, Việt Nam",
        "country_code": "VNM",
        "country_name": "Việt Nam",
        "city": "Hồ Chí Minh",
        "district": "Quận 12",
        "ward": "Phường Tân Thới Nhất",
        "street": "Hẻm 149 Tân Thới Nhất 17",
        "postal_code": "71510",
        "categories": [
            {
                "name": "Nhà hàng"
            }
        ]
    },
    {
        "name": "Ốc Vương",
        "latitude": 10.82763,
        "longitude": 106.62265,
        "address": "Ốc Vương, 35 Đường Phan Văn Hớn, Phường Tân Thới Nhất, Quận 12, Hồ Chí Minh, Việt Nam",
        "country_code": "VNM",
        "country_name": "Việt Nam",
        "city": "Hồ Chí Minh",
        "district": "Quận 12",
        "ward": "Phường Tân Thới Nhất",
        "street": "Đường Phan Văn Hớn",
        "postal_code": "71510",
        "categories": [
            {
                "name": "Nhà hàng"
            }
        ]
    },
    {
        "name": "Quán Thuý Anh",
        "latitude": 10.82763,
        "longitude": 106.62265,
        "address": "Quán Thuý Anh, Đường Phan Văn Hớn, Phường Tân Thới Nhất, Quận 12, Hồ Chí Minh, Việt Nam",
        "country_code": "VNM",
        "country_name": "Việt Nam",
        "city": "Hồ Chí Minh",
        "district": "Quận 12",
        "ward": "Phường Tân Thới Nhất",
        "street": "Đường Phan Văn Hớn",
        "postal_code": "71510",
        "categories": [
            {
                "name": "Nhà hàng"
            }
        ]
    },
    {
        "name": "Ốc Vương",
        "latitude": 10.82763,
        "longitude": 106.62265,
        "address": "Ốc Vương, 35 Đường Phan Văn Hớn, Phường Tân Thới Nhất, Quận 12, Hồ Chí Minh, Việt Nam",
        "country_code": "VNM",
        "country_name": "Việt Nam",
        "city": "Hồ Chí Minh",
        "district": "Quận 12",
        "ward": "Phường Tân Thới Nhất",
        "street": "Đường Phan Văn Hớn",
        "postal_code": "71510",
        "categories": [
            {
                "name": "Nhà hàng"
            }
        ]
    },
    {
        "name": "Quán Cơm Ngọc Cẩm",
        "latitude": 10.8278,
        "longitude": 106.62297,
        "address": "Quán Cơm Ngọc Cẩm, Đường Phan Văn Hớn, Phường Tân Thới Nhất, Quận 12, Hồ Chí Minh, Việt Nam",
        "country_code": "VNM",
        "country_name": "Việt Nam",
        "city": "Hồ Chí Minh",
        "district": "Quận 12",
        "ward": "Phường Tân Thới Nhất",
        "street": "Đường Phan Văn Hớn",
        "postal_code": "71510",
        "categories": [
            {
                "name": "Nhà hàng"
            }
        ]
    },
    {
        "name": "Chao Bo Cau",
        "latitude": 10.82242,
        "longitude": 106.62166,
        "address": "Chao Bo Cau, Hẻm 149/23 Tân Thới Nhất 17, Phường Tân Thới Nhất, Quận 12, Hồ Chí Minh, Việt Nam",
        "country_code": "VNM",
        "country_name": "Việt Nam",
        "city": "Hồ Chí Minh",
        "district": "Quận 12",
        "ward": "Phường Tân Thới Nhất",
        "street": "Hẻm 149/23 Tân Thới Nhất 17",
        "postal_code": "71510",
        "categories": [
            {
                "name": "Nhà hàng"
            }
        ]
    },
    {
        "name": "Quán Ăn Vọng Các",
        "latitude": 10.82793,
        "longitude": 106.62585,
        "address": "Quán Ăn Vọng Các, Đường Song Hành Quốc Lộ 22, Phường Tân Hưng Thuận, Quận 12, Hồ Chí Minh, Việt Nam",
        "country_code": "VNM",
        "country_name": "Việt Nam",
        "city": "Hồ Chí Minh",
        "district": "Quận 12",
        "ward": "Phường Tân Hưng Thuận",
        "street": "Đường Song Hành Quốc Lộ 22",
        "postal_code": "71509",
        "categories": [
            {
                "name": "Nhà hàng"
            }
        ]
    },
    {
        "name": "Ba Duy Bánh Canh Cá Lóc Huế",
        "latitude": 10.82757,
        "longitude": 106.62657,
        "address": "Ba Duy Bánh Canh Cá Lóc Huế, Đường Nguyễn Văn Quá, Phường Tân Hưng Thuận, Quận 12, Hồ Chí Minh, Việt Nam",
        "country_code": "VNM",
        "country_name": "Việt Nam",
        "city": "Hồ Chí Minh",
        "district": "Quận 12",
        "ward": "Phường Tân Hưng Thuận",
        "street": "Đường Nguyễn Văn Quá",
        "postal_code": "71509",
        "categories": [
            {
                "name": "Nhà hàng"
            }
        ]
    },
    {
        "name": "Quán Cơm Phương Thùy",
        "latitude": 10.82782,
        "longitude": 106.62262,
        "address": "Quán Cơm Phương Thùy, Đường Phan Văn Hớn, Phường Tân Thới Nhất, Quận 12, Hồ Chí Minh, Việt Nam",
        "country_code": "VNM",
        "country_name": "Việt Nam",
        "city": "Hồ Chí Minh",
        "district": "Quận 12",
        "ward": "Phường Tân Thới Nhất",
        "street": "Đường Phan Văn Hớn",
        "postal_code": "71510",
        "categories": [
            {
                "name": "Chợ/Gian hàng ẩm thực"
            },
            {
                "name": "Nhà hàng"
            }
        ]
    },
    {
        "name": "Cơm Gà Xối Mỡ Thiên Hà 3",
        "latitude": 10.82811,
        "longitude": 106.62582,
        "address": "Cơm Gà Xối Mỡ Thiên Hà 3, Đường Song Hành Quốc Lộ 22, Phường Tân Hưng Thuận, Quận 12, Hồ Chí Minh, Việt Nam",
        "country_code": "VNM",
        "country_name": "Việt Nam",
        "city": "Hồ Chí Minh",
        "district": "Quận 12",
        "ward": "Phường Tân Hưng Thuận",
        "street": "Đường Song Hành Quốc Lộ 22",
        "postal_code": "71509",
        "categories": [
            {
                "name": "Nhà hàng"
            }
        ]
    },
    {
        "name": "Quán Cơm Phở Ngọc Bích",
        "latitude": 10.82782,
        "longitude": 106.62251,
        "address": "Quán Cơm Phở Ngọc Bích, Đường Phan Văn Hớn, Phường Tân Thới Nhất, Quận 12, Hồ Chí Minh, Việt Nam",
        "country_code": "VNM",
        "country_name": "Việt Nam",
        "city": "Hồ Chí Minh",
        "district": "Quận 12",
        "ward": "Phường Tân Thới Nhất",
        "street": "Đường Phan Văn Hớn",
        "postal_code": "71510",
        "categories": [
            {
                "name": "Nhà hàng"
            }
        ]
    }
]
