[
    {
        "name": "Galaxy Nguyen Van Qua",
        "latitude": 10.82977,
        "longitude": 106.62611,
        "address": "Galaxy Nguyen Van Qua, Hẻm 18 Đường Nguyễn Văn Quá, Phường Tân Hưng Thuận, Quận 12, Hồ Chí Minh, Việt Nam",
        "country_code": "VNM",
        "country_name": "Việt Nam",
        "city": "Hồ Chí Minh",
        "district": "Quận 12",
        "ward": "Phường Tân Hưng Thuận",
        "street": "Hẻm 18 Đường Nguyễn Văn Quá",
        "postal_code": "71509",
        "categories": [
            {
                "name": "Rạp chiếu phim"
            }
        ]
    },
    {
        "name": "Aloha Cinema",
        "latitude": 10.80849,
        "longitude": 106.62703,
        "address": "Aloha Cinema, Đường Dương Đức Hiền, Phường Tây Thạnh, Quận Tân Phú, Hồ Chí Minh, Việt Nam",
        "country_code": "VNM",
        "country_name": "Việt Nam",
        "city": "Hồ Chí Minh",
        "district": "Quận Tân Phú",
        "ward": "Phường Tây Thạnh",
        "street": "Đường Dương Đức Hiền",
        "postal_code": "72009",
        "categories": [
            {
                "name": "Rạp chiếu phim"
            }
        ]
    },
    {
        "name": "Boke Entertaiment",
        "latitude": 10.81,
        "longitude": 106.61608,
        "address": "Boke Entertaiment, Đường Kênh 19/5, Phường Tây Thạnh, Quận Tân Phú, Hồ Chí Minh, Việt Nam",
        "country_code": "VNM",
        "country_name": "Việt Nam",
        "city": "Hồ Chí Minh",
        "district": "Quận Tân Phú",
        "ward": "Phường Tây Thạnh",
        "street": "Đường Kênh 19/5",
        "postal_code": "72009",
        "categories": [
            {
                "name": "Rạp chiếu phim"
            }
        ]
    },
    {
        "name": "CGV Tân Phú",
        "latitude": 10.80616,
        "longitude": 106.63493,
        "address": "CGV Tân Phú, Đường Trường Chinh, Phường Tây Thạnh, Quận Tân Phú, Hồ Chí Minh, Việt Nam",
        "country_code": "VNM",
        "country_name": "Việt Nam",
        "city": "Hồ Chí Minh",
        "district": "Quận Tân Phú",
        "ward": "Phường Tây Thạnh",
        "street": "Đường Trường Chinh",
        "postal_code": "72009",
        "categories": [
            {
                "name": "Rạp chiếu phim"
            },
            {
                "name": "Giải trí về đêm"
            }
        ]
    },
    {
        "name": "CGV Aeon Tân Phú",
        "latitude": 10.80115,
        "longitude": 106.61862,
        "address": "CGV Aeon Tân Phú, Đường Bờ Bao Tân Thắng, Phường Sơn Kỳ, Quận Tân Phú, Hồ Chí Minh, Việt Nam",
        "country_code": "VNM",
        "country_name": "Việt Nam",
        "city": "Hồ Chí Minh",
        "district": "Quận Tân Phú",
        "ward": "Phường Sơn Kỳ",
        "street": "Đường Bờ Bao Tân Thắng",
        "postal_code": "72010",
        "categories": [
            {
                "name": "Rạp chiếu phim"
            },
            {
                "name": "Nhà hàng"
            },
            {
                "name": "Giải trí về đêm"
            },
            {
                "name": "Công viên/Khu vui chơi"
            },
            {
                "name": "Công viên giải trí"
            }
        ]
    },
    {
        "name": "Doan's Movie Theater",
        "latitude": 10.84095,
        "longitude": 106.64317,
        "address": "Doan's Movie Theater, Đường Đỗ Thúc Tịnh, Phường 12, Quận Gò Vấp, Hồ Chí Minh, Việt Nam",
        "country_code": "VNM",
        "country_name": "Việt Nam",
        "city": "Hồ Chí Minh",
        "district": "Quận Gò Vấp",
        "ward": "Phường 12",
        "street": "Đường Đỗ Thúc Tịnh",
        "postal_code": "71420",
        "categories": [
            {
                "name": "Rạp chiếu phim"
            }
        ]
    },
    {
        "name": "Quyen Ngo's Place Edit",
        "latitude": 10.84782,
        "longitude": 106.6416,
        "address": "Quyen Ngo's Place Edit, Đường Số 51, Phường 14, Quận Gò Vấp, Hồ Chí Minh, Việt Nam",
        "country_code": "VNM",
        "country_name": "Việt Nam",
        "city": "Hồ Chí Minh",
        "district": "Quận Gò Vấp",
        "ward": "Phường 14",
        "street": "Đường Số 51",
        "postal_code": "71418",
        "categories": [
            {
                "name": "Rạp chiếu phim"
            }
        ]
    },
    {
        "name": "HD Cinema Tân Phú",
        "latitude": 10.79582,
        "longitude": 106.62595,
        "address": "HD Cinema Tân Phú, 87 Đường Gò Dầu, Phường Tân Quý, Quận Tân Phú, Hồ Chí Minh, Việt Nam",
        "country_code": "VNM",
        "country_name": "Việt Nam",
        "city": "Hồ Chí Minh",
        "district": "Quận Tân Phú",
        "ward": "Phường Tân Quý",
        "street": "Đường Gò Dầu",
        "postal_code": "72011",
        "categories": [
            {
                "name": "Rạp chiếu phim"
            },
            {
                "name": "Cà Phê/Trà"
            },
            {
                "name": "Giải trí về đêm"
            }
        ]
    },
    {
        "name": "Minh Khoa",
        "latitude": 10.84609,
        "longitude": 106.64465,
        "address": "Minh Khoa, Đường Nguyễn Văn Khối, Phường 8, Quận Gò Vấp, Hồ Chí Minh, Việt Nam",
        "country_code": "VNM",
        "country_name": "Việt Nam",
        "city": "Hồ Chí Minh",
        "district": "Quận Gò Vấp",
        "ward": "Phường 8",
        "street": "Đường Nguyễn Văn Khối",
        "postal_code": "71419",
        "categories": [
            {
                "name": "Rạp chiếu phim"
            }
        ]
    },
    {
        "name": "CGV Sư Vạn Hạnh",
        "latitude": 10.79386,
        "longitude": 106.63714,
        "address": "CGV Sư Vạn Hạnh, 11 Đường Vạn Hạnh, Phường Tân Thành, Quận Tân Phú, Hồ Chí Minh, Việt Nam",
        "country_code": "VNM",
        "country_name": "Việt Nam",
        "city": "Hồ Chí Minh",
        "district": "Quận Tân Phú",
        "ward": "Phường Tân Thành",
        "street": "Đường Vạn Hạnh",
        "postal_code": "72007",
        "categories": [
            {
                "name": "Rạp chiếu phim"
            }
        ]
    },
    {
        "name": "Hachi Cafe Hd",
        "latitude": 10.79022,
        "longitude": 106.6211,
        "address": "Hachi Cafe Hd, Đường Tân Hương, Phường Tân Quý, Quận Tân Phú, Hồ Chí Minh, Việt Nam",
        "country_code": "VNM",
        "country_name": "Việt Nam",
        "city": "Hồ Chí Minh",
        "district": "Quận Tân Phú",
        "ward": "Phường Tân Quý",
        "street": "Đường Tân Hương",
        "postal_code": "72011",
        "categories": [
            {
                "name": "Rạp chiếu phim"
            }
        ]
    },
    {
        "name": "Cà Phê HD Cinema",
        "latitude": 10.7945,
        "longitude": 106.64263,
        "address": "Cà Phê HD Cinema, 106 Đường Nguyễn Hồng Đào, Phường 14, Quận Tân Bình, Hồ Chí Minh, Việt Nam",
        "country_code": "VNM",
        "country_name": "Việt Nam",
        "city": "Hồ Chí Minh",
        "district": "Quận Tân Bình",
        "ward": "Phường 14",
        "street": "Đường Nguyễn Hồng Đào",
        "postal_code": "72112",
        "categories": [
            {
                "name": "Quán cà phê"
            },
            {
                "name": "Cà Phê/Trà"
            },
            {
                "name": "Rạp chiếu phim"
            },
            {
                "name": "Quán cà phê internet"
            }
        ]
    },
    {
        "name": "Lotte Cinema",
        "latitude": 10.80202,
        "longitude": 106.65179,
        "address": "Lotte Cinema, 4 Đường Cộng Hòa, Phường 12, Quận Tân Bình, Hồ Chí Minh, Việt Nam",
        "country_code": "VNM",
        "country_name": "Việt Nam",
        "city": "Hồ Chí Minh",
        "district": "Quận Tân Bình",
        "ward": "Phường 12",
        "street": "Đường Cộng Hòa",
        "postal_code": "72111",
        "categories": [
            {
                "name": "Rạp chiếu phim"
            },
            {
                "name": "Hàng tiêu dùng"
            }
        ]
    },
    {
        "name": "Exit Through The Gift Shop",
        "latitude": 10.79534,
        "longitude": 106.64433,
        "address": "Exit Through The Gift Shop, Hẻm 291 Đường Trường Chinh, Phường 14, Quận Tân Bình, Hồ Chí Minh, Việt Nam",
        "country_code": "VNM",
        "country_name": "Việt Nam",
        "city": "Hồ Chí Minh",
        "district": "Quận Tân Bình",
        "ward": "Phường 14",
        "street": "Hẻm 291 Đường Trường Chinh",
        "postal_code": "72112",
        "categories": [
            {
                "name": "Rạp chiếu phim"
            }
        ]
    },
    {
        "name": "Beta Cineplex",
        "latitude": 10.83533,
        "longitude": 106.65984,
        "address": "Beta Cineplex, Hẻm 653 Quang Trung, Phường 11, Quận Gò Vấp, Hồ Chí Minh, Việt Nam",
        "country_code": "VNM",
        "country_name": "Việt Nam",
        "city": "Hồ Chí Minh",
        "district": "Quận Gò Vấp",
        "ward": "Phường 11",
        "street": "Hẻm 653 Quang Trung",
        "postal_code": "71421",
        "categories": [
            {
                "name": "Rạp chiếu phim"
            }
        ]
    },
    {
        "name": "3D Box - Xem Phim Phòng Riêng",
        "latitude": 10.78813,
        "longitude": 106.62412,
        "address": "3D Box - Xem Phim Phòng Riêng, 425 Đường Vườn Lài, Phường Phú Thọ Hòa, Quận Tân Phú, Hồ Chí Minh, Việt Nam",
        "country_code": "VNM",
        "country_name": "Việt Nam",
        "city": "Hồ Chí Minh",
        "district": "Quận Tân Phú",
        "ward": "Phường Phú Thọ Hòa",
        "street": "Đường Vườn Lài",
        "postal_code": "72012",
        "categories": [
            {
                "name": "Quán cà phê"
            },
            {
                "name": "Quán ăn bình dân"
            },
            {
                "name": "Cà Phê/Trà"
            },
            {
                "name": "Rạp chiếu phim"
            }
        ]
    },
    {
        "name": "Phòng Games House",
        "latitude": 10.85922,
        "longitude": 106.61217,
        "address": "Phòng Games House, Đường Trung Mỹ Tây 11, Phường Trung Mỹ Tây, Quận 12, Hồ Chí Minh, Việt Nam",
        "country_code": "VNM",
        "country_name": "Việt Nam",
        "city": "Hồ Chí Minh",
        "district": "Quận 12",
        "ward": "Phường Trung Mỹ Tây",
        "street": "Đường Trung Mỹ Tây 11",
        "postal_code": "71507",
        "categories": [
            {
                "name": "Rạp chiếu phim"
            }
        ]
    },
    {
        "name": "Galaxy Tân Bình",
        "latitude": 10.79028,
        "longitude": 106.64083,
        "address": "Galaxy Tân Bình, 246 Đường Nguyễn Hồng Đào, Phường 14, Quận Tân Bình, Hồ Chí Minh, Việt Nam",
        "country_code": "VNM",
        "country_name": "Việt Nam",
        "city": "Hồ Chí Minh",
        "district": "Quận Tân Bình",
        "ward": "Phường 14",
        "street": "Đường Nguyễn Hồng Đào",
        "postal_code": "72112",
        "categories": [
            {
                "name": "Rạp chiếu phim"
            },
            {
                "name": "Cho thuê video & trò chơi"
            }
        ]
    },
    {
        "name": "Cine-Room Full Hd-3d",
        "latitude": 10.79303,
        "longitude": 106.6459,
        "address": "Cine-Room Full Hd-3d, 154 Đường Bàu Cát 1, Phường 12, Quận Tân Bình, Hồ Chí Minh, Việt Nam",
        "country_code": "VNM",
        "country_name": "Việt Nam",
        "city": "Hồ Chí Minh",
        "district": "Quận Tân Bình",
        "ward": "Phường 12",
        "street": "Đường Bàu Cát 1",
        "postal_code": "72111",
        "categories": [
            {
                "name": "Rạp chiếu phim"
            },
            {
                "name": "Quán cà phê"
            }
        ]
    },
    {
        "name": "Galaxy Quang Trung",
        "latitude": 10.83512,
        "longitude": 106.66254,
        "address": "Galaxy Quang Trung, Hẻm 637 Quang Trung, Phường 11, Quận Gò Vấp, Hồ Chí Minh, Việt Nam",
        "country_code": "VNM",
        "country_name": "Việt Nam",
        "city": "Hồ Chí Minh",
        "district": "Quận Gò Vấp",
        "ward": "Phường 11",
        "street": "Hẻm 637 Quang Trung",
        "postal_code": "71421",
        "categories": [
            {
                "name": "Rạp chiếu phim"
            },
            {
                "name": "Giải trí về đêm"
            }
        ]
    },
    {
        "name": "Bhd Star Quang Trung V",
        "latitude": 10.83409,
        "longitude": 106.66329,
        "address": "Bhd Star Quang Trung V, Hẻm 597 Quang Trung, Phường 11, Quận Gò Vấp, Hồ Chí Minh, Việt Nam",
        "country_code": "VNM",
        "country_name": "Việt Nam",
        "city": "Hồ Chí Minh",
        "district": "Quận Gò Vấp",
        "ward": "Phường 11",
        "street": "Hẻm 597 Quang Trung",
        "postal_code": "71421",
        "categories": [
            {
                "name": "Rạp chiếu phim"
            }
        ]
    },
    {
        "name": "CGV Cinemas CT Plaza Quận Tân Bình",
        "latitude": 10.81338,
        "longitude": 106.66537,
        "address": "CGV Cinemas CT Plaza Quận Tân Bình, 60A Đường Hồng Hà, Phường 2, Quận Tân Bình, Hồ Chí Minh, Việt Nam",
        "country_code": "VNM",
        "country_name": "Việt Nam",
        "city": "Hồ Chí Minh",
        "district": "Quận Tân Bình",
        "ward": "Phường 2",
        "street": "Đường Hồng Hà",
        "postal_code": "72108",
        "categories": [
            {
                "name": "Rạp chiếu phim"
            }
        ]
    },
    {
        "name": "Cgv Cinema",
        "latitude": 10.81291,
        "longitude": 106.66532,
        "address": "Cgv Cinema, Đường Trường Sơn, Phường 2, Quận Tân Bình, Hồ Chí Minh, Việt Nam",
        "country_code": "VNM",
        "country_name": "Việt Nam",
        "city": "Hồ Chí Minh",
        "district": "Quận Tân Bình",
        "ward": "Phường 2",
        "street": "Đường Trường Sơn",
        "postal_code": "72108",
        "categories": [
            {
                "name": "Rạp chiếu phim"
            }
        ]
    },
    {
        "name": "Kịch Tâm Ngọc",
        "latitude": 10.80062,
        "longitude": 106.65953,
        "address": "Kịch Tâm Ngọc, Đường Cộng Hòa, Phường 4, Quận Tân Bình, Hồ Chí Minh, Việt Nam",
        "country_code": "VNM",
        "country_name": "Việt Nam",
        "city": "Hồ Chí Minh",
        "district": "Quận Tân Bình",
        "ward": "Phường 4",
        "street": "Đường Cộng Hòa",
        "postal_code": "72106",
        "categories": [
            {
                "name": "Rạp chiếu phim"
            },
            {
                "name": "Nhà hát, Âm nhạc & Văn hóa"
            }
        ]
    },
    {
        "name": "Megastar",
        "latitude": 10.81262,
        "longitude": 106.66544,
        "address": "Megastar, Đường Trường Sơn, Phường 2, Quận Tân Bình, Hồ Chí Minh, Việt Nam",
        "country_code": "VNM",
        "country_name": "Việt Nam",
        "city": "Hồ Chí Minh",
        "district": "Quận Tân Bình",
        "ward": "Phường 2",
        "street": "Đường Trường Sơn",
        "postal_code": "72108",
        "categories": [
            {
                "name": "Rạp chiếu phim"
            }
        ]
    },
    {
        "name": "Rạp Chiếu Phim CGV- CT Plaza",
        "latitude": 10.81353,
        "longitude": 106.66581,
        "address": "Rạp Chiếu Phim CGV- CT Plaza, Đường Bạch Đằng, Phường 2, Quận Tân Bình, Hồ Chí Minh, Việt Nam",
        "country_code": "VNM",
        "country_name": "Việt Nam",
        "city": "Hồ Chí Minh",
        "district": "Quận Tân Bình",
        "ward": "Phường 2",
        "street": "Đường Bạch Đằng",
        "postal_code": "72108",
        "categories": [
            {
                "name": "Rạp chiếu phim"
            }
        ]
    },
    {
        "name": "CGV Hoàng Văn Thụ",
        "latitude": 10.79898,
        "longitude": 106.6597,
        "address": "CGV Hoàng Văn Thụ, 415 Đường Hoàng Văn Thụ, Phường 2, Quận Tân Bình, Hồ Chí Minh, Việt Nam",
        "country_code": "VNM",
        "country_name": "Việt Nam",
        "city": "Hồ Chí Minh",
        "district": "Quận Tân Bình",
        "ward": "Phường 2",
        "street": "Đường Hoàng Văn Thụ",
        "postal_code": "72108",
        "categories": [
            {
                "name": "Rạp chiếu phim"
            }
        ]
    },
    {
        "name": "Lotte Phú Thọ",
        "latitude": 10.78312,
        "longitude": 106.641,
        "address": "Lotte Phú Thọ, Hẻm 25/18/5 Nguyễn Minh Châu, Phường Phú Trung, Quận Tân Phú, Hồ Chí Minh, Việt Nam",
        "country_code": "VNM",
        "country_name": "Việt Nam",
        "city": "Hồ Chí Minh",
        "district": "Quận Tân Phú",
        "ward": "Phường Phú Trung",
        "street": "Hẻm 25/18/5 Nguyễn Minh Châu",
        "postal_code": "72016",
        "categories": [
            {
                "name": "Rạp chiếu phim"
            }
        ]
    },
    {
        "name": "Louis's Cinema",
        "latitude": 10.7791,
        "longitude": 106.62551,
        "address": "Louis's Cinema, Đường Đỗ Bí, Phường Phú Thạnh, Quận Tân Phú, Hồ Chí Minh, Việt Nam",
        "country_code": "VNM",
        "country_name": "Việt Nam",
        "city": "Hồ Chí Minh",
        "district": "Quận Tân Phú",
        "ward": "Phường Phú Thạnh",
        "street": "Đường Đỗ Bí",
        "postal_code": "72013",
        "categories": [
            {
                "name": "Rạp chiếu phim"
            }
        ]
    },
    {
        "name": "Abab",
        "latitude": 10.77921,
        "longitude": 106.62985,
        "address": "Abab, Hẻm 240 Thoại Ngọc Hầu, Phường Phú Thạnh, Quận Tân Phú, Hồ Chí Minh, Việt Nam",
        "country_code": "VNM",
        "country_name": "Việt Nam",
        "city": "Hồ Chí Minh",
        "district": "Quận Tân Phú",
        "ward": "Phường Phú Thạnh",
        "street": "Hẻm 240 Thoại Ngọc Hầu",
        "postal_code": "72013",
        "categories": [
            {
                "name": "Rạp chiếu phim"
            }
        ]
    },
    {
        "name": "Asaida",
        "latitude": 10.77921,
        "longitude": 106.62985,
        "address": "Asaida, Hẻm 240 Thoại Ngọc Hầu, Phường Phú Thạnh, Quận Tân Phú, Hồ Chí Minh, Việt Nam",
        "country_code": "VNM",
        "country_name": "Việt Nam",
        "city": "Hồ Chí Minh",
        "district": "Quận Tân Phú",
        "ward": "Phường Phú Thạnh",
        "street": "Hẻm 240 Thoại Ngọc Hầu",
        "postal_code": "72013",
        "categories": [
            {
                "name": "Rạp chiếu phim"
            }
        ]
    },
    {
        "name": "Asad",
        "latitude": 10.77921,
        "longitude": 106.62985,
        "address": "Asad, Hẻm 240 Thoại Ngọc Hầu, Phường Phú Thạnh, Quận Tân Phú, Hồ Chí Minh, Việt Nam",
        "country_code": "VNM",
        "country_name": "Việt Nam",
        "city": "Hồ Chí Minh",
        "district": "Quận Tân Phú",
        "ward": "Phường Phú Thạnh",
        "street": "Hẻm 240 Thoại Ngọc Hầu",
        "postal_code": "72013",
        "categories": [
            {
                "name": "Rạp chiếu phim"
            }
        ]
    },
    {
        "name": "Cine Sao Thổ",
        "latitude": 10.79736,
        "longitude": 106.66231,
        "address": "Cine Sao Thổ, Đường Ngô Thị Thu Minh, Phường 2, Quận Tân Bình, Hồ Chí Minh, Việt Nam",
        "country_code": "VNM",
        "country_name": "Việt Nam",
        "city": "Hồ Chí Minh",
        "district": "Quận Tân Bình",
        "ward": "Phường 2",
        "street": "Đường Ngô Thị Thu Minh",
        "postal_code": "72108",
        "categories": [
            {
                "name": "Rạp chiếu phim"
            }
        ]
    },
    {
        "name": "Hd Cinema",
        "latitude": 10.80688,
        "longitude": 106.66783,
        "address": "Hd Cinema, Đường Thích Minh Nguyệt, Phường 2, Quận Tân Bình, Hồ Chí Minh, Việt Nam",
        "country_code": "VNM",
        "country_name": "Việt Nam",
        "city": "Hồ Chí Minh",
        "district": "Quận Tân Bình",
        "ward": "Phường 2",
        "street": "Đường Thích Minh Nguyệt",
        "postal_code": "72108",
        "categories": [
            {
                "name": "Rạp chiếu phim"
            }
        ]
    },
    {
        "name": "Rạp Tân Sơn Nhất",
        "latitude": 10.80222,
        "longitude": 106.6656,
        "address": "Rạp Tân Sơn Nhất, Đường Phổ Quang, Phường 2, Quận Tân Bình, Hồ Chí Minh, Việt Nam",
        "country_code": "VNM",
        "country_name": "Việt Nam",
        "city": "Hồ Chí Minh",
        "district": "Quận Tân Bình",
        "ward": "Phường 2",
        "street": "Đường Phổ Quang",
        "postal_code": "72108",
        "categories": [
            {
                "name": "Trung tâm hành chính hoặc cộng đồng"
            },
            {
                "name": "Rạp chiếu phim"
            }
        ]
    },
    {
        "name": "Rạp Phim BHD Vincom Quang Trung",
        "latitude": 10.8294,
        "longitude": 106.67244,
        "address": "Rạp Phim BHD Vincom Quang Trung, 190 Quang Trung, Phường 10, Quận Gò Vấp, Hồ Chí Minh, Việt Nam",
        "country_code": "VNM",
        "country_name": "Việt Nam",
        "city": "Hồ Chí Minh",
        "district": "Quận Gò Vấp",
        "ward": "Phường 10",
        "street": "Quang Trung",
        "postal_code": "71406",
        "categories": [
            {
                "name": "Rạp chiếu phim"
            }
        ]
    },
    {
        "name": "Rạp Chiếu Phim BHD Star Cineplex Quang Trung",
        "latitude": 10.82902,
        "longitude": 106.67284,
        "address": "Rạp Chiếu Phim BHD Star Cineplex Quang Trung, Quang Trung, Phường 10, Quận Gò Vấp, Hồ Chí Minh, Việt Nam",
        "country_code": "VNM",
        "country_name": "Việt Nam",
        "city": "Hồ Chí Minh",
        "district": "Quận Gò Vấp",
        "ward": "Phường 10",
        "street": "Quang Trung",
        "postal_code": "71406",
        "categories": [
            {
                "name": "Rạp chiếu phim"
            },
            {
                "name": "Nhà hàng"
            },
            {
                "name": "Quán cà phê"
            },
            {
                "name": "Phòng trà"
            }
        ]
    },
    {
        "name": "Cinema Cảm Giác Mạnh",
        "latitude": 10.79375,
        "longitude": 106.66272,
        "address": "Cinema Cảm Giác Mạnh, Đường Phạm Văn Hai, Phường 3, Quận Tân Bình, Hồ Chí Minh, Việt Nam",
        "country_code": "VNM",
        "country_name": "Việt Nam",
        "city": "Hồ Chí Minh",
        "district": "Quận Tân Bình",
        "ward": "Phường 3",
        "street": "Đường Phạm Văn Hai",
        "postal_code": "72120",
        "categories": [
            {
                "name": "Rạp chiếu phim"
            }
        ]
    },
    {
        "name": "Bhd",
        "latitude": 10.82864,
        "longitude": 106.67407,
        "address": "Bhd, Đường Quang Trung, Phường 10, Quận Gò Vấp, Hồ Chí Minh, Việt Nam",
        "country_code": "VNM",
        "country_name": "Việt Nam",
        "city": "Hồ Chí Minh",
        "district": "Quận Gò Vấp",
        "ward": "Phường 10",
        "street": "Đường Quang Trung",
        "postal_code": "71406",
        "categories": [
            {
                "name": "Rạp chiếu phim"
            }
        ]
    },
    {
        "name": "4d Cinema",
        "latitude": 10.79339,
        "longitude": 106.66301,
        "address": "4d Cinema, Đường Phạm Văn Hai, Phường 3, Quận Tân Bình, Hồ Chí Minh, Việt Nam",
        "country_code": "VNM",
        "country_name": "Việt Nam",
        "city": "Hồ Chí Minh",
        "district": "Quận Tân Bình",
        "ward": "Phường 3",
        "street": "Đường Phạm Văn Hai",
        "postal_code": "72120",
        "categories": [
            {
                "name": "Rạp chiếu phim"
            }
        ]
    },
    {
        "name": "Lotte Gò Vấp",
        "latitude": 10.83868,
        "longitude": 106.67274,
        "address": "Lotte Gò Vấp, 212 Đường Nguyễn Văn Lượng, Phường 10, Quận Gò Vấp, Hồ Chí Minh, Việt Nam",
        "country_code": "VNM",
        "country_name": "Việt Nam",
        "city": "Hồ Chí Minh",
        "district": "Quận Gò Vấp",
        "ward": "Phường 10",
        "street": "Đường Nguyễn Văn Lượng",
        "postal_code": "71406",
        "categories": [
            {
                "name": "Rạp chiếu phim"
            },
            {
                "name": "Công viên/Khu vui chơi"
            },
            {
                "name": "Giải trí"
            }
        ]
    },
    {
        "name": "Cinerrama Tại Gia",
        "latitude": 10.8182,
        "longitude": 106.67597,
        "address": "Cinerrama Tại Gia, Đường Nguyễn Văn Công, Phường 3, Quận Gò Vấp, Hồ Chí Minh, Việt Nam",
        "country_code": "VNM",
        "country_name": "Việt Nam",
        "city": "Hồ Chí Minh",
        "district": "Quận Gò Vấp",
        "ward": "Phường 3",
        "street": "Đường Nguyễn Văn Công",
        "postal_code": "71409",
        "categories": [
            {
                "name": "Rạp chiếu phim"
            }
        ]
    },
    {
        "name": "Thx Theater",
        "latitude": 10.81738,
        "longitude": 106.67629,
        "address": "Thx Theater, Hẻm 489 Đường Nguyễn Văn Công, Phường 3, Quận Gò Vấp, Hồ Chí Minh, Việt Nam",
        "country_code": "VNM",
        "country_name": "Việt Nam",
        "city": "Hồ Chí Minh",
        "district": "Quận Gò Vấp",
        "ward": "Phường 3",
        "street": "Hẻm 489 Đường Nguyễn Văn Công",
        "postal_code": "71409",
        "categories": [
            {
                "name": "Rạp chiếu phim"
            }
        ]
    },
    {
        "name": "Cineland HD 14F Đặng Văn Ngữ, Phú Nhuận",
        "latitude": 10.79669,
        "longitude": 106.66972,
        "address": "Cineland HD 14F Đặng Văn Ngữ, Phú Nhuận, 14F Đường Đặng Văn Ngữ, Phường 10, Quận Phú Nhuận, Hồ Chí Minh, Việt Nam",
        "country_code": "VNM",
        "country_name": "Việt Nam",
        "city": "Hồ Chí Minh",
        "district": "Quận Phú Nhuận",
        "ward": "Phường 10",
        "street": "Đường Đặng Văn Ngữ",
        "postal_code": "72218",
        "categories": [
            {
                "name": "Rạp chiếu phim"
            }
        ]
    },
    {
        "name": "Mister.Big Studio",
        "latitude": 10.7831,
        "longitude": 106.65835,
        "address": "Mister.Big Studio, 84 Đường Đất Thánh, Phường 6, Quận Tân Bình, Hồ Chí Minh, Việt Nam",
        "country_code": "VNM",
        "country_name": "Việt Nam",
        "city": "Hồ Chí Minh",
        "district": "Quận Tân Bình",
        "ward": "Phường 6",
        "street": "Đường Đất Thánh",
        "postal_code": "72117",
        "categories": [
            {
                "name": "Rạp chiếu phim"
            },
            {
                "name": "Dịch vụ hôn lễ & cô dâu"
            }
        ]
    },
    {
        "name": "Cty A.B TNHH Kỹ Thuật",
        "latitude": 10.79563,
        "longitude": 106.67004,
        "address": "Cty A.B TNHH Kỹ Thuật, Đường Hoàng Diệu, Phường 10, Quận Phú Nhuận, Hồ Chí Minh, Việt Nam",
        "country_code": "VNM",
        "country_name": "Việt Nam",
        "city": "Hồ Chí Minh",
        "district": "Quận Phú Nhuận",
        "ward": "Phường 10",
        "street": "Đường Hoàng Diệu",
        "postal_code": "72218",
        "categories": [
            {
                "name": "Rạp chiếu phim"
            }
        ]
    },
    {
        "name": "Cinema Tan Son Nhat",
        "latitude": 10.79516,
        "longitude": 106.67223,
        "address": "Cinema Tan Son Nhat, Hẻm 74 Đường Trương Quốc Dung, Phường 10, Quận Phú Nhuận, Hồ Chí Minh, Việt Nam",
        "country_code": "VNM",
        "country_name": "Việt Nam",
        "city": "Hồ Chí Minh",
        "district": "Quận Phú Nhuận",
        "ward": "Phường 10",
        "street": "Hẻm 74 Đường Trương Quốc Dung",
        "postal_code": "72218",
        "categories": [
            {
                "name": "Rạp chiếu phim"
            }
        ]
    },
    {
        "name": "Ba Moc",
        "latitude": 10.77329,
        "longitude": 106.64594,
        "address": "Ba Moc, Hẻm 445 Lạc Long Quân, Phường 5, Quận 11, Hồ Chí Minh, Việt Nam",
        "country_code": "VNM",
        "country_name": "Việt Nam",
        "city": "Hồ Chí Minh",
        "district": "Quận 11",
        "ward": "Phường 5",
        "street": "Hẻm 445 Lạc Long Quân",
        "postal_code": "72608",
        "categories": [
            {
                "name": "Rạp chiếu phim"
            }
        ]
    },
    {
        "name": "Xem Phim",
        "latitude": 10.77329,
        "longitude": 106.64594,
        "address": "Xem Phim, Hẻm 445 Lạc Long Quân, Phường 5, Quận 11, Hồ Chí Minh, Việt Nam",
        "country_code": "VNM",
        "country_name": "Việt Nam",
        "city": "Hồ Chí Minh",
        "district": "Quận 11",
        "ward": "Phường 5",
        "street": "Hẻm 445 Lạc Long Quân",
        "postal_code": "72608",
        "categories": [
            {
                "name": "Rạp chiếu phim"
            }
        ]
    },
    {
        "name": "Megastar Cine Ct Plaza",
        "latitude": 10.80757,
        "longitude": 106.67868,
        "address": "Megastar Cine Ct Plaza, Đường Nguyễn Kiệm, Phường 9, Quận Phú Nhuận, Hồ Chí Minh, Việt Nam",
        "country_code": "VNM",
        "country_name": "Việt Nam",
        "city": "Hồ Chí Minh",
        "district": "Quận Phú Nhuận",
        "ward": "Phường 9",
        "street": "Đường Nguyễn Kiệm",
        "postal_code": "72216",
        "categories": [
            {
                "name": "Rạp chiếu phim"
            }
        ]
    },
    {
        "name": "Sân Khấu Kịch Phú Nhuận",
        "latitude": 10.79544,
        "longitude": 106.67626,
        "address": "Sân Khấu Kịch Phú Nhuận, 70-72 Đường Nguyễn Văn Trỗi, Phường 11, Quận Phú Nhuận, Hồ Chí Minh, Việt Nam",
        "country_code": "VNM",
        "country_name": "Việt Nam",
        "city": "Hồ Chí Minh",
        "district": "Quận Phú Nhuận",
        "ward": "Phường 11",
        "street": "Đường Nguyễn Văn Trỗi",
        "postal_code": "72206",
        "categories": [
            {
                "name": "Trung tâm biểu diễn nghệ thuật"
            },
            {
                "name": "Giải trí về đêm"
            },
            {
                "name": "Giải trí hoặc âm nhạc sống"
            },
            {
                "name": "Rạp chiếu phim"
            },
            {
                "name": "Nhà hát, Âm nhạc & Văn hóa"
            }
        ]
    },
    {
        "name": "Trường Quay HK",
        "latitude": 10.81328,
        "longitude": 106.68325,
        "address": "Trường Quay HK, Đường Trương Đăng Quế, Phường 3, Quận Gò Vấp, Hồ Chí Minh, Việt Nam",
        "country_code": "VNM",
        "country_name": "Việt Nam",
        "city": "Hồ Chí Minh",
        "district": "Quận Gò Vấp",
        "ward": "Phường 3",
        "street": "Đường Trương Đăng Quế",
        "postal_code": "71409",
        "categories": [
            {
                "name": "Rạp chiếu phim"
            }
        ]
    },
    {
        "name": "Couple Cinema 122",
        "latitude": 10.81882,
        "longitude": 106.68508,
        "address": "Couple Cinema 122, 122 Đường Lê Lợi, Phường 4, Quận Gò Vấp, Hồ Chí Minh, Việt Nam",
        "country_code": "VNM",
        "country_name": "Việt Nam",
        "city": "Hồ Chí Minh",
        "district": "Quận Gò Vấp",
        "ward": "Phường 4",
        "street": "Đường Lê Lợi",
        "postal_code": "71408",
        "categories": [
            {
                "name": "Rạp chiếu phim"
            }
        ]
    },
    {
        "name": "Cặp Đôi Hạnh Phúc",
        "latitude": 10.79089,
        "longitude": 106.67516,
        "address": "Cặp Đôi Hạnh Phúc, Hẻm 279 Đường Huỳnh Văn Bánh, Phường 11, Quận Phú Nhuận, Hồ Chí Minh, Việt Nam",
        "country_code": "VNM",
        "country_name": "Việt Nam",
        "city": "Hồ Chí Minh",
        "district": "Quận Phú Nhuận",
        "ward": "Phường 11",
        "street": "Hẻm 279 Đường Huỳnh Văn Bánh",
        "postal_code": "72206",
        "categories": [
            {
                "name": "Rạp chiếu phim"
            }
        ]
    },
    {
        "name": "Z7movietheater",
        "latitude": 10.78321,
        "longitude": 106.67034,
        "address": "Z7movietheater, Hẻm 571 Đường Cách Mạng Tháng 8, Phường 15, Quận 10, Hồ Chí Minh, Việt Nam",
        "country_code": "VNM",
        "country_name": "Việt Nam",
        "city": "Hồ Chí Minh",
        "district": "Quận 10",
        "ward": "Phường 15",
        "street": "Hẻm 571 Đường Cách Mạng Tháng 8",
        "postal_code": "72512",
        "categories": [
            {
                "name": "Rạp chiếu phim"
            }
        ]
    },
    {
        "name": "Dịch Vụ Quay Film Tiệc",
        "latitude": 10.76852,
        "longitude": 106.6507,
        "address": "Dịch Vụ Quay Film Tiệc, Hẻm 49 Âu Cơ, Phường 14, Quận 11, Hồ Chí Minh, Việt Nam",
        "country_code": "VNM",
        "country_name": "Việt Nam",
        "city": "Hồ Chí Minh",
        "district": "Quận 11",
        "ward": "Phường 14",
        "street": "Hẻm 49 Âu Cơ",
        "postal_code": "72607",
        "categories": [
            {
                "name": "Rạp chiếu phim"
            }
        ]
    },
    {
        "name": "Rạp Chiếu Bóng Minh Châu",
        "latitude": 10.78896,
        "longitude": 106.67586,
        "address": "Rạp Chiếu Bóng Minh Châu, Hẻm 407 Lê Văn Sỹ, Phường 12, Quận 3, Hồ Chí Minh, Việt Nam",
        "country_code": "VNM",
        "country_name": "Việt Nam",
        "city": "Hồ Chí Minh",
        "district": "Quận 3",
        "ward": "Phường 12",
        "street": "Hẻm 407 Lê Văn Sỹ",
        "postal_code": "72410",
        "categories": [
            {
                "name": "Rạp chiếu phim"
            }
        ]
    },
    {
        "name": "Cgv",
        "latitude": 10.8273,
        "longitude": 106.68756,
        "address": "Cgv, 12 Đường Phan Văn Trị, Phường 7, Quận Gò Vấp, Hồ Chí Minh, Việt Nam",
        "country_code": "VNM",
        "country_name": "Việt Nam",
        "city": "Hồ Chí Minh",
        "district": "Quận Gò Vấp",
        "ward": "Phường 7",
        "street": "Đường Phan Văn Trị",
        "postal_code": "71407",
        "categories": [
            {
                "name": "Rạp chiếu phim"
            }
        ]
    },
    {
        "name": "Cenix Cinema",
        "latitude": 10.79577,
        "longitude": 106.68046,
        "address": "Cenix Cinema, Hẻm 50 Duy Tân, Phường 15, Quận Phú Nhuận, Hồ Chí Minh, Việt Nam",
        "country_code": "VNM",
        "country_name": "Việt Nam",
        "city": "Hồ Chí Minh",
        "district": "Quận Phú Nhuận",
        "ward": "Phường 15",
        "street": "Hẻm 50 Duy Tân",
        "postal_code": "72209",
        "categories": [
            {
                "name": "Rạp chiếu phim"
            }
        ]
    },
    {
        "name": "Cinebox Hoa Binh",
        "latitude": 10.85803,
        "longitude": 106.67914,
        "address": "Cinebox Hoa Binh, Đường Hà Huy Giáp, Phường Thạnh Lộc, Quận 12, Hồ Chí Minh, Việt Nam",
        "country_code": "VNM",
        "country_name": "Việt Nam",
        "city": "Hồ Chí Minh",
        "district": "Quận 12",
        "ward": "Phường Thạnh Lộc",
        "street": "Đường Hà Huy Giáp",
        "postal_code": "71515",
        "categories": [
            {
                "name": "Rạp chiếu phim"
            }
        ]
    },
    {
        "name": "Coffee Hd May",
        "latitude": 10.7714,
        "longitude": 106.66061,
        "address": "Coffee Hd May, Đường Thành Thái, Phường 14, Quận 10, Hồ Chí Minh, Việt Nam",
        "country_code": "VNM",
        "country_name": "Việt Nam",
        "city": "Hồ Chí Minh",
        "district": "Quận 10",
        "ward": "Phường 14",
        "street": "Đường Thành Thái",
        "postal_code": "72506",
        "categories": [
            {
                "name": "Quán cà phê"
            },
            {
                "name": "Rạp chiếu phim"
            }
        ]
    },
    {
        "name": "Hdmedia Cafe Xem Phim Tự Chọn",
        "latitude": 10.76302,
        "longitude": 106.64916,
        "address": "Hdmedia Cafe Xem Phim Tự Chọn, Đường Số 2, Phường 8, Quận 11, Hồ Chí Minh, Việt Nam",
        "country_code": "VNM",
        "country_name": "Việt Nam",
        "city": "Hồ Chí Minh",
        "district": "Quận 11",
        "ward": "Phường 8",
        "street": "Đường Số 2",
        "postal_code": "72614",
        "categories": [
            {
                "name": "Rạp chiếu phim"
            }
        ]
    },
    {
        "name": "Lottecinema @ Dimond Plaza",
        "latitude": 10.81019,
        "longitude": 106.69029,
        "address": "Lottecinema @ Dimond Plaza, Đường Nguyễn Văn Đậu, Phường 5, Quận Bình Thạnh, Hồ Chí Minh, Việt Nam",
        "country_code": "VNM",
        "country_name": "Việt Nam",
        "city": "Hồ Chí Minh",
        "district": "Quận Bình Thạnh",
        "ward": "Phường 5",
        "street": "Đường Nguyễn Văn Đậu",
        "postal_code": "72314",
        "categories": [
            {
                "name": "Rạp chiếu phim"
            }
        ]
    },
    {
        "name": "Cafe Hồng Phương",
        "latitude": 10.89145,
        "longitude": 106.62631,
        "address": "Cafe Hồng Phương, Đường Đông Thạnh 2, Xã Đông Thạnh, Huyện Hóc Môn, Hồ Chí Minh, Việt Nam",
        "country_code": "VNM",
        "country_name": "Việt Nam",
        "city": "Hồ Chí Minh",
        "district": "Huyện Hóc Môn",
        "ward": "Xã Đông Thạnh",
        "street": "Đường Đông Thạnh 2",
        "postal_code": "71708",
        "categories": [
            {
                "name": "Rạp chiếu phim"
            }
        ]
    },
    {
        "name": "Cinema",
        "latitude": 10.76261,
        "longitude": 106.65554,
        "address": "Cinema, Hẻm 38 Đường Lãnh Binh Thăng, Phường 13, Quận 11, Hồ Chí Minh, Việt Nam",
        "country_code": "VNM",
        "country_name": "Việt Nam",
        "city": "Hồ Chí Minh",
        "district": "Quận 11",
        "ward": "Phường 13",
        "street": "Hẻm 38 Đường Lãnh Binh Thăng",
        "postal_code": "72619",
        "categories": [
            {
                "name": "Rạp chiếu phim"
            }
        ]
    },
    {
        "name": "Cineland.Vn",
        "latitude": 10.79379,
        "longitude": 106.68786,
        "address": "Cineland.Vn, 53 Hẻm 34 Đường Trần Khánh Dư, Phường Tân Định, Quận 1, Hồ Chí Minh, Việt Nam",
        "country_code": "VNM",
        "country_name": "Việt Nam",
        "city": "Hồ Chí Minh",
        "district": "Quận 1",
        "ward": "Phường Tân Định",
        "street": "Hẻm 34 Đường Trần Khánh Dư",
        "postal_code": "71008",
        "categories": [
            {
                "name": "Rạp chiếu phim"
            }
        ]
    },
    {
        "name": "Yet Gol - Lotte Mart Lê Đại Hành",
        "latitude": 10.76292,
        "longitude": 106.65708,
        "address": "Yet Gol - Lotte Mart Lê Đại Hành, 968 Đường 3 Tháng 2, Phường 15, Quận 11, Hồ Chí Minh, Việt Nam",
        "country_code": "VNM",
        "country_name": "Việt Nam",
        "city": "Hồ Chí Minh",
        "district": "Quận 11",
        "ward": "Phường 15",
        "street": "Đường 3 Tháng 2",
        "postal_code": "72621",
        "categories": [
            {
                "name": "Nhà hàng"
            },
            {
                "name": "Cà Phê/Trà"
            },
            {
                "name": "Rạp chiếu phim"
            },
            {
                "name": "Công viên/Khu vui chơi"
            }
        ]
    },
    {
        "name": "CGV Cinemas - Lý Chính Thắng",
        "latitude": 10.78935,
        "longitude": 106.68566,
        "address": "CGV Cinemas - Lý Chính Thắng, 83 Đường Lý Chính Thắng, Phường Võ Thị Sáu, Quận 3, Hồ Chí Minh, Việt Nam",
        "country_code": "VNM",
        "country_name": "Việt Nam",
        "city": "Hồ Chí Minh",
        "district": "Quận 3",
        "ward": "Phường Võ Thị Sáu",
        "street": "Đường Lý Chính Thắng",
        "postal_code": "72415",
        "categories": [
            {
                "name": "Rạp chiếu phim"
            }
        ]
    },
    {
        "name": "CGV Sư Vạn Hạnh",
        "latitude": 10.7707,
        "longitude": 106.6697,
        "address": "CGV Sư Vạn Hạnh, Đường Sư Vạn Hạnh, Phường 12, Quận 10, Hồ Chí Minh, Việt Nam",
        "country_code": "VNM",
        "country_name": "Việt Nam",
        "city": "Hồ Chí Minh",
        "district": "Quận 10",
        "ward": "Phường 12",
        "street": "Đường Sư Vạn Hạnh",
        "postal_code": "72510",
        "categories": [
            {
                "name": "Rạp chiếu phim"
            },
            {
                "name": "Giải trí về đêm"
            }
        ]
    },
    {
        "name": "Tivi",
        "latitude": 10.80778,
        "longitude": 106.69381,
        "address": "Tivi, Đường Nơ Trang Long, Phường 7, Quận Bình Thạnh, Hồ Chí Minh, Việt Nam",
        "country_code": "VNM",
        "country_name": "Việt Nam",
        "city": "Hồ Chí Minh",
        "district": "Quận Bình Thạnh",
        "ward": "Phường 7",
        "street": "Đường Nơ Trang Long",
        "postal_code": "72316",
        "categories": [
            {
                "name": "Rạp chiếu phim"
            }
        ]
    },
    {
        "name": "Rạp Cinebox 212",
        "latitude": 10.78585,
        "longitude": 106.68459,
        "address": "Rạp Cinebox 212, Đường Lý Chính Thắng, Phường Võ Thị Sáu, Quận 3, Hồ Chí Minh, Việt Nam",
        "country_code": "VNM",
        "country_name": "Việt Nam",
        "city": "Hồ Chí Minh",
        "district": "Quận 3",
        "ward": "Phường Võ Thị Sáu",
        "street": "Đường Lý Chính Thắng",
        "postal_code": "72415",
        "categories": [
            {
                "name": "Rạp chiếu phim"
            }
        ]
    },
    {
        "name": "Speed Cinema",
        "latitude": 10.88589,
        "longitude": 106.58856,
        "address": "Speed Cinema, 38 Đường Lý Thường Kiệt, Thị Trấn Hóc Môn, Huyện Hóc Môn, Hồ Chí Minh, Việt Nam",
        "country_code": "VNM",
        "country_name": "Việt Nam",
        "city": "Hồ Chí Minh",
        "district": "Huyện Hóc Môn",
        "ward": "Thị Trấn Hóc Môn",
        "street": "Đường Lý Thường Kiệt",
        "postal_code": "71706",
        "categories": [
            {
                "name": "Rạp chiếu phim"
            }
        ]
    },
    {
        "name": "Phim Ttt",
        "latitude": 10.76979,
        "longitude": 106.66991,
        "address": "Phim Ttt, Hẻm 355 Sư Vạn Hạnh, Phường 12, Quận 10, Hồ Chí Minh, Việt Nam",
        "country_code": "VNM",
        "country_name": "Việt Nam",
        "city": "Hồ Chí Minh",
        "district": "Quận 10",
        "ward": "Phường 12",
        "street": "Hẻm 355 Sư Vạn Hạnh",
        "postal_code": "72510",
        "categories": [
            {
                "name": "Rạp chiếu phim"
            }
        ]
    },
    {
        "name": "Cineland Cafe 53/9 Trần Khánh Dư, Q1",
        "latitude": 10.79437,
        "longitude": 106.69058,
        "address": "Cineland Cafe 53/9 Trần Khánh Dư, Q1, 9 Hẻm 53 Đường Trần Khánh Dư, Phường Tân Định, Quận 1, Hồ Chí Minh, Việt Nam",
        "country_code": "VNM",
        "country_name": "Việt Nam",
        "city": "Hồ Chí Minh",
        "district": "Quận 1",
        "ward": "Phường Tân Định",
        "street": "Hẻm 53 Đường Trần Khánh Dư",
        "postal_code": "71008",
        "categories": [
            {
                "name": "Rạp chiếu phim"
            },
            {
                "name": "Quán ăn bình dân"
            },
            {
                "name": "Quán cà phê"
            }
        ]
    },
    {
        "name": "Rạp Chiếu Phim Quốc Thái",
        "latitude": 10.75528,
        "longitude": 106.64435,
        "address": "Rạp Chiếu Phim Quốc Thái, 1557 Đường 3 Tháng 2, Phường 2, Quận 11, Hồ Chí Minh, Việt Nam",
        "country_code": "VNM",
        "country_name": "Việt Nam",
        "city": "Hồ Chí Minh",
        "district": "Quận 11",
        "ward": "Phường 2",
        "street": "Đường 3 Tháng 2",
        "postal_code": "72611",
        "categories": [
            {
                "name": "Rạp chiếu phim"
            }
        ]
    },
    {
        "name": "Couple Cafe Cinema",
        "latitude": 10.7688,
        "longitude": 106.67085,
        "address": "Couple Cafe Cinema, Đường Sư Vạn Hạnh, Phường 10, Quận 10, Hồ Chí Minh, Việt Nam",
        "country_code": "VNM",
        "country_name": "Việt Nam",
        "city": "Hồ Chí Minh",
        "district": "Quận 10",
        "ward": "Phường 10",
        "street": "Đường Sư Vạn Hạnh",
        "postal_code": "72508",
        "categories": [
            {
                "name": "Rạp chiếu phim"
            }
        ]
    },
    {
        "name": "Hảng Phim Giải Phóng",
        "latitude": 10.78037,
        "longitude": 106.68254,
        "address": "Hảng Phim Giải Phóng, 212 Đường Lý Chính Thắng, Phường Võ Thị Sáu, Quận 3, Hồ Chí Minh, Việt Nam",
        "country_code": "VNM",
        "country_name": "Việt Nam",
        "city": "Hồ Chí Minh",
        "district": "Quận 3",
        "ward": "Phường Võ Thị Sáu",
        "street": "Đường Lý Chính Thắng",
        "postal_code": "72415",
        "categories": [
            {
                "name": "Rạp chiếu phim"
            },
            {
                "name": "Quà tặng, đồ cổ và tác phẩm nghệ thuật"
            },
            {
                "name": "Doanh nghiệp"
            }
        ]
    },
    {
        "name": "R&B Cinebox 212 Lý Chính Thắng",
        "latitude": 10.78037,
        "longitude": 106.68254,
        "address": "R&B Cinebox 212 Lý Chính Thắng, 212 Đường Lý Chính Thắng, Phường Võ Thị Sáu, Quận 3, Hồ Chí Minh, Việt Nam",
        "country_code": "VNM",
        "country_name": "Việt Nam",
        "city": "Hồ Chí Minh",
        "district": "Quận 3",
        "ward": "Phường Võ Thị Sáu",
        "street": "Đường Lý Chính Thắng",
        "postal_code": "72415",
        "categories": [
            {
                "name": "Rạp chiếu phim"
            },
            {
                "name": "Cà Phê/Trà"
            },
            {
                "name": "Quán cà phê"
            }
        ]
    },
    {
        "name": "Thang Long Cinema",
        "latitude": 10.78666,
        "longitude": 106.68714,
        "address": "Thang Long Cinema, Đường Nam Kỳ Khởi Nghĩa, Phường Võ Thị Sáu, Quận 3, Hồ Chí Minh, Việt Nam",
        "country_code": "VNM",
        "country_name": "Việt Nam",
        "city": "Hồ Chí Minh",
        "district": "Quận 3",
        "ward": "Phường Võ Thị Sáu",
        "street": "Đường Nam Kỳ Khởi Nghĩa",
        "postal_code": "72415",
        "categories": [
            {
                "name": "Rạp chiếu phim"
            }
        ]
    },
    {
        "name": "Rạp Phim Giải Phóng",
        "latitude": 10.77969,
        "longitude": 106.68223,
        "address": "Rạp Phim Giải Phóng, Đường Lý Chính Thắng, Phường Võ Thị Sáu, Quận 3, Hồ Chí Minh, Việt Nam",
        "country_code": "VNM",
        "country_name": "Việt Nam",
        "city": "Hồ Chí Minh",
        "district": "Quận 3",
        "ward": "Phường Võ Thị Sáu",
        "street": "Đường Lý Chính Thắng",
        "postal_code": "72415",
        "categories": [
            {
                "name": "Rạp chiếu phim"
            }
        ]
    },
    {
        "name": "Rạng Đông",
        "latitude": 10.77206,
        "longitude": 106.67521,
        "address": "Rạng Đông, Hẻm 181 Đường 3/2, Phường 12, Quận 10, Hồ Chí Minh, Việt Nam",
        "country_code": "VNM",
        "country_name": "Việt Nam",
        "city": "Hồ Chí Minh",
        "district": "Quận 10",
        "ward": "Phường 12",
        "street": "Hẻm 181 Đường 3/2",
        "postal_code": "72510",
        "categories": [
            {
                "name": "Rạp chiếu phim"
            },
            {
                "name": "Quần áo nam"
            },
            {
                "name": "Hàng tiêu dùng"
            },
            {
                "name": "Xây dựng"
            },
            {
                "name": "Doanh nghiệp"
            },
            {
                "name": "Dịch vụ kinh doanh"
            }
        ]
    },
    {
        "name": "Rạp Hòa Bình",
        "latitude": 10.77771,
        "longitude": 106.68117,
        "address": "Rạp Hòa Bình, Đường 3 Tháng 2, Phường 12, Quận 10, Hồ Chí Minh, Việt Nam",
        "country_code": "VNM",
        "country_name": "Việt Nam",
        "city": "Hồ Chí Minh",
        "district": "Quận 10",
        "ward": "Phường 12",
        "street": "Đường 3 Tháng 2",
        "postal_code": "72510",
        "categories": [
            {
                "name": "Rạp chiếu phim"
            }
        ]
    },
    {
        "name": "Rạp BHD Star Cinema",
        "latitude": 10.77665,
        "longitude": 106.68059,
        "address": "Rạp BHD Star Cinema, Đường 3 Tháng 2, Phường 12, Quận 10, Hồ Chí Minh, Việt Nam",
        "country_code": "VNM",
        "country_name": "Việt Nam",
        "city": "Hồ Chí Minh",
        "district": "Quận 10",
        "ward": "Phường 12",
        "street": "Đường 3 Tháng 2",
        "postal_code": "72510",
        "categories": [
            {
                "name": "Rạp chiếu phim"
            }
        ]
    },
    {
        "name": "5d World Rider",
        "latitude": 10.77448,
        "longitude": 106.67859,
        "address": "5d World Rider, Đường 3 Tháng 2, Phường 12, Quận 10, Hồ Chí Minh, Việt Nam",
        "country_code": "VNM",
        "country_name": "Việt Nam",
        "city": "Hồ Chí Minh",
        "district": "Quận 10",
        "ward": "Phường 12",
        "street": "Đường 3 Tháng 2",
        "postal_code": "72510",
        "categories": [
            {
                "name": "Rạp chiếu phim"
            }
        ]
    },
    {
        "name": "BHD Cinema",
        "latitude": 10.77602,
        "longitude": 106.68025,
        "address": "BHD Cinema, Đường 3 Tháng 2, Phường 12, Quận 10, Hồ Chí Minh, Việt Nam",
        "country_code": "VNM",
        "country_name": "Việt Nam",
        "city": "Hồ Chí Minh",
        "district": "Quận 10",
        "ward": "Phường 12",
        "street": "Đường 3 Tháng 2",
        "postal_code": "72510",
        "categories": [
            {
                "name": "Rạp chiếu phim"
            }
        ]
    },
    {
        "name": "CGV Imc Trần Quang Khải",
        "latitude": 10.79252,
        "longitude": 106.69163,
        "address": "CGV Imc Trần Quang Khải, Đường Trần Khắc Chân, Phường Tân Định, Quận 1, Hồ Chí Minh, Việt Nam",
        "country_code": "VNM",
        "country_name": "Việt Nam",
        "city": "Hồ Chí Minh",
        "district": "Quận 1",
        "ward": "Phường Tân Định",
        "street": "Đường Trần Khắc Chân",
        "postal_code": "71008",
        "categories": [
            {
                "name": "Rạp chiếu phim"
            },
            {
                "name": "Đào tạo & Phát triển"
            }
        ]
    },
    {
        "name": "Giải Trí Một Tí",
        "latitude": 10.76391,
        "longitude": 106.66737,
        "address": "Giải Trí Một Tí, Đường Vĩnh Viễn, Phường 8, Quận 10, Hồ Chí Minh, Việt Nam",
        "country_code": "VNM",
        "country_name": "Việt Nam",
        "city": "Hồ Chí Minh",
        "district": "Quận 10",
        "ward": "Phường 8",
        "street": "Đường Vĩnh Viễn",
        "postal_code": "72513",
        "categories": [
            {
                "name": "Rạp chiếu phim"
            }
        ]
    },
    {
        "name": "Hang Phim Son An",
        "latitude": 10.79677,
        "longitude": 106.69511,
        "address": "Hang Phim Son An, Hẻm 87 Lê Văn Duyệt, Phường 3, Quận Bình Thạnh, Hồ Chí Minh, Việt Nam",
        "country_code": "VNM",
        "country_name": "Việt Nam",
        "city": "Hồ Chí Minh",
        "district": "Quận Bình Thạnh",
        "ward": "Phường 3",
        "street": "Hẻm 87 Lê Văn Duyệt",
        "postal_code": "72317",
        "categories": [
            {
                "name": "Rạp chiếu phim"
            }
        ]
    },
    {
        "name": "Galaxy Kinh Dương Vương",
        "latitude": 10.74957,
        "longitude": 106.62862,
        "address": "Galaxy Kinh Dương Vương, Đường Kinh Dương Vương, Phường 13, Quận 6, Hồ Chí Minh, Việt Nam",
        "country_code": "VNM",
        "country_name": "Việt Nam",
        "city": "Hồ Chí Minh",
        "district": "Quận 6",
        "ward": "Phường 13",
        "street": "Đường Kinh Dương Vương",
        "postal_code": "73118",
        "categories": [
            {
                "name": "Rạp chiếu phim"
            },
            {
                "name": "Nhà hàng"
            },
            {
                "name": "Giải trí về đêm"
            }
        ]
    },
    {
        "name": "Cinema Văn Hoa",
        "latitude": 10.79281,
        "longitude": 106.6946,
        "address": "Cinema Văn Hoa, 62 Đường Trần Quang Khải, Phường Tân Định, Quận 1, Hồ Chí Minh, Việt Nam",
        "country_code": "VNM",
        "country_name": "Việt Nam",
        "city": "Hồ Chí Minh",
        "district": "Quận 1",
        "ward": "Phường Tân Định",
        "street": "Đường Trần Quang Khải",
        "postal_code": "71008",
        "categories": [
            {
                "name": "Rạp chiếu phim"
            }
        ]
    },
    {
        "name": "Starmovies Hd",
        "latitude": 10.75161,
        "longitude": 106.64636,
        "address": "Starmovies Hd, Đường Lê Quang Sung, Phường 6, Quận 6, Hồ Chí Minh, Việt Nam",
        "country_code": "VNM",
        "country_name": "Việt Nam",
        "city": "Hồ Chí Minh",
        "district": "Quận 6",
        "ward": "Phường 6",
        "street": "Đường Lê Quang Sung",
        "postal_code": "73111",
        "categories": [
            {
                "name": "Rạp chiếu phim"
            }
        ]
    },
    {
        "name": "My Cine Box",
        "latitude": 10.75161,
        "longitude": 106.64636,
        "address": "My Cine Box, Đường Lê Quang Sung, Phường 6, Quận 6, Hồ Chí Minh, Việt Nam",
        "country_code": "VNM",
        "country_name": "Việt Nam",
        "city": "Hồ Chí Minh",
        "district": "Quận 6",
        "ward": "Phường 6",
        "street": "Đường Lê Quang Sung",
        "postal_code": "73111",
        "categories": [
            {
                "name": "Rạp chiếu phim"
            }
        ]
    },
    {
        "name": "Phim 3d Feeling",
        "latitude": 10.75796,
        "longitude": 106.66226,
        "address": "Phim 3d Feeling, Đường Tăng Bạt Hổ, Phường 12, Quận 5, Hồ Chí Minh, Việt Nam",
        "country_code": "VNM",
        "country_name": "Việt Nam",
        "city": "Hồ Chí Minh",
        "district": "Quận 5",
        "ward": "Phường 12",
        "street": "Đường Tăng Bạt Hổ",
        "postal_code": "72713",
        "categories": [
            {
                "name": "Rạp chiếu phim"
            },
            {
                "name": "Quán cà phê"
            }
        ]
    },
    {
        "name": "Rạp Vườn Lài",
        "latitude": 10.7654,
        "longitude": 106.67442,
        "address": "Rạp Vườn Lài, 22 Đường Vĩnh Viễn, Phường 2, Quận 10, Hồ Chí Minh, Việt Nam",
        "country_code": "VNM",
        "country_name": "Việt Nam",
        "city": "Hồ Chí Minh",
        "district": "Quận 10",
        "ward": "Phường 2",
        "street": "Đường Vĩnh Viễn",
        "postal_code": "72519",
        "categories": [
            {
                "name": "Trung tâm biểu diễn nghệ thuật"
            },
            {
                "name": "Giải trí về đêm"
            },
            {
                "name": "Rạp chiếu phim"
            }
        ]
    }
]
