[
    {
        "name": "Phim Trường Stylist",
        "latitude": 10.82495,
        "longitude": 106.62581,
        "address": "Phim Trường Stylist, Đường TTN 17, Phường Tân Thới Nhất, Quận 12, Hồ Chí Minh, Việt Nam",
        "country_code": "VNM",
        "country_name": "Việt Nam",
        "city": "Hồ Chí Minh",
        "district": "Quận 12",
        "ward": "Phường Tân Thới Nhất",
        "street": "Đường TTN 17",
        "postal_code": "71510",
        "categories": [
            {
                "name": "Giải trí về đêm"
            }
        ]
    },
    {
        "name": "Karaoke Gia Đình Đồi Sao",
        "latitude": 10.82671,
        "longitude": 106.62612,
        "address": "Karaoke Gia Đình Đồi Sao, 60 Đường Trường Chinh, Phường Tân Hưng Thuận, Quận 12, Hồ Chí Minh, Việt Nam",
        "country_code": "VNM",
        "country_name": "Việt Nam",
        "city": "Hồ Chí Minh",
        "district": "Quận 12",
        "ward": "Phường Tân Hưng Thuận",
        "street": "Đường Trường Chinh",
        "postal_code": "71509",
        "categories": [
            {
                "name": "Giải trí về đêm"
            },
            {
                "name": "Câu lạc bộ đêm"
            }
        ]
    },
    {
        "name": "Karaoke Hoàng Ngọc",
        "latitude": 10.82712,
        "longitude": 106.62548,
        "address": "Karaoke Hoàng Ngọc, 84 Đường Trường Chinh, Phường Tân Hưng Thuận, Quận 12, Hồ Chí Minh, Việt Nam",
        "country_code": "VNM",
        "country_name": "Việt Nam",
        "city": "Hồ Chí Minh",
        "district": "Quận 12",
        "ward": "Phường Tân Hưng Thuận",
        "street": "Đường Trường Chinh",
        "postal_code": "71509",
        "categories": [
            {
                "name": "Giải trí về đêm"
            },
            {
                "name": "Cà Phê/Trà"
            },
            {
                "name": "Quán cà phê"
            },
            {
                "name": "Quán karaoke"
            }
        ]
    },
    {
        "name": "Cây Sộp Cay Sop",
        "latitude": 10.82642,
        "longitude": 106.62657,
        "address": "Cây Sộp Cay Sop, 1 Hẻm 1 Đường Nguyễn Văn Quá, Phường Tân Hưng Thuận, Quận 12, Hồ Chí Minh, Việt Nam",
        "country_code": "VNM",
        "country_name": "Việt Nam",
        "city": "Hồ Chí Minh",
        "district": "Quận 12",
        "ward": "Phường Tân Hưng Thuận",
        "street": "Hẻm 1 Đường Nguyễn Văn Quá",
        "postal_code": "71509",
        "categories": [
            {
                "name": "Giải trí về đêm"
            },
            {
                "name": "Câu lạc bộ đêm"
            }
        ]
    },
    {
        "name": "Karaoke Thái Tử",
        "latitude": 10.8269,
        "longitude": 106.62603,
        "address": "Karaoke Thái Tử, 64 Đường Trường Chinh, Phường Tân Hưng Thuận, Quận 12, Hồ Chí Minh, Việt Nam",
        "country_code": "VNM",
        "country_name": "Việt Nam",
        "city": "Hồ Chí Minh",
        "district": "Quận 12",
        "ward": "Phường Tân Hưng Thuận",
        "street": "Đường Trường Chinh",
        "postal_code": "71509",
        "categories": [
            {
                "name": "Giải trí về đêm"
            },
            {
                "name": "Quán karaoke"
            },
            {
                "name": "Khu liên hợp hoặc sân vận động thể thao"
            }
        ]
    },
    {
        "name": "Bé Tập Nấu Ăn",
        "latitude": 10.82682,
        "longitude": 106.62659,
        "address": "Bé Tập Nấu Ăn, Đường Nguyễn Văn Quá, Phường Tân Hưng Thuận, Quận 12, Hồ Chí Minh, Việt Nam",
        "country_code": "VNM",
        "country_name": "Việt Nam",
        "city": "Hồ Chí Minh",
        "district": "Quận 12",
        "ward": "Phường Tân Hưng Thuận",
        "street": "Đường Nguyễn Văn Quá",
        "postal_code": "71509",
        "categories": [
            {
                "name": "Giải trí về đêm"
            }
        ]
    },
    {
        "name": "Karaoke Gia Đình",
        "latitude": 10.82699,
        "longitude": 106.62662,
        "address": "Karaoke Gia Đình, Đường Nguyễn Văn Quá, Phường Tân Hưng Thuận, Quận 12, Hồ Chí Minh, Việt Nam",
        "country_code": "VNM",
        "country_name": "Việt Nam",
        "city": "Hồ Chí Minh",
        "district": "Quận 12",
        "ward": "Phường Tân Hưng Thuận",
        "street": "Đường Nguyễn Văn Quá",
        "postal_code": "71509",
        "categories": [
            {
                "name": "Giải trí về đêm"
            },
            {
                "name": "Phòng trà"
            },
            {
                "name": "Quán karaoke"
            }
        ]
    },
    {
        "name": "Karaoke Hoàng Ngọc",
        "latitude": 10.82715,
        "longitude": 106.62652,
        "address": "Karaoke Hoàng Ngọc, Đường Nguyễn Văn Quá, Phường Tân Hưng Thuận, Quận 12, Hồ Chí Minh, Việt Nam",
        "country_code": "VNM",
        "country_name": "Việt Nam",
        "city": "Hồ Chí Minh",
        "district": "Quận 12",
        "ward": "Phường Tân Hưng Thuận",
        "street": "Đường Nguyễn Văn Quá",
        "postal_code": "71509",
        "categories": [
            {
                "name": "Quán karaoke"
            },
            {
                "name": "Giải trí về đêm"
            },
            {
                "name": "Điểm thu hút Khách du lịch"
            }
        ]
    },
    {
        "name": "Karaoke Khánh Xuân",
        "latitude": 10.82793,
        "longitude": 106.62585,
        "address": "Karaoke Khánh Xuân, Đường Song Hành Quốc Lộ 22, Phường Tân Hưng Thuận, Quận 12, Hồ Chí Minh, Việt Nam",
        "country_code": "VNM",
        "country_name": "Việt Nam",
        "city": "Hồ Chí Minh",
        "district": "Quận 12",
        "ward": "Phường Tân Hưng Thuận",
        "street": "Đường Song Hành Quốc Lộ 22",
        "postal_code": "71509",
        "categories": [
            {
                "name": "Giải trí về đêm"
            },
            {
                "name": "Quán karaoke"
            }
        ]
    },
    {
        "name": "Karaoke Gia Phát",
        "latitude": 10.82689,
        "longitude": 106.62047,
        "address": "Karaoke Gia Phát, Dương Thị Giang, Phường Tân Thới Nhất, Quận 12, Hồ Chí Minh, Việt Nam",
        "country_code": "VNM",
        "country_name": "Việt Nam",
        "city": "Hồ Chí Minh",
        "district": "Quận 12",
        "ward": "Phường Tân Thới Nhất",
        "street": "Dương Thị Giang",
        "postal_code": "71510",
        "categories": [
            {
                "name": "Giải trí về đêm"
            }
        ]
    },
    {
        "name": "Nhà Hàng Đại Phú",
        "latitude": 10.82867,
        "longitude": 106.62687,
        "address": "Nhà Hàng Đại Phú, Đường Nguyễn Văn Quá, Phường Tân Hưng Thuận, Quận 12, Hồ Chí Minh, Việt Nam",
        "country_code": "VNM",
        "country_name": "Việt Nam",
        "city": "Hồ Chí Minh",
        "district": "Quận 12",
        "ward": "Phường Tân Hưng Thuận",
        "street": "Đường Nguyễn Văn Quá",
        "postal_code": "71509",
        "categories": [
            {
                "name": "Giải trí về đêm"
            }
        ]
    },
    {
        "name": "X-Pose",
        "latitude": 10.8231,
        "longitude": 106.62967,
        "address": "X-Pose, Đường Trường Chinh, Phường 15, Quận Tân Bình, Hồ Chí Minh, Việt Nam",
        "country_code": "VNM",
        "country_name": "Việt Nam",
        "city": "Hồ Chí Minh",
        "district": "Quận Tân Bình",
        "ward": "Phường 15",
        "street": "Đường Trường Chinh",
        "postal_code": "72109",
        "categories": [
            {
                "name": "Giải trí về đêm"
            }
        ]
    },
    {
        "name": "Sachi Bridal",
        "latitude": 10.82397,
        "longitude": 106.62996,
        "address": "Sachi Bridal, 7A Đường Phan Huy Ích, Phường 15, Quận Tân Bình, Hồ Chí Minh, Việt Nam",
        "country_code": "VNM",
        "country_name": "Việt Nam",
        "city": "Hồ Chí Minh",
        "district": "Quận Tân Bình",
        "ward": "Phường 15",
        "street": "Đường Phan Huy Ích",
        "postal_code": "72109",
        "categories": [
            {
                "name": "Giải trí về đêm"
            }
        ]
    },
    {
        "name": "Shishi-Lounge Hcm",
        "latitude": 10.82293,
        "longitude": 106.62987,
        "address": "Shishi-Lounge Hcm, Đường Trường Chinh, Phường 15, Quận Tân Bình, Hồ Chí Minh, Việt Nam",
        "country_code": "VNM",
        "country_name": "Việt Nam",
        "city": "Hồ Chí Minh",
        "district": "Quận Tân Bình",
        "ward": "Phường 15",
        "street": "Đường Trường Chinh",
        "postal_code": "72109",
        "categories": [
            {
                "name": "Giải trí về đêm"
            }
        ]
    },
    {
        "name": "Câu Lạc Bộ Bida Tân Bình",
        "latitude": 10.8283,
        "longitude": 106.61983,
        "address": "Câu Lạc Bộ Bida Tân Bình, 95 Đường Phan Văn Hớn, Phường Tân Thới Nhất, Quận 12, Hồ Chí Minh, Việt Nam",
        "country_code": "VNM",
        "country_name": "Việt Nam",
        "city": "Hồ Chí Minh",
        "district": "Quận 12",
        "ward": "Phường Tân Thới Nhất",
        "street": "Đường Phan Văn Hớn",
        "postal_code": "71510",
        "categories": [
            {
                "name": "Cơ sở hoặc địa điểm thể thao"
            },
            {
                "name": "Giải trí về đêm"
            }
        ]
    },
    {
        "name": "Hc Media Network",
        "latitude": 10.82545,
        "longitude": 106.63066,
        "address": "Hc Media Network, 39 Đường Phan Huy Ích, Phường 15, Quận Tân Bình, Hồ Chí Minh, Việt Nam",
        "country_code": "VNM",
        "country_name": "Việt Nam",
        "city": "Hồ Chí Minh",
        "district": "Quận Tân Bình",
        "ward": "Phường 15",
        "street": "Đường Phan Huy Ích",
        "postal_code": "72109",
        "categories": [
            {
                "name": "Giải trí về đêm"
            }
        ]
    },
    {
        "name": "Quán Karaoke Khang Mạnh",
        "latitude": 10.82588,
        "longitude": 106.6309,
        "address": "Quán Karaoke Khang Mạnh, Đường Phan Huy Ích, Phường 15, Quận Tân Bình, Hồ Chí Minh, Việt Nam",
        "country_code": "VNM",
        "country_name": "Việt Nam",
        "city": "Hồ Chí Minh",
        "district": "Quận Tân Bình",
        "ward": "Phường 15",
        "street": "Đường Phan Huy Ích",
        "postal_code": "72109",
        "categories": [
            {
                "name": "Giải trí về đêm"
            }
        ]
    },
    {
        "name": "Tuấn Anh",
        "latitude": 10.83097,
        "longitude": 106.62311,
        "address": "Tuấn Anh, Đường Trường Chinh, Phường Tân Hưng Thuận, Quận 12, Hồ Chí Minh, Việt Nam",
        "country_code": "VNM",
        "country_name": "Việt Nam",
        "city": "Hồ Chí Minh",
        "district": "Quận 12",
        "ward": "Phường Tân Hưng Thuận",
        "street": "Đường Trường Chinh",
        "postal_code": "71509",
        "categories": [
            {
                "name": "Giải trí về đêm"
            }
        ]
    },
    {
        "name": "Quán Karaoke Khang Mạnh",
        "latitude": 10.82573,
        "longitude": 106.631,
        "address": "Quán Karaoke Khang Mạnh, 36B Đường Phan Huy Ích, Phường 15, Quận Tân Bình, Hồ Chí Minh, Việt Nam",
        "country_code": "VNM",
        "country_name": "Việt Nam",
        "city": "Hồ Chí Minh",
        "district": "Quận Tân Bình",
        "ward": "Phường 15",
        "street": "Đường Phan Huy Ích",
        "postal_code": "72109",
        "categories": [
            {
                "name": "Giải trí về đêm"
            },
            {
                "name": "Hàng tiêu dùng"
            }
        ]
    },
    {
        "name": "Quán Sáng Đêm",
        "latitude": 10.83163,
        "longitude": 106.62427,
        "address": "Quán Sáng Đêm, Đường Song Hành, Phường Tân Hưng Thuận, Quận 12, Hồ Chí Minh, Việt Nam",
        "country_code": "VNM",
        "country_name": "Việt Nam",
        "city": "Hồ Chí Minh",
        "district": "Quận 12",
        "ward": "Phường Tân Hưng Thuận",
        "street": "Đường Song Hành",
        "postal_code": "71509",
        "categories": [
            {
                "name": "Giải trí về đêm"
            }
        ]
    },
    {
        "name": "Cty Cdm Entertainment",
        "latitude": 10.82786,
        "longitude": 106.63168,
        "address": "Cty Cdm Entertainment, Đường Phan Huy Ích, Phường 15, Quận Tân Bình, Hồ Chí Minh, Việt Nam",
        "country_code": "VNM",
        "country_name": "Việt Nam",
        "city": "Hồ Chí Minh",
        "district": "Quận Tân Bình",
        "ward": "Phường 15",
        "street": "Đường Phan Huy Ích",
        "postal_code": "72109",
        "categories": [
            {
                "name": "Giải trí về đêm"
            }
        ]
    },
    {
        "name": "Sân Khấu Kịch Thế Giới Trẻ",
        "latitude": 10.82709,
        "longitude": 106.63205,
        "address": "Sân Khấu Kịch Thế Giới Trẻ, Hẻm 72/2 Phan Huy Ích, Phường 15, Quận Tân Bình, Hồ Chí Minh, Việt Nam",
        "country_code": "VNM",
        "country_name": "Việt Nam",
        "city": "Hồ Chí Minh",
        "district": "Quận Tân Bình",
        "ward": "Phường 15",
        "street": "Hẻm 72/2 Phan Huy Ích",
        "postal_code": "72109",
        "categories": [
            {
                "name": "Giải trí về đêm"
            }
        ]
    },
    {
        "name": "Karaoke Phố Xanh",
        "latitude": 10.83261,
        "longitude": 106.62631,
        "address": "Karaoke Phố Xanh, Đường Đông Hưng Thuận 45, Phường Tân Hưng Thuận, Quận 12, Hồ Chí Minh, Việt Nam",
        "country_code": "VNM",
        "country_name": "Việt Nam",
        "city": "Hồ Chí Minh",
        "district": "Quận 12",
        "ward": "Phường Tân Hưng Thuận",
        "street": "Đường Đông Hưng Thuận 45",
        "postal_code": "71509",
        "categories": [
            {
                "name": "Giải trí về đêm"
            }
        ]
    },
    {
        "name": "Câu Lạc Bộ Bida Nice",
        "latitude": 10.82845,
        "longitude": 106.63205,
        "address": "Câu Lạc Bộ Bida Nice, Đường Phan Huy Ích, Phường 15, Quận Tân Bình, Hồ Chí Minh, Việt Nam",
        "country_code": "VNM",
        "country_name": "Việt Nam",
        "city": "Hồ Chí Minh",
        "district": "Quận Tân Bình",
        "ward": "Phường 15",
        "street": "Đường Phan Huy Ích",
        "postal_code": "72109",
        "categories": [
            {
                "name": "Giải trí về đêm"
            }
        ]
    },
    {
        "name": "Karaoke Paradise",
        "latitude": 10.83334,
        "longitude": 106.62085,
        "address": "Karaoke Paradise, Đường Trường Chinh, Phường Tân Thới Nhất, Quận 12, Hồ Chí Minh, Việt Nam",
        "country_code": "VNM",
        "country_name": "Việt Nam",
        "city": "Hồ Chí Minh",
        "district": "Quận 12",
        "ward": "Phường Tân Thới Nhất",
        "street": "Đường Trường Chinh",
        "postal_code": "71510",
        "categories": [
            {
                "name": "Giải trí về đêm"
            }
        ]
    },
    {
        "name": "Khu Vui Chơi Giải Trí Ha Ha",
        "latitude": 10.82945,
        "longitude": 106.63275,
        "address": "Khu Vui Chơi Giải Trí Ha Ha, Đường Phan Huy Ích, Phường 15, Quận Tân Bình, Hồ Chí Minh, Việt Nam",
        "country_code": "VNM",
        "country_name": "Việt Nam",
        "city": "Hồ Chí Minh",
        "district": "Quận Tân Bình",
        "ward": "Phường 15",
        "street": "Đường Phan Huy Ích",
        "postal_code": "72109",
        "categories": [
            {
                "name": "Giải trí về đêm"
            }
        ]
    },
    {
        "name": "Karaoke Star - Trường Chinh",
        "latitude": 10.83343,
        "longitude": 106.62094,
        "address": "Karaoke Star - Trường Chinh, 201 Đường Trường Chinh, Phường Tân Thới Nhất, Quận 12, Hồ Chí Minh, Việt Nam",
        "country_code": "VNM",
        "country_name": "Việt Nam",
        "city": "Hồ Chí Minh",
        "district": "Quận 12",
        "ward": "Phường Tân Thới Nhất",
        "street": "Đường Trường Chinh",
        "postal_code": "71510",
        "categories": [
            {
                "name": "Giải trí về đêm"
            },
            {
                "name": "Quán karaoke"
            }
        ]
    },
    {
        "name": "Đồ Đá Banh Sỉ Và Lẻ - Nhật Sport",
        "latitude": 10.82926,
        "longitude": 106.61596,
        "address": "Đồ Đá Banh Sỉ Và Lẻ - Nhật Sport, Đường Phan Văn Hớn, Phường Tân Thới Nhất, Quận 12, Hồ Chí Minh, Việt Nam",
        "country_code": "VNM",
        "country_name": "Việt Nam",
        "city": "Hồ Chí Minh",
        "district": "Quận 12",
        "ward": "Phường Tân Thới Nhất",
        "street": "Đường Phan Văn Hớn",
        "postal_code": "71510",
        "categories": [
            {
                "name": "Quần áo & Phụ kiện"
            },
            {
                "name": "Giải trí về đêm"
            },
            {
                "name": "Hàng tiêu dùng"
            }
        ]
    },
    {
        "name": "Câu Lạc Bộ Bida Tân Bình",
        "latitude": 10.81501,
        "longitude": 106.62444,
        "address": "Câu Lạc Bộ Bida Tân Bình, Đường Tây Thạnh, Phường Tây Thạnh, Quận Tân Phú, Hồ Chí Minh, Việt Nam",
        "country_code": "VNM",
        "country_name": "Việt Nam",
        "city": "Hồ Chí Minh",
        "district": "Quận Tân Phú",
        "ward": "Phường Tây Thạnh",
        "street": "Đường Tây Thạnh",
        "postal_code": "72009",
        "categories": [
            {
                "name": "Giải trí về đêm"
            }
        ]
    },
    {
        "name": "Câu Lạc Bộ Bida",
        "latitude": 10.8146,
        "longitude": 106.62398,
        "address": "Câu Lạc Bộ Bida, 157 Đường Tây Thạnh, Phường Tây Thạnh, Quận Tân Phú, Hồ Chí Minh, Việt Nam",
        "country_code": "VNM",
        "country_name": "Việt Nam",
        "city": "Hồ Chí Minh",
        "district": "Quận Tân Phú",
        "ward": "Phường Tây Thạnh",
        "street": "Đường Tây Thạnh",
        "postal_code": "72009",
        "categories": [
            {
                "name": "Cơ sở hoặc địa điểm thể thao"
            },
            {
                "name": "Giải trí về đêm"
            }
        ]
    },
    {
        "name": "Showroom Âm Thanh Karaoke Bảo Ngọc",
        "latitude": 10.83466,
        "longitude": 106.62064,
        "address": "Showroom Âm Thanh Karaoke Bảo Ngọc, Đường Trường Chinh, Phường Tân Hưng Thuận, Quận 12, Hồ Chí Minh, Việt Nam",
        "country_code": "VNM",
        "country_name": "Việt Nam",
        "city": "Hồ Chí Minh",
        "district": "Quận 12",
        "ward": "Phường Tân Hưng Thuận",
        "street": "Đường Trường Chinh",
        "postal_code": "71509",
        "categories": [
            {
                "name": "Giải trí về đêm"
            }
        ]
    },
    {
        "name": "Karaoke Ngọc Huy",
        "latitude": 10.83516,
        "longitude": 106.62243,
        "address": "Karaoke Ngọc Huy, Đường Song Hành, Phường Tân Hưng Thuận, Quận 12, Hồ Chí Minh, Việt Nam",
        "country_code": "VNM",
        "country_name": "Việt Nam",
        "city": "Hồ Chí Minh",
        "district": "Quận 12",
        "ward": "Phường Tân Hưng Thuận",
        "street": "Đường Song Hành",
        "postal_code": "71509",
        "categories": [
            {
                "name": "Giải trí về đêm"
            },
            {
                "name": "Câu lạc bộ đêm"
            },
            {
                "name": "Quán karaoke"
            },
            {
                "name": "Giải trí hoặc âm nhạc sống"
            }
        ]
    },
    {
        "name": "Overnight Coffee Beer",
        "latitude": 10.81858,
        "longitude": 106.63377,
        "address": "Overnight Coffee Beer, Hẻm 2 Nguyễn Sĩ Sách, Phường 15, Quận Tân Bình, Hồ Chí Minh, Việt Nam",
        "country_code": "VNM",
        "country_name": "Việt Nam",
        "city": "Hồ Chí Minh",
        "district": "Quận Tân Bình",
        "ward": "Phường 15",
        "street": "Hẻm 2 Nguyễn Sĩ Sách",
        "postal_code": "72109",
        "categories": [
            {
                "name": "Giải trí về đêm"
            }
        ]
    },
    {
        "name": "Mẫu Xinh",
        "latitude": 10.81339,
        "longitude": 106.62549,
        "address": "Mẫu Xinh, Đường Lưu Chí Hiếu, Phường Tây Thạnh, Quận Tân Phú, Hồ Chí Minh, Việt Nam",
        "country_code": "VNM",
        "country_name": "Việt Nam",
        "city": "Hồ Chí Minh",
        "district": "Quận Tân Phú",
        "ward": "Phường Tây Thạnh",
        "street": "Đường Lưu Chí Hiếu",
        "postal_code": "72009",
        "categories": [
            {
                "name": "Giải trí về đêm"
            }
        ]
    },
    {
        "name": "Rossy Bar",
        "latitude": 10.835,
        "longitude": 106.62976,
        "address": "Rossy Bar, Hẻm 338 Nguyễn Văn Quá, Phường Đông Hưng Thuận, Quận 12, Hồ Chí Minh, Việt Nam",
        "country_code": "VNM",
        "country_name": "Việt Nam",
        "city": "Hồ Chí Minh",
        "district": "Quận 12",
        "ward": "Phường Đông Hưng Thuận",
        "street": "Hẻm 338 Nguyễn Văn Quá",
        "postal_code": "71508",
        "categories": [
            {
                "name": "Giải trí về đêm"
            }
        ]
    },
    {
        "name": "Vietdekor Video",
        "latitude": 10.82058,
        "longitude": 106.63597,
        "address": "Vietdekor Video, Hẻm 87 Đường Nguyễn Sỹ Sách, Phường 15, Quận Tân Bình, Hồ Chí Minh, Việt Nam",
        "country_code": "VNM",
        "country_name": "Việt Nam",
        "city": "Hồ Chí Minh",
        "district": "Quận Tân Bình",
        "ward": "Phường 15",
        "street": "Hẻm 87 Đường Nguyễn Sỹ Sách",
        "postal_code": "72109",
        "categories": [
            {
                "name": "Cửa hàng bán đồ gia dụng/Nội thất"
            },
            {
                "name": "Giải trí về đêm"
            }
        ]
    },
    {
        "name": "Nha Sach Fahasa Tan Binh",
        "latitude": 10.83063,
        "longitude": 106.63533,
        "address": "Nha Sach Fahasa Tan Binh, Hẻm 124 Phan Huy Ích, Phường 15, Quận Tân Bình, Hồ Chí Minh, Việt Nam",
        "country_code": "VNM",
        "country_name": "Việt Nam",
        "city": "Hồ Chí Minh",
        "district": "Quận Tân Bình",
        "ward": "Phường 15",
        "street": "Hẻm 124 Phan Huy Ích",
        "postal_code": "72109",
        "categories": [
            {
                "name": "Hiệu sách"
            },
            {
                "name": "Giải trí về đêm"
            }
        ]
    },
    {
        "name": "Nốt Nhạc Vui",
        "latitude": 10.83611,
        "longitude": 106.62002,
        "address": "Nốt Nhạc Vui, 480 Đường Trường Chinh, Phường Tân Hưng Thuận, Quận 12, Hồ Chí Minh, Việt Nam",
        "country_code": "VNM",
        "country_name": "Việt Nam",
        "city": "Hồ Chí Minh",
        "district": "Quận 12",
        "ward": "Phường Tân Hưng Thuận",
        "street": "Đường Trường Chinh",
        "postal_code": "71509",
        "categories": [
            {
                "name": "Giải trí về đêm"
            },
            {
                "name": "Câu lạc bộ đêm"
            },
            {
                "name": "Quán karaoke"
            }
        ]
    },
    {
        "name": "Ngọc Ánh Gaming",
        "latitude": 10.83259,
        "longitude": 106.63403,
        "address": "Ngọc Ánh Gaming, Đường Phan Huy Ích, Phường 14, Quận Gò Vấp, Hồ Chí Minh, Việt Nam",
        "country_code": "VNM",
        "country_name": "Việt Nam",
        "city": "Hồ Chí Minh",
        "district": "Quận Gò Vấp",
        "ward": "Phường 14",
        "street": "Đường Phan Huy Ích",
        "postal_code": "71418",
        "categories": [
            {
                "name": "Giải trí về đêm"
            },
            {
                "name": "Khu vực trò chơi điện tử"
            }
        ]
    },
    {
        "name": "Karaoke Quỳnh Anh",
        "latitude": 10.83615,
        "longitude": 106.6198,
        "address": "Karaoke Quỳnh Anh, Đường Trường Chinh, Phường Tân Hưng Thuận, Quận 12, Hồ Chí Minh, Việt Nam",
        "country_code": "VNM",
        "country_name": "Việt Nam",
        "city": "Hồ Chí Minh",
        "district": "Quận 12",
        "ward": "Phường Tân Hưng Thuận",
        "street": "Đường Trường Chinh",
        "postal_code": "71509",
        "categories": [
            {
                "name": "Giải trí về đêm"
            },
            {
                "name": "Quán karaoke"
            }
        ]
    },
    {
        "name": "Cna Group",
        "latitude": 10.82051,
        "longitude": 106.63644,
        "address": "Cna Group, Đường Nguyễn Sỹ Sách, Phường 15, Quận Tân Bình, Hồ Chí Minh, Việt Nam",
        "country_code": "VNM",
        "country_name": "Việt Nam",
        "city": "Hồ Chí Minh",
        "district": "Quận Tân Bình",
        "ward": "Phường 15",
        "street": "Đường Nguyễn Sỹ Sách",
        "postal_code": "72109",
        "categories": [
            {
                "name": "Giải trí về đêm"
            }
        ]
    },
    {
        "name": "Tranh Treo Tường Canvas - Vahaki",
        "latitude": 10.83075,
        "longitude": 106.61295,
        "address": "Tranh Treo Tường Canvas - Vahaki, 243 Đường Phan Văn Hớn, Phường Tân Thới Nhất, Quận 12, Hồ Chí Minh, Việt Nam",
        "country_code": "VNM",
        "country_name": "Việt Nam",
        "city": "Hồ Chí Minh",
        "district": "Quận 12",
        "ward": "Phường Tân Thới Nhất",
        "street": "Đường Phan Văn Hớn",
        "postal_code": "71510",
        "categories": [
            {
                "name": "Cửa hàng bán đồ gia dụng/Nội thất"
            },
            {
                "name": "Giải trí về đêm"
            },
            {
                "name": "Phụ kiện nội thất và gia đình"
            }
        ]
    },
    {
        "name": "Bia Tươi-Bia Đen CN Đức",
        "latitude": 10.83744,
        "longitude": 106.62748,
        "address": "Bia Tươi-Bia Đen CN Đức, Đường Đông Hưng Thuận 2, Phường Tân Hưng Thuận, Quận 12, Hồ Chí Minh, Việt Nam",
        "country_code": "VNM",
        "country_name": "Việt Nam",
        "city": "Hồ Chí Minh",
        "district": "Quận 12",
        "ward": "Phường Tân Hưng Thuận",
        "street": "Đường Đông Hưng Thuận 2",
        "postal_code": "71509",
        "categories": [
            {
                "name": "Giải trí về đêm"
            }
        ]
    },
    {
        "name": "Karaoke Sơn Thủy",
        "latitude": 10.83277,
        "longitude": 106.63504,
        "address": "Karaoke Sơn Thủy, Hẻm 160 Phan Huy Ích, Phường 12, Quận Gò Vấp, Hồ Chí Minh, Việt Nam",
        "country_code": "VNM",
        "country_name": "Việt Nam",
        "city": "Hồ Chí Minh",
        "district": "Quận Gò Vấp",
        "ward": "Phường 12",
        "street": "Hẻm 160 Phan Huy Ích",
        "postal_code": "71420",
        "categories": [
            {
                "name": "Giải trí về đêm"
            }
        ]
    },
    {
        "name": "Quán Nhậu Ngọc Bích 77",
        "latitude": 10.83755,
        "longitude": 106.62741,
        "address": "Quán Nhậu Ngọc Bích 77, Đường Đông Hưng Thuận 2, Phường Tân Hưng Thuận, Quận 12, Hồ Chí Minh, Việt Nam",
        "country_code": "VNM",
        "country_name": "Việt Nam",
        "city": "Hồ Chí Minh",
        "district": "Quận 12",
        "ward": "Phường Tân Hưng Thuận",
        "street": "Đường Đông Hưng Thuận 2",
        "postal_code": "71509",
        "categories": [
            {
                "name": "Giải trí về đêm"
            }
        ]
    },
    {
        "name": "Quán Bia Sệt Ty Na",
        "latitude": 10.83753,
        "longitude": 106.62141,
        "address": "Quán Bia Sệt Ty Na, Đường Song Hành, Phường Tân Hưng Thuận, Quận 12, Hồ Chí Minh, Việt Nam",
        "country_code": "VNM",
        "country_name": "Việt Nam",
        "city": "Hồ Chí Minh",
        "district": "Quận 12",
        "ward": "Phường Tân Hưng Thuận",
        "street": "Đường Song Hành",
        "postal_code": "71509",
        "categories": [
            {
                "name": "Giải trí về đêm"
            }
        ]
    },
    {
        "name": "Karaoke Mỹ Hương",
        "latitude": 10.83744,
        "longitude": 106.6294,
        "address": "Karaoke Mỹ Hương, Đường Nguyễn Văn Quá, Phường Đông Hưng Thuận, Quận 12, Hồ Chí Minh, Việt Nam",
        "country_code": "VNM",
        "country_name": "Việt Nam",
        "city": "Hồ Chí Minh",
        "district": "Quận 12",
        "ward": "Phường Đông Hưng Thuận",
        "street": "Đường Nguyễn Văn Quá",
        "postal_code": "71508",
        "categories": [
            {
                "name": "Giải trí về đêm"
            }
        ]
    },
    {
        "name": "Karaoke Dạ Khúc",
        "latitude": 10.83219,
        "longitude": 106.6363,
        "address": "Karaoke Dạ Khúc, Hẻm 160 Phan Huy Ích, Phường 12, Quận Gò Vấp, Hồ Chí Minh, Việt Nam",
        "country_code": "VNM",
        "country_name": "Việt Nam",
        "city": "Hồ Chí Minh",
        "district": "Quận Gò Vấp",
        "ward": "Phường 12",
        "street": "Hẻm 160 Phan Huy Ích",
        "postal_code": "71420",
        "categories": [
            {
                "name": "Giải trí về đêm"
            },
            {
                "name": "Nhà hàng"
            },
            {
                "name": "Quán karaoke"
            }
        ]
    },
    {
        "name": "Joy Tv",
        "latitude": 10.83425,
        "longitude": 106.63473,
        "address": "Joy Tv, 45 Đường Phan Huy Ích, Phường 14, Quận Gò Vấp, Hồ Chí Minh, Việt Nam",
        "country_code": "VNM",
        "country_name": "Việt Nam",
        "city": "Hồ Chí Minh",
        "district": "Quận Gò Vấp",
        "ward": "Phường 14",
        "street": "Đường Phan Huy Ích",
        "postal_code": "71418",
        "categories": [
            {
                "name": "Giải trí về đêm"
            }
        ]
    },
    {
        "name": "Đại Thành Công",
        "latitude": 10.81116,
        "longitude": 106.62091,
        "address": "Đại Thành Công, 293 Đường Tây Thạnh, Phường Tây Thạnh, Quận Tân Phú, Hồ Chí Minh, Việt Nam",
        "country_code": "VNM",
        "country_name": "Việt Nam",
        "city": "Hồ Chí Minh",
        "district": "Quận Tân Phú",
        "ward": "Phường Tây Thạnh",
        "street": "Đường Tây Thạnh",
        "postal_code": "72009",
        "categories": [
            {
                "name": "Giải trí về đêm"
            }
        ]
    },
    {
        "name": "Karaoke Gia Đình",
        "latitude": 10.83268,
        "longitude": 106.61274,
        "address": "Karaoke Gia Đình, Đường Tân Thới Nhất 8, Phường Tân Thới Nhất, Quận 12, Hồ Chí Minh, Việt Nam",
        "country_code": "VNM",
        "country_name": "Việt Nam",
        "city": "Hồ Chí Minh",
        "district": "Quận 12",
        "ward": "Phường Tân Thới Nhất",
        "street": "Đường Tân Thới Nhất 8",
        "postal_code": "71510",
        "categories": [
            {
                "name": "Giải trí về đêm"
            }
        ]
    },
    {
        "name": "Karaoke Vĩnh Hưng",
        "latitude": 10.83751,
        "longitude": 106.61833,
        "address": "Karaoke Vĩnh Hưng, 103/3 Đường Trường Chinh, Phường Tân Thới Nhất, Quận 12, Hồ Chí Minh, Việt Nam",
        "country_code": "VNM",
        "country_name": "Việt Nam",
        "city": "Hồ Chí Minh",
        "district": "Quận 12",
        "ward": "Phường Tân Thới Nhất",
        "street": "Đường Trường Chinh",
        "postal_code": "71510",
        "categories": [
            {
                "name": "Giải trí về đêm"
            },
            {
                "name": "Quán karaoke"
            },
            {
                "name": "Nhà hát, Âm nhạc & Văn hóa"
            }
        ]
    },
    {
        "name": "Karaoke Bảo Hà Cyber",
        "latitude": 10.83804,
        "longitude": 106.62946,
        "address": "Karaoke Bảo Hà Cyber, 391 Hẻm 391 Nguyễn Văn Quá, Phường Đông Hưng Thuận, Quận 12, Hồ Chí Minh, Việt Nam",
        "country_code": "VNM",
        "country_name": "Việt Nam",
        "city": "Hồ Chí Minh",
        "district": "Quận 12",
        "ward": "Phường Đông Hưng Thuận",
        "street": "Hẻm 391 Nguyễn Văn Quá",
        "postal_code": "71508",
        "categories": [
            {
                "name": "Giải trí về đêm"
            },
            {
                "name": "Quán karaoke"
            }
        ]
    },
    {
        "name": "Câu Lạc Bộ Bida 54",
        "latitude": 10.82042,
        "longitude": 106.63856,
        "address": "Câu Lạc Bộ Bida 54, Đường Phạm Văn Bạch, Phường 15, Quận Tân Bình, Hồ Chí Minh, Việt Nam",
        "country_code": "VNM",
        "country_name": "Việt Nam",
        "city": "Hồ Chí Minh",
        "district": "Quận Tân Bình",
        "ward": "Phường 15",
        "street": "Đường Phạm Văn Bạch",
        "postal_code": "72109",
        "categories": [
            {
                "name": "Cơ sở hoặc địa điểm thể thao"
            },
            {
                "name": "Giải trí về đêm"
            }
        ]
    },
    {
        "name": "Mustang Sg",
        "latitude": 10.81002,
        "longitude": 106.6243,
        "address": "Mustang Sg, Hẻm 47 Đường Nguyễn Hữu Tiến, Phường Tây Thạnh, Quận Tân Phú, Hồ Chí Minh, Việt Nam",
        "country_code": "VNM",
        "country_name": "Việt Nam",
        "city": "Hồ Chí Minh",
        "district": "Quận Tân Phú",
        "ward": "Phường Tây Thạnh",
        "street": "Hẻm 47 Đường Nguyễn Hữu Tiến",
        "postal_code": "72009",
        "categories": [
            {
                "name": "Giải trí về đêm"
            }
        ]
    },
    {
        "name": "Để Gió Cuốn Đi",
        "latitude": 10.83161,
        "longitude": 106.61125,
        "address": "Để Gió Cuốn Đi, 287 Đường Phan Văn Hớn, Phường Tân Thới Nhất, Quận 12, Hồ Chí Minh, Việt Nam",
        "country_code": "VNM",
        "country_name": "Việt Nam",
        "city": "Hồ Chí Minh",
        "district": "Quận 12",
        "ward": "Phường Tân Thới Nhất",
        "street": "Đường Phan Văn Hớn",
        "postal_code": "71510",
        "categories": [
            {
                "name": "Giải trí về đêm"
            },
            {
                "name": "Cơ quan và tổ chức"
            }
        ]
    },
    {
        "name": "Xưởng Âm Thanh Ánh Sáng - Sân Khấu",
        "latitude": 10.83814,
        "longitude": 106.63069,
        "address": "Xưởng Âm Thanh Ánh Sáng - Sân Khấu, Đường Nguyễn Văn Quá, Phường Đông Hưng Thuận, Quận 12, Hồ Chí Minh, Việt Nam",
        "country_code": "VNM",
        "country_name": "Việt Nam",
        "city": "Hồ Chí Minh",
        "district": "Quận 12",
        "ward": "Phường Đông Hưng Thuận",
        "street": "Đường Nguyễn Văn Quá",
        "postal_code": "71508",
        "categories": [
            {
                "name": "Giải trí về đêm"
            },
            {
                "name": "Vui chơi & Giải trí"
            }
        ]
    },
    {
        "name": "Câu Lạc Bộ Billiards Phúc Thịnh",
        "latitude": 10.83433,
        "longitude": 106.63593,
        "address": "Câu Lạc Bộ Billiards Phúc Thịnh, Hẻm 17 Nguyễn Tư Giản, Phường 12, Quận Gò Vấp, Hồ Chí Minh, Việt Nam",
        "country_code": "VNM",
        "country_name": "Việt Nam",
        "city": "Hồ Chí Minh",
        "district": "Quận Gò Vấp",
        "ward": "Phường 12",
        "street": "Hẻm 17 Nguyễn Tư Giản",
        "postal_code": "71420",
        "categories": [
            {
                "name": "Cơ sở hoặc địa điểm thể thao"
            },
            {
                "name": "Giải trí về đêm"
            }
        ]
    },
    {
        "name": "Hội Đam Mê Xe Cộ Nguyễn Hữu Tiến Hóc Môn",
        "latitude": 10.8097,
        "longitude": 106.62482,
        "address": "Hội Đam Mê Xe Cộ Nguyễn Hữu Tiến Hóc Môn, Hẻm 23/18 Nguyễn Hữu Tiến, Phường Tây Thạnh, Quận Tân Phú, Hồ Chí Minh, Việt Nam",
        "country_code": "VNM",
        "country_name": "Việt Nam",
        "city": "Hồ Chí Minh",
        "district": "Quận Tân Phú",
        "ward": "Phường Tây Thạnh",
        "street": "Hẻm 23/18 Nguyễn Hữu Tiến",
        "postal_code": "72009",
        "categories": [
            {
                "name": "Giải trí về đêm"
            }
        ]
    },
    {
        "name": "Karaoke Thảo Hào 2",
        "latitude": 10.8243,
        "longitude": 106.63979,
        "address": "Karaoke Thảo Hào 2, Đường Phạm Văn Bạch, Phường 15, Quận Tân Bình, Hồ Chí Minh, Việt Nam",
        "country_code": "VNM",
        "country_name": "Việt Nam",
        "city": "Hồ Chí Minh",
        "district": "Quận Tân Bình",
        "ward": "Phường 15",
        "street": "Đường Phạm Văn Bạch",
        "postal_code": "72109",
        "categories": [
            {
                "name": "Giải trí về đêm"
            }
        ]
    },
    {
        "name": "Tiger",
        "latitude": 10.83849,
        "longitude": 106.61817,
        "address": "Tiger, 602 Đường Trường Chinh, Phường Tân Hưng Thuận, Quận 12, Hồ Chí Minh, Việt Nam",
        "country_code": "VNM",
        "country_name": "Việt Nam",
        "city": "Hồ Chí Minh",
        "district": "Quận 12",
        "ward": "Phường Tân Hưng Thuận",
        "street": "Đường Trường Chinh",
        "postal_code": "71509",
        "categories": [
            {
                "name": "Giải trí về đêm"
            }
        ]
    },
    {
        "name": "Bia Sệt - Bia Lu",
        "latitude": 10.80995,
        "longitude": 106.61982,
        "address": "Bia Sệt - Bia Lu, Đường Tây Thạnh, Phường Tây Thạnh, Quận Tân Phú, Hồ Chí Minh, Việt Nam",
        "country_code": "VNM",
        "country_name": "Việt Nam",
        "city": "Hồ Chí Minh",
        "district": "Quận Tân Phú",
        "ward": "Phường Tây Thạnh",
        "street": "Đường Tây Thạnh",
        "postal_code": "72009",
        "categories": [
            {
                "name": "Giải trí về đêm"
            }
        ]
    },
    {
        "name": "Billiards 007",
        "latitude": 10.82657,
        "longitude": 106.64057,
        "address": "Billiards 007, Đường Phạm Văn Bạch, Phường 15, Quận Tân Bình, Hồ Chí Minh, Việt Nam",
        "country_code": "VNM",
        "country_name": "Việt Nam",
        "city": "Hồ Chí Minh",
        "district": "Quận Tân Bình",
        "ward": "Phường 15",
        "street": "Đường Phạm Văn Bạch",
        "postal_code": "72109",
        "categories": [
            {
                "name": "Giải trí về đêm"
            }
        ]
    },
    {
        "name": "Nhà Hàng Thu Âm Karaoke Mimi",
        "latitude": 10.82482,
        "longitude": 106.64102,
        "address": "Nhà Hàng Thu Âm Karaoke Mimi, 277 Đường Tân Sơn, Phường 15, Quận Tân Bình, Hồ Chí Minh, Việt Nam",
        "country_code": "VNM",
        "country_name": "Việt Nam",
        "city": "Hồ Chí Minh",
        "district": "Quận Tân Bình",
        "ward": "Phường 15",
        "street": "Đường Tân Sơn",
        "postal_code": "72109",
        "categories": [
            {
                "name": "Giải trí về đêm"
            },
            {
                "name": "Nhà hàng"
            },
            {
                "name": "Quán karaoke"
            }
        ]
    },
    {
        "name": "Nhà Đất",
        "latitude": 10.84059,
        "longitude": 106.62769,
        "address": "Nhà Đất, Đường Đông Hưng Thuận 2, Phường Tân Hưng Thuận, Quận 12, Hồ Chí Minh, Việt Nam",
        "country_code": "VNM",
        "country_name": "Việt Nam",
        "city": "Hồ Chí Minh",
        "district": "Quận 12",
        "ward": "Phường Tân Hưng Thuận",
        "street": "Đường Đông Hưng Thuận 2",
        "postal_code": "71509",
        "categories": [
            {
                "name": "Giải trí về đêm"
            }
        ]
    },
    {
        "name": "Shop Nhím",
        "latitude": 10.80772,
        "longitude": 106.62037,
        "address": "Shop Nhím, Đường Lê Trọng Tấn, Phường Tây Thạnh, Quận Tân Phú, Hồ Chí Minh, Việt Nam",
        "country_code": "VNM",
        "country_name": "Việt Nam",
        "city": "Hồ Chí Minh",
        "district": "Quận Tân Phú",
        "ward": "Phường Tây Thạnh",
        "street": "Đường Lê Trọng Tấn",
        "postal_code": "72009",
        "categories": [
            {
                "name": "Giải trí về đêm"
            }
        ]
    },
    {
        "name": "Sân Khấu Kịch Lê Hay",
        "latitude": 10.80721,
        "longitude": 106.6235,
        "address": "Sân Khấu Kịch Lê Hay, Đường Lê Trọng Tấn, Phường Tây Thạnh, Quận Tân Phú, Hồ Chí Minh, Việt Nam",
        "country_code": "VNM",
        "country_name": "Việt Nam",
        "city": "Hồ Chí Minh",
        "district": "Quận Tân Phú",
        "ward": "Phường Tây Thạnh",
        "street": "Đường Lê Trọng Tấn",
        "postal_code": "72009",
        "categories": [
            {
                "name": "Giải trí về đêm"
            }
        ]
    },
    {
        "name": "Tiniworld",
        "latitude": 10.80732,
        "longitude": 106.62152,
        "address": "Tiniworld, Đường Lê Trọng Tấn, Phường Tây Thạnh, Quận Tân Phú, Hồ Chí Minh, Việt Nam",
        "country_code": "VNM",
        "country_name": "Việt Nam",
        "city": "Hồ Chí Minh",
        "district": "Quận Tân Phú",
        "ward": "Phường Tây Thạnh",
        "street": "Đường Lê Trọng Tấn",
        "postal_code": "72009",
        "categories": [
            {
                "name": "Giải trí về đêm"
            },
            {
                "name": "Giải trí"
            }
        ]
    },
    {
        "name": "Câu Lạc Bộ Bida 566",
        "latitude": 10.84134,
        "longitude": 106.6304,
        "address": "Câu Lạc Bộ Bida 566, Đường Nguyễn Văn Quá, Phường Đông Hưng Thuận, Quận 12, Hồ Chí Minh, Việt Nam",
        "country_code": "VNM",
        "country_name": "Việt Nam",
        "city": "Hồ Chí Minh",
        "district": "Quận 12",
        "ward": "Phường Đông Hưng Thuận",
        "street": "Đường Nguyễn Văn Quá",
        "postal_code": "71508",
        "categories": [
            {
                "name": "Giải trí về đêm"
            }
        ]
    },
    {
        "name": "Karaoke Happy 89",
        "latitude": 10.82293,
        "longitude": 106.60636,
        "address": "Karaoke Happy 89, Hẻm 87 Đường M1, Phường Bình Hưng Hòa, Quận Bình Tân, Hồ Chí Minh, Việt Nam",
        "country_code": "VNM",
        "country_name": "Việt Nam",
        "city": "Hồ Chí Minh",
        "district": "Quận Bình Tân",
        "ward": "Phường Bình Hưng Hòa",
        "street": "Hẻm 87 Đường M1",
        "postal_code": "71913",
        "categories": [
            {
                "name": "Giải trí về đêm"
            }
        ]
    },
    {
        "name": "Karaoke Quỳnh Như",
        "latitude": 10.80729,
        "longitude": 106.62913,
        "address": "Karaoke Quỳnh Như, Đường Nguyễn Đỗ Cung, Phường Tây Thạnh, Quận Tân Phú, Hồ Chí Minh, Việt Nam",
        "country_code": "VNM",
        "country_name": "Việt Nam",
        "city": "Hồ Chí Minh",
        "district": "Quận Tân Phú",
        "ward": "Phường Tây Thạnh",
        "street": "Đường Nguyễn Đỗ Cung",
        "postal_code": "72009",
        "categories": [
            {
                "name": "Giải trí về đêm"
            }
        ]
    },
    {
        "name": "Hd Tattoo",
        "latitude": 10.83221,
        "longitude": 106.64111,
        "address": "Hd Tattoo, Hẻm 169/12 Nguyễn Tư Giản, Phường 12, Quận Gò Vấp, Hồ Chí Minh, Việt Nam",
        "country_code": "VNM",
        "country_name": "Việt Nam",
        "city": "Hồ Chí Minh",
        "district": "Quận Gò Vấp",
        "ward": "Phường 12",
        "street": "Hẻm 169/12 Nguyễn Tư Giản",
        "postal_code": "71420",
        "categories": [
            {
                "name": "Giải trí về đêm"
            },
            {
                "name": "Xỏ khuyên & Xăm cơ thể"
            }
        ]
    },
    {
        "name": "Khánh Giao",
        "latitude": 10.83349,
        "longitude": 106.6085,
        "address": "Khánh Giao, Đường Phan Văn Hớn, Phường Tân Thới Nhất, Quận 12, Hồ Chí Minh, Việt Nam",
        "country_code": "VNM",
        "country_name": "Việt Nam",
        "city": "Hồ Chí Minh",
        "district": "Quận 12",
        "ward": "Phường Tân Thới Nhất",
        "street": "Đường Phan Văn Hớn",
        "postal_code": "71510",
        "categories": [
            {
                "name": "Giải trí về đêm"
            }
        ]
    },
    {
        "name": "Huy Hoàng",
        "latitude": 10.80628,
        "longitude": 106.62558,
        "address": "Huy Hoàng, Hẻm 193/1 Lê Trọng Tấn, Phường Sơn Kỳ, Quận Tân Phú, Hồ Chí Minh, Việt Nam",
        "country_code": "VNM",
        "country_name": "Việt Nam",
        "city": "Hồ Chí Minh",
        "district": "Quận Tân Phú",
        "ward": "Phường Sơn Kỳ",
        "street": "Hẻm 193/1 Lê Trọng Tấn",
        "postal_code": "72010",
        "categories": [
            {
                "name": "Giải trí về đêm"
            }
        ]
    },
    {
        "name": "Bia Ly 368",
        "latitude": 10.84251,
        "longitude": 106.62981,
        "address": "Bia Ly 368, Đường ĐHT 10, Phường Đông Hưng Thuận, Quận 12, Hồ Chí Minh, Việt Nam",
        "country_code": "VNM",
        "country_name": "Việt Nam",
        "city": "Hồ Chí Minh",
        "district": "Quận 12",
        "ward": "Phường Đông Hưng Thuận",
        "street": "Đường ĐHT 10",
        "postal_code": "71508",
        "categories": [
            {
                "name": "Giải trí về đêm"
            }
        ]
    },
    {
        "name": "Quỳnh Trâm Karaoke",
        "latitude": 10.82357,
        "longitude": 106.60522,
        "address": "Quỳnh Trâm Karaoke, Đường Số 18, Phường Bình Hưng Hòa, Quận Bình Tân, Hồ Chí Minh, Việt Nam",
        "country_code": "VNM",
        "country_name": "Việt Nam",
        "city": "Hồ Chí Minh",
        "district": "Quận Bình Tân",
        "ward": "Phường Bình Hưng Hòa",
        "street": "Đường Số 18",
        "postal_code": "71913",
        "categories": [
            {
                "name": "Giải trí về đêm"
            }
        ]
    },
    {
        "name": "Câu Lạc Bộ Bida Nhật Tân",
        "latitude": 10.81104,
        "longitude": 106.61101,
        "address": "Câu Lạc Bộ Bida Nhật Tân, 487 Hẻm 638 Lê Trọng Tấn, Phường Tây Thạnh, Quận Tân Phú, Hồ Chí Minh, Việt Nam",
        "country_code": "VNM",
        "country_name": "Việt Nam",
        "city": "Hồ Chí Minh",
        "district": "Quận Tân Phú",
        "ward": "Phường Tây Thạnh",
        "street": "Hẻm 638 Lê Trọng Tấn",
        "postal_code": "72009",
        "categories": [
            {
                "name": "Cơ sở hoặc địa điểm thể thao"
            },
            {
                "name": "Giải trí về đêm"
            }
        ]
    },
    {
        "name": "Quán Nhậu 6868",
        "latitude": 10.84271,
        "longitude": 106.61813,
        "address": "Quán Nhậu 6868, Hẻm 11 Đường Song Hành Quốc Lộ 22, Phường Tân Hưng Thuận, Quận 12, Hồ Chí Minh, Việt Nam",
        "country_code": "VNM",
        "country_name": "Việt Nam",
        "city": "Hồ Chí Minh",
        "district": "Quận 12",
        "ward": "Phường Tân Hưng Thuận",
        "street": "Hẻm 11 Đường Song Hành Quốc Lộ 22",
        "postal_code": "71509",
        "categories": [
            {
                "name": "Giải trí về đêm"
            }
        ]
    },
    {
        "name": "Anh Em Coffe",
        "latitude": 10.83912,
        "longitude": 106.63722,
        "address": "Anh Em Coffe, Đường Phan Huy Ích, Phường 14, Quận Gò Vấp, Hồ Chí Minh, Việt Nam",
        "country_code": "VNM",
        "country_name": "Việt Nam",
        "city": "Hồ Chí Minh",
        "district": "Quận Gò Vấp",
        "ward": "Phường 14",
        "street": "Đường Phan Huy Ích",
        "postal_code": "71418",
        "categories": [
            {
                "name": "Giải trí về đêm"
            },
            {
                "name": "Quán cà phê"
            }
        ]
    },
    {
        "name": "Creartive House",
        "latitude": 10.80648,
        "longitude": 106.63129,
        "address": "Creartive House, 36 Đường Nguyễn Hữu Dật, Phường Tây Thạnh, Quận Tân Phú, Hồ Chí Minh, Việt Nam",
        "country_code": "VNM",
        "country_name": "Việt Nam",
        "city": "Hồ Chí Minh",
        "district": "Quận Tân Phú",
        "ward": "Phường Tây Thạnh",
        "street": "Đường Nguyễn Hữu Dật",
        "postal_code": "72009",
        "categories": [
            {
                "name": "Giải trí về đêm"
            }
        ]
    },
    {
        "name": "Karaoke Thu Hường",
        "latitude": 10.82378,
        "longitude": 106.60474,
        "address": "Karaoke Thu Hường, Hẻm 46 Đường Số 18, Phường Bình Hưng Hòa, Quận Bình Tân, Hồ Chí Minh, Việt Nam",
        "country_code": "VNM",
        "country_name": "Việt Nam",
        "city": "Hồ Chí Minh",
        "district": "Quận Bình Tân",
        "ward": "Phường Bình Hưng Hòa",
        "street": "Hẻm 46 Đường Số 18",
        "postal_code": "71913",
        "categories": [
            {
                "name": "Giải trí về đêm"
            }
        ]
    },
    {
        "name": "Karaoke Phương Thảo",
        "latitude": 10.82393,
        "longitude": 106.60457,
        "address": "Karaoke Phương Thảo, Đường Số 18, Phường Bình Hưng Hòa, Quận Bình Tân, Hồ Chí Minh, Việt Nam",
        "country_code": "VNM",
        "country_name": "Việt Nam",
        "city": "Hồ Chí Minh",
        "district": "Quận Bình Tân",
        "ward": "Phường Bình Hưng Hòa",
        "street": "Đường Số 18",
        "postal_code": "71913",
        "categories": [
            {
                "name": "Giải trí về đêm"
            }
        ]
    },
    {
        "name": "Karaoke Tango Tím",
        "latitude": 10.83549,
        "longitude": 106.60788,
        "address": "Karaoke Tango Tím, Quốc Lộ 1A, Phường Tân Thới Nhất, Quận 12, Hồ Chí Minh, Việt Nam",
        "country_code": "VNM",
        "country_name": "Việt Nam",
        "city": "Hồ Chí Minh",
        "district": "Quận 12",
        "ward": "Phường Tân Thới Nhất",
        "street": "Quốc Lộ 1A",
        "postal_code": "71510",
        "categories": [
            {
                "name": "Giải trí về đêm"
            }
        ]
    },
    {
        "name": "Xăm Hình Nghệ Thuật TP HCM",
        "latitude": 10.8054,
        "longitude": 106.62883,
        "address": "Xăm Hình Nghệ Thuật TP HCM, Hẻm 115 Đường Lê Trọng Tấn, Phường Sơn Kỳ, Quận Tân Phú, Hồ Chí Minh, Việt Nam",
        "country_code": "VNM",
        "country_name": "Việt Nam",
        "city": "Hồ Chí Minh",
        "district": "Quận Tân Phú",
        "ward": "Phường Sơn Kỳ",
        "street": "Hẻm 115 Đường Lê Trọng Tấn",
        "postal_code": "72010",
        "categories": [
            {
                "name": "Giải trí về đêm"
            }
        ]
    },
    {
        "name": "Karaoke Thùy Dương",
        "latitude": 10.81462,
        "longitude": 106.607,
        "address": "Karaoke Thùy Dương, Hẻm 638 Đường Lê Trọng Tấn, Phường Bình Hưng Hòa, Quận Bình Tân, Hồ Chí Minh, Việt Nam",
        "country_code": "VNM",
        "country_name": "Việt Nam",
        "city": "Hồ Chí Minh",
        "district": "Quận Bình Tân",
        "ward": "Phường Bình Hưng Hòa",
        "street": "Hẻm 638 Đường Lê Trọng Tấn",
        "postal_code": "71913",
        "categories": [
            {
                "name": "Giải trí về đêm"
            }
        ]
    },
    {
        "name": "Karaoke 5 Star",
        "latitude": 10.83535,
        "longitude": 106.60744,
        "address": "Karaoke 5 Star, Quốc Lộ 1, Xã Bà Điểm, Huyện Hóc Môn, Hồ Chí Minh, Việt Nam",
        "country_code": "VNM",
        "country_name": "Việt Nam",
        "city": "Hồ Chí Minh",
        "district": "Huyện Hóc Môn",
        "ward": "Xã Bà Điểm",
        "street": "Quốc Lộ 1",
        "postal_code": "71714",
        "categories": [
            {
                "name": "Giải trí về đêm"
            },
            {
                "name": "Quán karaoke"
            }
        ]
    },
    {
        "name": "Điểm Cung Cấp Dịch Vụ Trò Chơi Điện Tử 777",
        "latitude": 10.83189,
        "longitude": 106.64342,
        "address": "Điểm Cung Cấp Dịch Vụ Trò Chơi Điện Tử 777, Đường Phạm Văn Bạch, Phường 12, Quận Gò Vấp, Hồ Chí Minh, Việt Nam",
        "country_code": "VNM",
        "country_name": "Việt Nam",
        "city": "Hồ Chí Minh",
        "district": "Quận Gò Vấp",
        "ward": "Phường 12",
        "street": "Đường Phạm Văn Bạch",
        "postal_code": "71420",
        "categories": [
            {
                "name": "Giải trí về đêm"
            },
            {
                "name": "Khu vực trò chơi điện tử"
            }
        ]
    },
    {
        "name": "Phòng Trà-Khiêu Vũ Hoàng Vương",
        "latitude": 10.83358,
        "longitude": 106.60628,
        "address": "Phòng Trà-Khiêu Vũ Hoàng Vương, Quốc Lộ 1, Xã Bà Điểm, Huyện Hóc Môn, Hồ Chí Minh, Việt Nam",
        "country_code": "VNM",
        "country_name": "Việt Nam",
        "city": "Hồ Chí Minh",
        "district": "Huyện Hóc Môn",
        "ward": "Xã Bà Điểm",
        "street": "Quốc Lộ 1",
        "postal_code": "71714",
        "categories": [
            {
                "name": "Giải trí về đêm"
            }
        ]
    },
    {
        "name": "Karaoke Anh Phong",
        "latitude": 10.83469,
        "longitude": 106.60689,
        "address": "Karaoke Anh Phong, Đường Phan Văn Hớn, Xã Bà Điểm, Huyện Hóc Môn, Hồ Chí Minh, Việt Nam",
        "country_code": "VNM",
        "country_name": "Việt Nam",
        "city": "Hồ Chí Minh",
        "district": "Huyện Hóc Môn",
        "ward": "Xã Bà Điểm",
        "street": "Đường Phan Văn Hớn",
        "postal_code": "71714",
        "categories": [
            {
                "name": "Giải trí về đêm"
            }
        ]
    },
    {
        "name": "Câu Lạc Bộ Billiards Hòa Phát",
        "latitude": 10.84401,
        "longitude": 106.6316,
        "address": "Câu Lạc Bộ Billiards Hòa Phát, 682 Đường Nguyễn Văn Quá, Phường Đông Hưng Thuận, Quận 12, Hồ Chí Minh, Việt Nam",
        "country_code": "VNM",
        "country_name": "Việt Nam",
        "city": "Hồ Chí Minh",
        "district": "Quận 12",
        "ward": "Phường Đông Hưng Thuận",
        "street": "Đường Nguyễn Văn Quá",
        "postal_code": "71508",
        "categories": [
            {
                "name": "Giải trí về đêm"
            }
        ]
    },
    {
        "name": "Internet Tuấn",
        "latitude": 10.84406,
        "longitude": 106.63167,
        "address": "Internet Tuấn, Đường Nguyễn Văn Quá, Phường Đông Hưng Thuận, Quận 12, Hồ Chí Minh, Việt Nam",
        "country_code": "VNM",
        "country_name": "Việt Nam",
        "city": "Hồ Chí Minh",
        "district": "Quận 12",
        "ward": "Phường Đông Hưng Thuận",
        "street": "Đường Nguyễn Văn Quá",
        "postal_code": "71508",
        "categories": [
            {
                "name": "Giải trí về đêm"
            }
        ]
    },
    {
        "name": "Phòng Thu Âm Gia Đình-Karaoke Tuyết Nhi",
        "latitude": 10.80422,
        "longitude": 106.62801,
        "address": "Phòng Thu Âm Gia Đình-Karaoke Tuyết Nhi, 26 Đường Sơn Kỳ, Phường Sơn Kỳ, Quận Tân Phú, Hồ Chí Minh, Việt Nam",
        "country_code": "VNM",
        "country_name": "Việt Nam",
        "city": "Hồ Chí Minh",
        "district": "Quận Tân Phú",
        "ward": "Phường Sơn Kỳ",
        "street": "Đường Sơn Kỳ",
        "postal_code": "72010",
        "categories": [
            {
                "name": "Giải trí về đêm"
            }
        ]
    },
    {
        "name": "Karaoke Hồng Châm",
        "latitude": 10.81872,
        "longitude": 106.60415,
        "address": "Karaoke Hồng Châm, Đường Số 1, Phường Bình Hưng Hòa, Quận Bình Tân, Hồ Chí Minh, Việt Nam",
        "country_code": "VNM",
        "country_name": "Việt Nam",
        "city": "Hồ Chí Minh",
        "district": "Quận Bình Tân",
        "ward": "Phường Bình Hưng Hòa",
        "street": "Đường Số 1",
        "postal_code": "71913",
        "categories": [
            {
                "name": "Giải trí về đêm"
            }
        ]
    },
    {
        "name": "Karaoke Suối Mơ-666 Club",
        "latitude": 10.81416,
        "longitude": 106.60586,
        "address": "Karaoke Suối Mơ-666 Club, Đường Lê Trọng Tấn, Phường Bình Hưng Hòa, Quận Bình Tân, Hồ Chí Minh, Việt Nam",
        "country_code": "VNM",
        "country_name": "Việt Nam",
        "city": "Hồ Chí Minh",
        "district": "Quận Bình Tân",
        "ward": "Phường Bình Hưng Hòa",
        "street": "Đường Lê Trọng Tấn",
        "postal_code": "71913",
        "categories": [
            {
                "name": "Giải trí về đêm"
            }
        ]
    },
    {
        "name": "CGV Tân Phú",
        "latitude": 10.80616,
        "longitude": 106.63493,
        "address": "CGV Tân Phú, Đường Trường Chinh, Phường Tây Thạnh, Quận Tân Phú, Hồ Chí Minh, Việt Nam",
        "country_code": "VNM",
        "country_name": "Việt Nam",
        "city": "Hồ Chí Minh",
        "district": "Quận Tân Phú",
        "ward": "Phường Tây Thạnh",
        "street": "Đường Trường Chinh",
        "postal_code": "72009",
        "categories": [
            {
                "name": "Rạp chiếu phim"
            },
            {
                "name": "Giải trí về đêm"
            }
        ]
    },
    {
        "name": "Vape Việt",
        "latitude": 10.80371,
        "longitude": 106.62899,
        "address": "Vape Việt, Đường Số 27, Phường Sơn Kỳ, Quận Tân Phú, Hồ Chí Minh, Việt Nam",
        "country_code": "VNM",
        "country_name": "Việt Nam",
        "city": "Hồ Chí Minh",
        "district": "Quận Tân Phú",
        "ward": "Phường Sơn Kỳ",
        "street": "Đường Số 27",
        "postal_code": "72010",
        "categories": [
            {
                "name": "Hàng tiêu dùng"
            },
            {
                "name": "Giải trí về đêm"
            }
        ]
    },
    {
        "name": "Bowling-Video Games",
        "latitude": 10.80577,
        "longitude": 106.63489,
        "address": "Bowling-Video Games, Đường Hồ Đắc Di, Phường Tây Thạnh, Quận Tân Phú, Hồ Chí Minh, Việt Nam",
        "country_code": "VNM",
        "country_name": "Việt Nam",
        "city": "Hồ Chí Minh",
        "district": "Quận Tân Phú",
        "ward": "Phường Tây Thạnh",
        "street": "Đường Hồ Đắc Di",
        "postal_code": "72009",
        "categories": [
            {
                "name": "Giải trí về đêm"
            }
        ]
    },
    {
        "name": "Karaoke Ngọc Ẩn",
        "latitude": 10.81271,
        "longitude": 106.60631,
        "address": "Karaoke Ngọc Ẩn, Đường 16, Phường Bình Hưng Hòa, Quận Bình Tân, Hồ Chí Minh, Việt Nam",
        "country_code": "VNM",
        "country_name": "Việt Nam",
        "city": "Hồ Chí Minh",
        "district": "Quận Bình Tân",
        "ward": "Phường Bình Hưng Hòa",
        "street": "Đường 16",
        "postal_code": "71913",
        "categories": [
            {
                "name": "Giải trí về đêm"
            }
        ]
    }
]
