[
    {
        "name": "Cửa Hàng Tạp Hóa Tuấn Nga",
        "latitude": 10.82463,
        "longitude": 106.62427,
        "address": "Cửa Hàng Tạp Hóa Tuấn Nga, 10A Đường Tân Thới Nhất 17, Phường Tân Thới Nhất, Quận 12, Hồ Chí Minh, Việt Nam",
        "country_code": "VNM",
        "country_name": "Việt Nam",
        "city": "Hồ Chí Minh",
        "district": "Quận 12",
        "ward": "Phường Tân Thới Nhất",
        "street": "Đường Tân Thới Nhất 17",
        "postal_code": "71510",
        "categories": [
            {
                "name": "Cửa hàng tiện lợi"
            }
        ]
    },
    {
        "name": "Tạp Hóa Bảo An",
        "latitude": 10.82423,
        "longitude": 106.62357,
        "address": "Tạp Hóa Bảo An, Đường D2, Phường Tân Thới Nhất, Quận 12, Hồ Chí Minh, Việt Nam",
        "country_code": "VNM",
        "country_name": "Việt Nam",
        "city": "Hồ Chí Minh",
        "district": "Quận 12",
        "ward": "Phường Tân Thới Nhất",
        "street": "Đường D2",
        "postal_code": "71510",
        "categories": [
            {
                "name": "Cửa hàng tiện lợi"
            }
        ]
    },
    {
        "name": "Bán Kem Các Loại",
        "latitude": 10.82585,
        "longitude": 106.62371,
        "address": "Bán Kem Các Loại, Đường Phan Văn Hớn, Phường Tân Thới Nhất, Quận 12, Hồ Chí Minh, Việt Nam",
        "country_code": "VNM",
        "country_name": "Việt Nam",
        "city": "Hồ Chí Minh",
        "district": "Quận 12",
        "ward": "Phường Tân Thới Nhất",
        "street": "Đường Phan Văn Hớn",
        "postal_code": "71510",
        "categories": [
            {
                "name": "Cửa hàng tiện lợi"
            }
        ]
    },
    {
        "name": "Co. Op Food",
        "latitude": 10.82276,
        "longitude": 106.62491,
        "address": "Co. Op Food, Dương Thị Giang, Phường Tân Thới Nhất, Quận 12, Hồ Chí Minh, Việt Nam",
        "country_code": "VNM",
        "country_name": "Việt Nam",
        "city": "Hồ Chí Minh",
        "district": "Quận 12",
        "ward": "Phường Tân Thới Nhất",
        "street": "Dương Thị Giang",
        "postal_code": "71510",
        "categories": [
            {
                "name": "Cửa hàng tiện lợi"
            },
            {
                "name": "Siêu thị"
            }
        ]
    },
    {
        "name": "Đại Lý Bia-Nước Ngọt Quốc Hiền",
        "latitude": 10.82399,
        "longitude": 106.62199,
        "address": "Đại Lý Bia-Nước Ngọt Quốc Hiền, 127 Đường Tân Thới Nhất 17, Phường Tân Thới Nhất, Quận 12, Hồ Chí Minh, Việt Nam",
        "country_code": "VNM",
        "country_name": "Việt Nam",
        "city": "Hồ Chí Minh",
        "district": "Quận 12",
        "ward": "Phường Tân Thới Nhất",
        "street": "Đường Tân Thới Nhất 17",
        "postal_code": "71510",
        "categories": [
            {
                "name": "Cửa hàng tiện lợi"
            }
        ]
    },
    {
        "name": "Vinmart",
        "latitude": 10.82293,
        "longitude": 106.62225,
        "address": "Vinmart, Đường Tân Thới Nhất 21, Phường Tân Thới Nhất, Quận 12, Hồ Chí Minh, Việt Nam",
        "country_code": "VNM",
        "country_name": "Việt Nam",
        "city": "Hồ Chí Minh",
        "district": "Quận 12",
        "ward": "Phường Tân Thới Nhất",
        "street": "Đường Tân Thới Nhất 21",
        "postal_code": "71510",
        "categories": [
            {
                "name": "Cửa hàng tiện lợi"
            }
        ]
    },
    {
        "name": "Chú Hai",
        "latitude": 10.82213,
        "longitude": 106.62267,
        "address": "Chú Hai, Đường B, Phường Tân Thới Nhất, Quận 12, Hồ Chí Minh, Việt Nam",
        "country_code": "VNM",
        "country_name": "Việt Nam",
        "city": "Hồ Chí Minh",
        "district": "Quận 12",
        "ward": "Phường Tân Thới Nhất",
        "street": "Đường B",
        "postal_code": "71510",
        "categories": [
            {
                "name": "Cửa hàng tiện lợi"
            },
            {
                "name": "Đặc sản & Đồ uống"
            },
            {
                "name": "Cửa hàng chuyên dụng"
            },
            {
                "name": "Cắt tóc & Tạo mẫu"
            }
        ]
    },
    {
        "name": "Cafe Giai Phát",
        "latitude": 10.82773,
        "longitude": 106.62518,
        "address": "Cafe Giai Phát, Đường Trường Chinh, Phường Tân Hưng Thuận, Quận 12, Hồ Chí Minh, Việt Nam",
        "country_code": "VNM",
        "country_name": "Việt Nam",
        "city": "Hồ Chí Minh",
        "district": "Quận 12",
        "ward": "Phường Tân Hưng Thuận",
        "street": "Đường Trường Chinh",
        "postal_code": "71509",
        "categories": [
            {
                "name": "Cửa hàng tiện lợi"
            }
        ]
    },
    {
        "name": "Tạp Hóa Nguyệt Ánh",
        "latitude": 10.82771,
        "longitude": 106.62529,
        "address": "Tạp Hóa Nguyệt Ánh, Đường Trường Chinh, Phường Tân Hưng Thuận, Quận 12, Hồ Chí Minh, Việt Nam",
        "country_code": "VNM",
        "country_name": "Việt Nam",
        "city": "Hồ Chí Minh",
        "district": "Quận 12",
        "ward": "Phường Tân Hưng Thuận",
        "street": "Đường Trường Chinh",
        "postal_code": "71509",
        "categories": [
            {
                "name": "Cửa hàng tiện lợi"
            }
        ]
    },
    {
        "name": "Tạp Hóa Ngọc Hà",
        "latitude": 10.82306,
        "longitude": 106.62164,
        "address": "Tạp Hóa Ngọc Hà, Đường Tân Thới Nhất 17, Phường Tân Thới Nhất, Quận 12, Hồ Chí Minh, Việt Nam",
        "country_code": "VNM",
        "country_name": "Việt Nam",
        "city": "Hồ Chí Minh",
        "district": "Quận 12",
        "ward": "Phường Tân Thới Nhất",
        "street": "Đường Tân Thới Nhất 17",
        "postal_code": "71510",
        "categories": [
            {
                "name": "Cửa hàng tiện lợi"
            }
        ]
    },
    {
        "name": "Family Mart",
        "latitude": 10.82731,
        "longitude": 106.62629,
        "address": "Family Mart, Đường Song Hành Quốc Lộ 22, Phường Tân Hưng Thuận, Quận 12, Hồ Chí Minh, Việt Nam",
        "country_code": "VNM",
        "country_name": "Việt Nam",
        "city": "Hồ Chí Minh",
        "district": "Quận 12",
        "ward": "Phường Tân Hưng Thuận",
        "street": "Đường Song Hành Quốc Lộ 22",
        "postal_code": "71509",
        "categories": [
            {
                "name": "Cửa hàng tiện lợi"
            }
        ]
    },
    {
        "name": "Nhà Thuốc An Thái",
        "latitude": 10.8278,
        "longitude": 106.62506,
        "address": "Nhà Thuốc An Thái, 106 Đường Trường Chinh, Phường Tân Hưng Thuận, Quận 12, Hồ Chí Minh, Việt Nam",
        "country_code": "VNM",
        "country_name": "Việt Nam",
        "city": "Hồ Chí Minh",
        "district": "Quận 12",
        "ward": "Phường Tân Hưng Thuận",
        "street": "Đường Trường Chinh",
        "postal_code": "71509",
        "categories": [
            {
                "name": "Cửa hàng tiện lợi"
            },
            {
                "name": "Nhà thuốc"
            }
        ]
    },
    {
        "name": "Cửa Hàng Bách Hóa Kim Thảo 17",
        "latitude": 10.82789,
        "longitude": 106.62513,
        "address": "Cửa Hàng Bách Hóa Kim Thảo 17, Đường Trường Chinh, Phường Tân Hưng Thuận, Quận 12, Hồ Chí Minh, Việt Nam",
        "country_code": "VNM",
        "country_name": "Việt Nam",
        "city": "Hồ Chí Minh",
        "district": "Quận 12",
        "ward": "Phường Tân Hưng Thuận",
        "street": "Đường Trường Chinh",
        "postal_code": "71509",
        "categories": [
            {
                "name": "Cửa hàng tiện lợi"
            },
            {
                "name": "Cửa hàng bách hóa"
            }
        ]
    },
    {
        "name": "Cửa Hàng Bách Hóa Mỹ Linh",
        "latitude": 10.82756,
        "longitude": 106.62274,
        "address": "Cửa Hàng Bách Hóa Mỹ Linh, Đường Phan Văn Hớn, Phường Tân Thới Nhất, Quận 12, Hồ Chí Minh, Việt Nam",
        "country_code": "VNM",
        "country_name": "Việt Nam",
        "city": "Hồ Chí Minh",
        "district": "Quận 12",
        "ward": "Phường Tân Thới Nhất",
        "street": "Đường Phan Văn Hớn",
        "postal_code": "71510",
        "categories": [
            {
                "name": "Cửa hàng tiện lợi"
            }
        ]
    },
    {
        "name": "Familymart",
        "latitude": 10.8275,
        "longitude": 106.6264,
        "address": "Familymart, Đường Song Hành Quốc Lộ 22, Phường Tân Hưng Thuận, Quận 12, Hồ Chí Minh, Việt Nam",
        "country_code": "VNM",
        "country_name": "Việt Nam",
        "city": "Hồ Chí Minh",
        "district": "Quận 12",
        "ward": "Phường Tân Hưng Thuận",
        "street": "Đường Song Hành Quốc Lộ 22",
        "postal_code": "71509",
        "categories": [
            {
                "name": "Cửa hàng tiện lợi"
            }
        ]
    },
    {
        "name": "Tạp Hóa Bé Sam",
        "latitude": 10.82737,
        "longitude": 106.62675,
        "address": "Tạp Hóa Bé Sam, Đường Nguyễn Văn Quá, Phường Tân Hưng Thuận, Quận 12, Hồ Chí Minh, Việt Nam",
        "country_code": "VNM",
        "country_name": "Việt Nam",
        "city": "Hồ Chí Minh",
        "district": "Quận 12",
        "ward": "Phường Tân Hưng Thuận",
        "street": "Đường Nguyễn Văn Quá",
        "postal_code": "71509",
        "categories": [
            {
                "name": "Cửa hàng tiện lợi"
            }
        ]
    },
    {
        "name": "Tạp Hoá Đổi Nước Bình",
        "latitude": 10.82779,
        "longitude": 106.62282,
        "address": "Tạp Hoá Đổi Nước Bình, 50 Đường Phan Văn Hớn, Phường Tân Thới Nhất, Quận 12, Hồ Chí Minh, Việt Nam",
        "country_code": "VNM",
        "country_name": "Việt Nam",
        "city": "Hồ Chí Minh",
        "district": "Quận 12",
        "ward": "Phường Tân Thới Nhất",
        "street": "Đường Phan Văn Hớn",
        "postal_code": "71510",
        "categories": [
            {
                "name": "Cửa hàng tiện lợi"
            }
        ]
    },
    {
        "name": "Bảo Châu",
        "latitude": 10.82779,
        "longitude": 106.62282,
        "address": "Bảo Châu, Đường Phan Văn Hớn, Phường Tân Thới Nhất, Quận 12, Hồ Chí Minh, Việt Nam",
        "country_code": "VNM",
        "country_name": "Việt Nam",
        "city": "Hồ Chí Minh",
        "district": "Quận 12",
        "ward": "Phường Tân Thới Nhất",
        "street": "Đường Phan Văn Hớn",
        "postal_code": "71510",
        "categories": [
            {
                "name": "Cửa hàng tiện lợi"
            }
        ]
    },
    {
        "name": "Đại Lý Bia Nước Ngọt Quang Khiêm",
        "latitude": 10.82756,
        "longitude": 106.62667,
        "address": "Đại Lý Bia Nước Ngọt Quang Khiêm, Hẻm 42 Đường Nguyễn Văn Quá, Phường Tân Hưng Thuận, Quận 12, Hồ Chí Minh, Việt Nam",
        "country_code": "VNM",
        "country_name": "Việt Nam",
        "city": "Hồ Chí Minh",
        "district": "Quận 12",
        "ward": "Phường Tân Hưng Thuận",
        "street": "Hẻm 42 Đường Nguyễn Văn Quá",
        "postal_code": "71509",
        "categories": [
            {
                "name": "Cửa hàng tiện lợi"
            }
        ]
    },
    {
        "name": "Cửa Hàng Bách Hóa 60",
        "latitude": 10.82775,
        "longitude": 106.6221,
        "address": "Cửa Hàng Bách Hóa 60, Đường Phan Văn Hớn, Phường Tân Thới Nhất, Quận 12, Hồ Chí Minh, Việt Nam",
        "country_code": "VNM",
        "country_name": "Việt Nam",
        "city": "Hồ Chí Minh",
        "district": "Quận 12",
        "ward": "Phường Tân Thới Nhất",
        "street": "Đường Phan Văn Hớn",
        "postal_code": "71510",
        "categories": [
            {
                "name": "Cửa hàng tiện lợi"
            }
        ]
    },
    {
        "name": "Bia - Rượu - Nước Ngọt",
        "latitude": 10.82497,
        "longitude": 106.62046,
        "address": "Bia - Rượu - Nước Ngọt, Đường Dương Thị Giang, Phường Tân Thới Nhất, Quận 12, Hồ Chí Minh, Việt Nam",
        "country_code": "VNM",
        "country_name": "Việt Nam",
        "city": "Hồ Chí Minh",
        "district": "Quận 12",
        "ward": "Phường Tân Thới Nhất",
        "street": "Đường Dương Thị Giang",
        "postal_code": "71510",
        "categories": [
            {
                "name": "Cửa hàng tiện lợi"
            }
        ]
    },
    {
        "name": "Tạp Hóa Huyền Trân",
        "latitude": 10.82759,
        "longitude": 106.62174,
        "address": "Tạp Hóa Huyền Trân, Đường Phan Văn Hớn, Phường Tân Thới Nhất, Quận 12, Hồ Chí Minh, Việt Nam",
        "country_code": "VNM",
        "country_name": "Việt Nam",
        "city": "Hồ Chí Minh",
        "district": "Quận 12",
        "ward": "Phường Tân Thới Nhất",
        "street": "Đường Phan Văn Hớn",
        "postal_code": "71510",
        "categories": [
            {
                "name": "Cửa hàng tiện lợi"
            }
        ]
    },
    {
        "name": "Tạp Hóa Duy Thành",
        "latitude": 10.82759,
        "longitude": 106.62174,
        "address": "Tạp Hóa Duy Thành, Đường Phan Văn Hớn, Phường Tân Thới Nhất, Quận 12, Hồ Chí Minh, Việt Nam",
        "country_code": "VNM",
        "country_name": "Việt Nam",
        "city": "Hồ Chí Minh",
        "district": "Quận 12",
        "ward": "Phường Tân Thới Nhất",
        "street": "Đường Phan Văn Hớn",
        "postal_code": "71510",
        "categories": [
            {
                "name": "Cửa hàng tiện lợi"
            }
        ]
    },
    {
        "name": "Song Chinh Mart Thailand",
        "latitude": 10.82793,
        "longitude": 106.62211,
        "address": "Song Chinh Mart Thailand, Đường Phan Văn Hớn, Phường Tân Thới Nhất, Quận 12, Hồ Chí Minh, Việt Nam",
        "country_code": "VNM",
        "country_name": "Việt Nam",
        "city": "Hồ Chí Minh",
        "district": "Quận 12",
        "ward": "Phường Tân Thới Nhất",
        "street": "Đường Phan Văn Hớn",
        "postal_code": "71510",
        "categories": [
            {
                "name": "Cửa hàng tiện lợi"
            }
        ]
    },
    {
        "name": "Vinmart Plus",
        "latitude": 10.82854,
        "longitude": 106.62676,
        "address": "Vinmart Plus, Đường Nguyễn Văn Quá, Phường Tân Hưng Thuận, Quận 12, Hồ Chí Minh, Việt Nam",
        "country_code": "VNM",
        "country_name": "Việt Nam",
        "city": "Hồ Chí Minh",
        "district": "Quận 12",
        "ward": "Phường Tân Hưng Thuận",
        "street": "Đường Nguyễn Văn Quá",
        "postal_code": "71509",
        "categories": [
            {
                "name": "Cửa hàng tiện lợi"
            }
        ]
    },
    {
        "name": "WinMart+",
        "latitude": 10.82852,
        "longitude": 106.62686,
        "address": "WinMart+, Đường Nguyễn Văn Quá, Phường Tân Hưng Thuận, Quận 12, Hồ Chí Minh, Việt Nam",
        "country_code": "VNM",
        "country_name": "Việt Nam",
        "city": "Hồ Chí Minh",
        "district": "Quận 12",
        "ward": "Phường Tân Hưng Thuận",
        "street": "Đường Nguyễn Văn Quá",
        "postal_code": "71509",
        "categories": [
            {
                "name": "Cửa hàng tiện lợi"
            }
        ]
    },
    {
        "name": "Tạp Hóa 83",
        "latitude": 10.82364,
        "longitude": 106.61975,
        "address": "Tạp Hóa 83, Đường Tân Thới Nhất 17, Phường Tân Thới Nhất, Quận 12, Hồ Chí Minh, Việt Nam",
        "country_code": "VNM",
        "country_name": "Việt Nam",
        "city": "Hồ Chí Minh",
        "district": "Quận 12",
        "ward": "Phường Tân Thới Nhất",
        "street": "Đường Tân Thới Nhất 17",
        "postal_code": "71510",
        "categories": [
            {
                "name": "Cửa hàng tiện lợi"
            }
        ]
    },
    {
        "name": "Tạp Hóa Chí Thiện",
        "latitude": 10.82364,
        "longitude": 106.61975,
        "address": "Tạp Hóa Chí Thiện, Đường Tân Thới Nhất 17, Phường Tân Thới Nhất, Quận 12, Hồ Chí Minh, Việt Nam",
        "country_code": "VNM",
        "country_name": "Việt Nam",
        "city": "Hồ Chí Minh",
        "district": "Quận 12",
        "ward": "Phường Tân Thới Nhất",
        "street": "Đường Tân Thới Nhất 17",
        "postal_code": "71510",
        "categories": [
            {
                "name": "Cửa hàng tiện lợi"
            }
        ]
    },
    {
        "name": "Tạp Hóa 19/8",
        "latitude": 10.82937,
        "longitude": 106.62351,
        "address": "Tạp Hóa 19/8, Đường Trường Chinh, Phường Tân Thới Nhất, Quận 12, Hồ Chí Minh, Việt Nam",
        "country_code": "VNM",
        "country_name": "Việt Nam",
        "city": "Hồ Chí Minh",
        "district": "Quận 12",
        "ward": "Phường Tân Thới Nhất",
        "street": "Đường Trường Chinh",
        "postal_code": "71510",
        "categories": [
            {
                "name": "Cửa hàng tiện lợi"
            }
        ]
    },
    {
        "name": "WinMart+",
        "latitude": 10.82777,
        "longitude": 106.62831,
        "address": "WinMart+, Đường Nguyễn Văn Quá, Phường Đông Hưng Thuận, Quận 12, Hồ Chí Minh, Việt Nam",
        "country_code": "VNM",
        "country_name": "Việt Nam",
        "city": "Hồ Chí Minh",
        "district": "Quận 12",
        "ward": "Phường Đông Hưng Thuận",
        "street": "Đường Nguyễn Văn Quá",
        "postal_code": "71508",
        "categories": [
            {
                "name": "Cửa hàng tiện lợi"
            }
        ]
    },
    {
        "name": "Cửa Hàng Bách Hóa Thanh Tú",
        "latitude": 10.82918,
        "longitude": 106.62692,
        "address": "Cửa Hàng Bách Hóa Thanh Tú, Đường Nguyễn Văn Quá, Phường Tân Hưng Thuận, Quận 12, Hồ Chí Minh, Việt Nam",
        "country_code": "VNM",
        "country_name": "Việt Nam",
        "city": "Hồ Chí Minh",
        "district": "Quận 12",
        "ward": "Phường Tân Hưng Thuận",
        "street": "Đường Nguyễn Văn Quá",
        "postal_code": "71509",
        "categories": [
            {
                "name": "Cửa hàng tiện lợi"
            }
        ]
    },
    {
        "name": "Co.Op Smile",
        "latitude": 10.82819,
        "longitude": 106.62863,
        "address": "Co.Op Smile, Đường Nguyễn Văn Quá, Phường Đông Hưng Thuận, Quận 12, Hồ Chí Minh, Việt Nam",
        "country_code": "VNM",
        "country_name": "Việt Nam",
        "city": "Hồ Chí Minh",
        "district": "Quận 12",
        "ward": "Phường Đông Hưng Thuận",
        "street": "Đường Nguyễn Văn Quá",
        "postal_code": "71508",
        "categories": [
            {
                "name": "Cửa hàng tiện lợi"
            }
        ]
    },
    {
        "name": "Tạp Hóa Thịnh Phát",
        "latitude": 10.82355,
        "longitude": 106.62991,
        "address": "Tạp Hóa Thịnh Phát, 14/2 Đường Phan Huy Ích, Phường 15, Quận Tân Bình, Hồ Chí Minh, Việt Nam",
        "country_code": "VNM",
        "country_name": "Việt Nam",
        "city": "Hồ Chí Minh",
        "district": "Quận Tân Bình",
        "ward": "Phường 15",
        "street": "Đường Phan Huy Ích",
        "postal_code": "72109",
        "categories": [
            {
                "name": "Cửa hàng tiện lợi"
            },
            {
                "name": "Cửa hàng bách hóa"
            }
        ]
    },
    {
        "name": "Cửa Hàng Tạp Hóa Đức Xương",
        "latitude": 10.82355,
        "longitude": 106.62991,
        "address": "Cửa Hàng Tạp Hóa Đức Xương, Đường Phan Huy Ích, Phường 15, Quận Tân Bình, Hồ Chí Minh, Việt Nam",
        "country_code": "VNM",
        "country_name": "Việt Nam",
        "city": "Hồ Chí Minh",
        "district": "Quận Tân Bình",
        "ward": "Phường 15",
        "street": "Đường Phan Huy Ích",
        "postal_code": "72109",
        "categories": [
            {
                "name": "Cửa hàng tiện lợi"
            }
        ]
    },
    {
        "name": "Tạp Hóa Trâm Trí",
        "latitude": 10.83003,
        "longitude": 106.62373,
        "address": "Tạp Hóa Trâm Trí, Đường Trường Chinh, Phường Tân Hưng Thuận, Quận 12, Hồ Chí Minh, Việt Nam",
        "country_code": "VNM",
        "country_name": "Việt Nam",
        "city": "Hồ Chí Minh",
        "district": "Quận 12",
        "ward": "Phường Tân Hưng Thuận",
        "street": "Đường Trường Chinh",
        "postal_code": "71509",
        "categories": [
            {
                "name": "Cửa hàng tiện lợi"
            }
        ]
    },
    {
        "name": "Cửa Hàng Bách Hóa An Hưng",
        "latitude": 10.83005,
        "longitude": 106.62307,
        "address": "Cửa Hàng Bách Hóa An Hưng, Đường Trường Chinh, Phường Tân Thới Nhất, Quận 12, Hồ Chí Minh, Việt Nam",
        "country_code": "VNM",
        "country_name": "Việt Nam",
        "city": "Hồ Chí Minh",
        "district": "Quận 12",
        "ward": "Phường Tân Thới Nhất",
        "street": "Đường Trường Chinh",
        "postal_code": "71510",
        "categories": [
            {
                "name": "Cửa hàng tiện lợi"
            },
            {
                "name": "Cắt tóc & Tạo mẫu"
            }
        ]
    },
    {
        "name": "Cửa Hàng Bách Hóa Bảo Ngọc",
        "latitude": 10.82817,
        "longitude": 106.62007,
        "address": "Cửa Hàng Bách Hóa Bảo Ngọc, Đường Phan Văn Hớn, Phường Tân Thới Nhất, Quận 12, Hồ Chí Minh, Việt Nam",
        "country_code": "VNM",
        "country_name": "Việt Nam",
        "city": "Hồ Chí Minh",
        "district": "Quận 12",
        "ward": "Phường Tân Thới Nhất",
        "street": "Đường Phan Văn Hớn",
        "postal_code": "71510",
        "categories": [
            {
                "name": "Cửa hàng tiện lợi"
            }
        ]
    },
    {
        "name": "Cửa Hàng Bách Hóa Tổng Hợp Tấn Phúc",
        "latitude": 10.82433,
        "longitude": 106.63024,
        "address": "Cửa Hàng Bách Hóa Tổng Hợp Tấn Phúc, 10 Đường Phan Huy Ích, Phường 15, Quận Tân Bình, Hồ Chí Minh, Việt Nam",
        "country_code": "VNM",
        "country_name": "Việt Nam",
        "city": "Hồ Chí Minh",
        "district": "Quận Tân Bình",
        "ward": "Phường 15",
        "street": "Đường Phan Huy Ích",
        "postal_code": "72109",
        "categories": [
            {
                "name": "Cửa hàng tiện lợi"
            },
            {
                "name": "Cửa hàng bách hóa"
            }
        ]
    },
    {
        "name": "Đại Lý Nhật Minh Anh",
        "latitude": 10.82178,
        "longitude": 106.61936,
        "address": "Đại Lý Nhật Minh Anh, Đường Thị Giang, Phường Tân Thới Nhất, Quận 12, Hồ Chí Minh, Việt Nam",
        "country_code": "VNM",
        "country_name": "Việt Nam",
        "city": "Hồ Chí Minh",
        "district": "Quận 12",
        "ward": "Phường Tân Thới Nhất",
        "street": "Đường Thị Giang",
        "postal_code": "71510",
        "categories": [
            {
                "name": "Cửa hàng tiện lợi"
            }
        ]
    },
    {
        "name": "Cửa Hàng Tạp Hóa Phương Nam",
        "latitude": 10.82478,
        "longitude": 106.63045,
        "address": "Cửa Hàng Tạp Hóa Phương Nam, 20 Đường Phan Huy Ích, Phường 15, Quận Tân Bình, Hồ Chí Minh, Việt Nam",
        "country_code": "VNM",
        "country_name": "Việt Nam",
        "city": "Hồ Chí Minh",
        "district": "Quận Tân Bình",
        "ward": "Phường 15",
        "street": "Đường Phan Huy Ích",
        "postal_code": "72109",
        "categories": [
            {
                "name": "Cửa hàng tiện lợi"
            },
            {
                "name": "Hàng tiêu dùng"
            }
        ]
    },
    {
        "name": "Tạp Hóa Hùng Vân",
        "latitude": 10.83054,
        "longitude": 106.62476,
        "address": "Tạp Hóa Hùng Vân, Đường Song Hành, Phường Tân Hưng Thuận, Quận 12, Hồ Chí Minh, Việt Nam",
        "country_code": "VNM",
        "country_name": "Việt Nam",
        "city": "Hồ Chí Minh",
        "district": "Quận 12",
        "ward": "Phường Tân Hưng Thuận",
        "street": "Đường Song Hành",
        "postal_code": "71509",
        "categories": [
            {
                "name": "Cửa hàng tiện lợi"
            }
        ]
    },
    {
        "name": "Bách Hóa Trung Đức",
        "latitude": 10.83069,
        "longitude": 106.62467,
        "address": "Bách Hóa Trung Đức, Đường Song Hành, Phường Tân Hưng Thuận, Quận 12, Hồ Chí Minh, Việt Nam",
        "country_code": "VNM",
        "country_name": "Việt Nam",
        "city": "Hồ Chí Minh",
        "district": "Quận 12",
        "ward": "Phường Tân Hưng Thuận",
        "street": "Đường Song Hành",
        "postal_code": "71509",
        "categories": [
            {
                "name": "Cửa hàng tiện lợi"
            }
        ]
    },
    {
        "name": "Tổng CT Thương Mại Sài Gòn TNHH MTV Satrafoods",
        "latitude": 10.83016,
        "longitude": 106.62733,
        "address": "Tổng CT Thương Mại Sài Gòn TNHH MTV Satrafoods, 64 Đường Nguyễn Văn Quá, Phường Đông Hưng Thuận, Quận 12, Hồ Chí Minh, Việt Nam",
        "country_code": "VNM",
        "country_name": "Việt Nam",
        "city": "Hồ Chí Minh",
        "district": "Quận 12",
        "ward": "Phường Đông Hưng Thuận",
        "street": "Đường Nguyễn Văn Quá",
        "postal_code": "71508",
        "categories": [
            {
                "name": "Cửa hàng tiện lợi"
            }
        ]
    },
    {
        "name": "Yến Sào Khanh Hoà",
        "latitude": 10.82547,
        "longitude": 106.63077,
        "address": "Yến Sào Khanh Hoà, 34 Đường Phan Huy Ích, Phường 15, Quận Tân Bình, Hồ Chí Minh, Việt Nam",
        "country_code": "VNM",
        "country_name": "Việt Nam",
        "city": "Hồ Chí Minh",
        "district": "Quận Tân Bình",
        "ward": "Phường 15",
        "street": "Đường Phan Huy Ích",
        "postal_code": "72109",
        "categories": [
            {
                "name": "Cửa hàng tiện lợi"
            }
        ]
    },
    {
        "name": "Cửa Hàng Bách Hóa N&T",
        "latitude": 10.82552,
        "longitude": 106.6313,
        "address": "Cửa Hàng Bách Hóa N&T, Đường Cống Lở, Phường 15, Quận Tân Bình, Hồ Chí Minh, Việt Nam",
        "country_code": "VNM",
        "country_name": "Việt Nam",
        "city": "Hồ Chí Minh",
        "district": "Quận Tân Bình",
        "ward": "Phường 15",
        "street": "Đường Cống Lở",
        "postal_code": "72109",
        "categories": [
            {
                "name": "Cửa hàng tiện lợi"
            }
        ]
    },
    {
        "name": "Co.Op Smile",
        "latitude": 10.82726,
        "longitude": 106.61804,
        "address": "Co.Op Smile, Hẻm 11 Đường Phan Văn Hớn, Phường Tân Thới Nhất, Quận 12, Hồ Chí Minh, Việt Nam",
        "country_code": "VNM",
        "country_name": "Việt Nam",
        "city": "Hồ Chí Minh",
        "district": "Quận 12",
        "ward": "Phường Tân Thới Nhất",
        "street": "Hẻm 11 Đường Phan Văn Hớn",
        "postal_code": "71510",
        "categories": [
            {
                "name": "Cửa hàng tiện lợi"
            }
        ]
    },
    {
        "name": "Cửa Hàng Bách Hóa Co.Op",
        "latitude": 10.82748,
        "longitude": 106.6181,
        "address": "Cửa Hàng Bách Hóa Co.Op, Hẻm 129 Đường Phan Văn Hớn, Phường Tân Thới Nhất, Quận 12, Hồ Chí Minh, Việt Nam",
        "country_code": "VNM",
        "country_name": "Việt Nam",
        "city": "Hồ Chí Minh",
        "district": "Quận 12",
        "ward": "Phường Tân Thới Nhất",
        "street": "Hẻm 129 Đường Phan Văn Hớn",
        "postal_code": "71510",
        "categories": [
            {
                "name": "Cửa hàng tiện lợi"
            }
        ]
    },
    {
        "name": "WinMart+",
        "latitude": 10.83107,
        "longitude": 106.62173,
        "address": "WinMart+, Hẻm 28 Trường Chinh, Phường Tân Thới Nhất, Quận 12, Hồ Chí Minh, Việt Nam",
        "country_code": "VNM",
        "country_name": "Việt Nam",
        "city": "Hồ Chí Minh",
        "district": "Quận 12",
        "ward": "Phường Tân Thới Nhất",
        "street": "Hẻm 28 Trường Chinh",
        "postal_code": "71510",
        "categories": [
            {
                "name": "Cửa hàng tiện lợi"
            }
        ]
    },
    {
        "name": "Tạp Hóa Nguyên",
        "latitude": 10.82566,
        "longitude": 106.63179,
        "address": "Tạp Hóa Nguyên, 19 Đường Cống Lở, Phường 15, Quận Tân Bình, Hồ Chí Minh, Việt Nam",
        "country_code": "VNM",
        "country_name": "Việt Nam",
        "city": "Hồ Chí Minh",
        "district": "Quận Tân Bình",
        "ward": "Phường 15",
        "street": "Đường Cống Lở",
        "postal_code": "72109",
        "categories": [
            {
                "name": "Cửa hàng tiện lợi"
            },
            {
                "name": "Cửa hàng bách hóa"
            }
        ]
    },
    {
        "name": "Tạp Hóa Cherry",
        "latitude": 10.82796,
        "longitude": 106.61794,
        "address": "Tạp Hóa Cherry, Hẻm 129 Đường Phan Văn Hớn, Phường Tân Thới Nhất, Quận 12, Hồ Chí Minh, Việt Nam",
        "country_code": "VNM",
        "country_name": "Việt Nam",
        "city": "Hồ Chí Minh",
        "district": "Quận 12",
        "ward": "Phường Tân Thới Nhất",
        "street": "Hẻm 129 Đường Phan Văn Hớn",
        "postal_code": "71510",
        "categories": [
            {
                "name": "Cửa hàng tiện lợi"
            }
        ]
    },
    {
        "name": "WinMart+",
        "latitude": 10.82728,
        "longitude": 106.63137,
        "address": "WinMart+, Đường Phan Huy Ích, Phường 15, Quận Tân Bình, Hồ Chí Minh, Việt Nam",
        "country_code": "VNM",
        "country_name": "Việt Nam",
        "city": "Hồ Chí Minh",
        "district": "Quận Tân Bình",
        "ward": "Phường 15",
        "street": "Đường Phan Huy Ích",
        "postal_code": "72109",
        "categories": [
            {
                "name": "Cửa hàng tiện lợi"
            }
        ]
    },
    {
        "name": "Tạp Hóa Ngọc Diệp",
        "latitude": 10.83133,
        "longitude": 106.6276,
        "address": "Tạp Hóa Ngọc Diệp, 152 Hẻm 1 Đường Nguyễn Văn Quá, Phường Đông Hưng Thuận, Quận 12, Hồ Chí Minh, Việt Nam",
        "country_code": "VNM",
        "country_name": "Việt Nam",
        "city": "Hồ Chí Minh",
        "district": "Quận 12",
        "ward": "Phường Đông Hưng Thuận",
        "street": "Hẻm 1 Đường Nguyễn Văn Quá",
        "postal_code": "71508",
        "categories": [
            {
                "name": "Cửa hàng tiện lợi"
            },
            {
                "name": "Hàng tiêu dùng"
            }
        ]
    },
    {
        "name": "Tạp Hóa Khánh Vy",
        "latitude": 10.83084,
        "longitude": 106.62853,
        "address": "Tạp Hóa Khánh Vy, Đường Nguyễn Văn Quá, Phường Đông Hưng Thuận, Quận 12, Hồ Chí Minh, Việt Nam",
        "country_code": "VNM",
        "country_name": "Việt Nam",
        "city": "Hồ Chí Minh",
        "district": "Quận 12",
        "ward": "Phường Đông Hưng Thuận",
        "street": "Đường Nguyễn Văn Quá",
        "postal_code": "71508",
        "categories": [
            {
                "name": "Cửa hàng tiện lợi"
            }
        ]
    },
    {
        "name": "Satrafoods 68 Phan Huy Ích",
        "latitude": 10.8272,
        "longitude": 106.63156,
        "address": "Satrafoods 68 Phan Huy Ích, 68 Đường Phan Huy Ích, Phường 15, Quận Tân Bình, Hồ Chí Minh, Việt Nam",
        "country_code": "VNM",
        "country_name": "Việt Nam",
        "city": "Hồ Chí Minh",
        "district": "Quận Tân Bình",
        "ward": "Phường 15",
        "street": "Đường Phan Huy Ích",
        "postal_code": "72109",
        "categories": [
            {
                "name": "Cửa hàng tiện lợi"
            }
        ]
    },
    {
        "name": "Ngọc Mai - CH Ngọc Mai",
        "latitude": 10.82742,
        "longitude": 106.63157,
        "address": "Ngọc Mai - CH Ngọc Mai, Đường Phan Huy Ích, Phường 15, Quận Tân Bình, Hồ Chí Minh, Việt Nam",
        "country_code": "VNM",
        "country_name": "Việt Nam",
        "city": "Hồ Chí Minh",
        "district": "Quận Tân Bình",
        "ward": "Phường 15",
        "street": "Đường Phan Huy Ích",
        "postal_code": "72109",
        "categories": [
            {
                "name": "Cửa hàng tiện lợi"
            },
            {
                "name": "Dịch vụ kinh doanh"
            }
        ]
    },
    {
        "name": "Cửa Hàng Viettel Phan Văn Hớn",
        "latitude": 10.82886,
        "longitude": 106.61817,
        "address": "Cửa Hàng Viettel Phan Văn Hớn, 118 Đường Phan Văn Hớn, Phường Tân Thới Nhất, Quận 12, Hồ Chí Minh, Việt Nam",
        "country_code": "VNM",
        "country_name": "Việt Nam",
        "city": "Hồ Chí Minh",
        "district": "Quận 12",
        "ward": "Phường Tân Thới Nhất",
        "street": "Đường Phan Văn Hớn",
        "postal_code": "71510",
        "categories": [
            {
                "name": "Cửa hàng tiện lợi"
            }
        ]
    },
    {
        "name": "Cửa Hàng Bách Hóa Tổng Hợp Cẩm Tú",
        "latitude": 10.83189,
        "longitude": 106.62251,
        "address": "Cửa Hàng Bách Hóa Tổng Hợp Cẩm Tú, Đường Trường Chinh, Phường Tân Hưng Thuận, Quận 12, Hồ Chí Minh, Việt Nam",
        "country_code": "VNM",
        "country_name": "Việt Nam",
        "city": "Hồ Chí Minh",
        "district": "Quận 12",
        "ward": "Phường Tân Hưng Thuận",
        "street": "Đường Trường Chinh",
        "postal_code": "71509",
        "categories": [
            {
                "name": "Cửa hàng tiện lợi"
            }
        ]
    },
    {
        "name": "Tạp Hoá Ngọc Mai",
        "latitude": 10.83086,
        "longitude": 106.62014,
        "address": "Tạp Hoá Ngọc Mai, Đường Tân Thới Nhất 13C, Phường Tân Thới Nhất, Quận 12, Hồ Chí Minh, Việt Nam",
        "country_code": "VNM",
        "country_name": "Việt Nam",
        "city": "Hồ Chí Minh",
        "district": "Quận 12",
        "ward": "Phường Tân Thới Nhất",
        "street": "Đường Tân Thới Nhất 13C",
        "postal_code": "71510",
        "categories": [
            {
                "name": "Cửa hàng tiện lợi"
            }
        ]
    },
    {
        "name": "Tạp Hóa Sỉ & Lẻ Bia Nước Ngọt",
        "latitude": 10.83057,
        "longitude": 106.61973,
        "address": "Tạp Hóa Sỉ & Lẻ Bia Nước Ngọt, Đường Tân Thới Nhất 9, Phường Tân Thới Nhất, Quận 12, Hồ Chí Minh, Việt Nam",
        "country_code": "VNM",
        "country_name": "Việt Nam",
        "city": "Hồ Chí Minh",
        "district": "Quận 12",
        "ward": "Phường Tân Thới Nhất",
        "street": "Đường Tân Thới Nhất 9",
        "postal_code": "71510",
        "categories": [
            {
                "name": "Cửa hàng tiện lợi"
            }
        ]
    },
    {
        "name": "WinMart+",
        "latitude": 10.83179,
        "longitude": 106.62707,
        "address": "WinMart+, Đường Nguyễn Văn Quá, Phường Tân Hưng Thuận, Quận 12, Hồ Chí Minh, Việt Nam",
        "country_code": "VNM",
        "country_name": "Việt Nam",
        "city": "Hồ Chí Minh",
        "district": "Quận 12",
        "ward": "Phường Tân Hưng Thuận",
        "street": "Đường Nguyễn Văn Quá",
        "postal_code": "71509",
        "categories": [
            {
                "name": "Cửa hàng tiện lợi"
            }
        ]
    },
    {
        "name": "Cửa Hàng Tạp Hóa Thùy Dung",
        "latitude": 10.82873,
        "longitude": 106.61776,
        "address": "Cửa Hàng Tạp Hóa Thùy Dung, Đường Phan Văn Hớn, Phường Tân Thới Nhất, Quận 12, Hồ Chí Minh, Việt Nam",
        "country_code": "VNM",
        "country_name": "Việt Nam",
        "city": "Hồ Chí Minh",
        "district": "Quận 12",
        "ward": "Phường Tân Thới Nhất",
        "street": "Đường Phan Văn Hớn",
        "postal_code": "71510",
        "categories": [
            {
                "name": "Cửa hàng tiện lợi"
            }
        ]
    },
    {
        "name": "Tạp Hoá Gia Phúc",
        "latitude": 10.83084,
        "longitude": 106.61963,
        "address": "Tạp Hoá Gia Phúc, Đường Tân Thới Nhất 9, Phường Tân Thới Nhất, Quận 12, Hồ Chí Minh, Việt Nam",
        "country_code": "VNM",
        "country_name": "Việt Nam",
        "city": "Hồ Chí Minh",
        "district": "Quận 12",
        "ward": "Phường Tân Thới Nhất",
        "street": "Đường Tân Thới Nhất 9",
        "postal_code": "71510",
        "categories": [
            {
                "name": "Cửa hàng tiện lợi"
            }
        ]
    },
    {
        "name": "Tạp Hóa Tổng Hợp-Tứ Quý",
        "latitude": 10.83211,
        "longitude": 106.62703,
        "address": "Tạp Hóa Tổng Hợp-Tứ Quý, Đường ĐHT 2, Phường Tân Hưng Thuận, Quận 12, Hồ Chí Minh, Việt Nam",
        "country_code": "VNM",
        "country_name": "Việt Nam",
        "city": "Hồ Chí Minh",
        "district": "Quận 12",
        "ward": "Phường Tân Hưng Thuận",
        "street": "Đường ĐHT 2",
        "postal_code": "71509",
        "categories": [
            {
                "name": "Cửa hàng tiện lợi"
            }
        ]
    },
    {
        "name": "Tạp Hóa Bà Tư",
        "latitude": 10.82703,
        "longitude": 106.61681,
        "address": "Tạp Hóa Bà Tư, Đường Tân Thới Nhất 14, Phường Tân Thới Nhất, Quận 12, Hồ Chí Minh, Việt Nam",
        "country_code": "VNM",
        "country_name": "Việt Nam",
        "city": "Hồ Chí Minh",
        "district": "Quận 12",
        "ward": "Phường Tân Thới Nhất",
        "street": "Đường Tân Thới Nhất 14",
        "postal_code": "71510",
        "categories": [
            {
                "name": "Cửa hàng tiện lợi"
            }
        ]
    },
    {
        "name": "Tạp Hóa 28",
        "latitude": 10.82575,
        "longitude": 106.6325,
        "address": "Tạp Hóa 28, 28 Đường Cống Lở, Phường 15, Quận Tân Bình, Hồ Chí Minh, Việt Nam",
        "country_code": "VNM",
        "country_name": "Việt Nam",
        "city": "Hồ Chí Minh",
        "district": "Quận Tân Bình",
        "ward": "Phường 15",
        "street": "Đường Cống Lở",
        "postal_code": "72109",
        "categories": [
            {
                "name": "Cửa hàng tiện lợi"
            },
            {
                "name": "Cửa hàng bách hóa"
            }
        ]
    },
    {
        "name": "Tạp Hóa Khánh Đan",
        "latitude": 10.82339,
        "longitude": 106.63249,
        "address": "Tạp Hóa Khánh Đan, Đường Tân Trụ, Phường 15, Quận Tân Bình, Hồ Chí Minh, Việt Nam",
        "country_code": "VNM",
        "country_name": "Việt Nam",
        "city": "Hồ Chí Minh",
        "district": "Quận Tân Bình",
        "ward": "Phường 15",
        "street": "Đường Tân Trụ",
        "postal_code": "72109",
        "categories": [
            {
                "name": "Cửa hàng tiện lợi"
            }
        ]
    },
    {
        "name": "Cửa Hàng Tạp Hóa Tấn Đạt",
        "latitude": 10.81996,
        "longitude": 106.63106,
        "address": "Cửa Hàng Tạp Hóa Tấn Đạt, Đường Trường Chinh, Phường 15, Quận Tân Bình, Hồ Chí Minh, Việt Nam",
        "country_code": "VNM",
        "country_name": "Việt Nam",
        "city": "Hồ Chí Minh",
        "district": "Quận Tân Bình",
        "ward": "Phường 15",
        "street": "Đường Trường Chinh",
        "postal_code": "72109",
        "categories": [
            {
                "name": "Cửa hàng tiện lợi"
            }
        ]
    },
    {
        "name": "Cửa Hàng Hạnh Nguyên",
        "latitude": 10.82316,
        "longitude": 106.63257,
        "address": "Cửa Hàng Hạnh Nguyên, Đường Tân Trụ, Phường 15, Quận Tân Bình, Hồ Chí Minh, Việt Nam",
        "country_code": "VNM",
        "country_name": "Việt Nam",
        "city": "Hồ Chí Minh",
        "district": "Quận Tân Bình",
        "ward": "Phường 15",
        "street": "Đường Tân Trụ",
        "postal_code": "72109",
        "categories": [
            {
                "name": "Cửa hàng tiện lợi"
            }
        ]
    },
    {
        "name": "WinMart+",
        "latitude": 10.8224,
        "longitude": 106.6324,
        "address": "WinMart+, Đường Nguyễn Phúc Chu, Phường 15, Quận Tân Bình, Hồ Chí Minh, Việt Nam",
        "country_code": "VNM",
        "country_name": "Việt Nam",
        "city": "Hồ Chí Minh",
        "district": "Quận Tân Bình",
        "ward": "Phường 15",
        "street": "Đường Nguyễn Phúc Chu",
        "postal_code": "72109",
        "categories": [
            {
                "name": "Cửa hàng tiện lợi"
            }
        ]
    },
    {
        "name": "Bách Hóa Minh Anh",
        "latitude": 10.83234,
        "longitude": 106.62706,
        "address": "Bách Hóa Minh Anh, Đường Đông Hưng Thuận 2, Phường Tân Hưng Thuận, Quận 12, Hồ Chí Minh, Việt Nam",
        "country_code": "VNM",
        "country_name": "Việt Nam",
        "city": "Hồ Chí Minh",
        "district": "Quận 12",
        "ward": "Phường Tân Hưng Thuận",
        "street": "Đường Đông Hưng Thuận 2",
        "postal_code": "71509",
        "categories": [
            {
                "name": "Cửa hàng tiện lợi"
            }
        ]
    },
    {
        "name": "Tạp Hóa Hồng Hà",
        "latitude": 10.82907,
        "longitude": 106.61755,
        "address": "Tạp Hóa Hồng Hà, Đường Phan Văn Hớn, Phường Tân Thới Nhất, Quận 12, Hồ Chí Minh, Việt Nam",
        "country_code": "VNM",
        "country_name": "Việt Nam",
        "city": "Hồ Chí Minh",
        "district": "Quận 12",
        "ward": "Phường Tân Thới Nhất",
        "street": "Đường Phan Văn Hớn",
        "postal_code": "71510",
        "categories": [
            {
                "name": "Cửa hàng tiện lợi"
            }
        ]
    },
    {
        "name": "Đại Lý Khánh Vân",
        "latitude": 10.83256,
        "longitude": 106.62651,
        "address": "Đại Lý Khánh Vân, Đường Đông Hưng Thuận 45, Phường Tân Hưng Thuận, Quận 12, Hồ Chí Minh, Việt Nam",
        "country_code": "VNM",
        "country_name": "Việt Nam",
        "city": "Hồ Chí Minh",
        "district": "Quận 12",
        "ward": "Phường Tân Hưng Thuận",
        "street": "Đường Đông Hưng Thuận 45",
        "postal_code": "71509",
        "categories": [
            {
                "name": "Cửa hàng tiện lợi"
            }
        ]
    },
    {
        "name": "Diệu Linh",
        "latitude": 10.82248,
        "longitude": 106.63256,
        "address": "Diệu Linh, Đường Nguyễn Phúc Chu, Phường 15, Quận Tân Bình, Hồ Chí Minh, Việt Nam",
        "country_code": "VNM",
        "country_name": "Việt Nam",
        "city": "Hồ Chí Minh",
        "district": "Quận Tân Bình",
        "ward": "Phường 15",
        "street": "Đường Nguyễn Phúc Chu",
        "postal_code": "72109",
        "categories": [
            {
                "name": "Cửa hàng tiện lợi"
            }
        ]
    },
    {
        "name": "Cửa Hàng Tạp Hóa 149",
        "latitude": 10.82884,
        "longitude": 106.61731,
        "address": "Cửa Hàng Tạp Hóa 149, 149 Đường Phan Văn Hớn, Phường Tân Thới Nhất, Quận 12, Hồ Chí Minh, Việt Nam",
        "country_code": "VNM",
        "country_name": "Việt Nam",
        "city": "Hồ Chí Minh",
        "district": "Quận 12",
        "ward": "Phường Tân Thới Nhất",
        "street": "Đường Phan Văn Hớn",
        "postal_code": "71510",
        "categories": [
            {
                "name": "Cửa hàng tiện lợi"
            }
        ]
    },
    {
        "name": "Cửa Hàng Bách Hóa Ngọc Tuyết",
        "latitude": 10.81989,
        "longitude": 106.63138,
        "address": "Cửa Hàng Bách Hóa Ngọc Tuyết, Đường Trần Thái Tông, Phường 15, Quận Tân Bình, Hồ Chí Minh, Việt Nam",
        "country_code": "VNM",
        "country_name": "Việt Nam",
        "city": "Hồ Chí Minh",
        "district": "Quận Tân Bình",
        "ward": "Phường 15",
        "street": "Đường Trần Thái Tông",
        "postal_code": "72109",
        "categories": [
            {
                "name": "Cửa hàng tiện lợi"
            }
        ]
    },
    {
        "name": "Đại Lý - Tạp Hóa",
        "latitude": 10.8308,
        "longitude": 106.61887,
        "address": "Đại Lý - Tạp Hóa, Đường Tân Thới Nhất 9, Phường Tân Thới Nhất, Quận 12, Hồ Chí Minh, Việt Nam",
        "country_code": "VNM",
        "country_name": "Việt Nam",
        "city": "Hồ Chí Minh",
        "district": "Quận 12",
        "ward": "Phường Tân Thới Nhất",
        "street": "Đường Tân Thới Nhất 9",
        "postal_code": "71510",
        "categories": [
            {
                "name": "Cửa hàng tiện lợi"
            }
        ]
    },
    {
        "name": "G7 Mart",
        "latitude": 10.83164,
        "longitude": 106.61997,
        "address": "G7 Mart, Đường Tân Thới Nhất 13C, Phường Tân Thới Nhất, Quận 12, Hồ Chí Minh, Việt Nam",
        "country_code": "VNM",
        "country_name": "Việt Nam",
        "city": "Hồ Chí Minh",
        "district": "Quận 12",
        "ward": "Phường Tân Thới Nhất",
        "street": "Đường Tân Thới Nhất 13C",
        "postal_code": "71510",
        "categories": [
            {
                "name": "Cửa hàng tiện lợi"
            }
        ]
    },
    {
        "name": "Tạp Hóa Hương",
        "latitude": 10.83184,
        "longitude": 106.62869,
        "address": "Tạp Hóa Hương, Đường Đông Hưng Thuận 10B, Phường Đông Hưng Thuận, Quận 12, Hồ Chí Minh, Việt Nam",
        "country_code": "VNM",
        "country_name": "Việt Nam",
        "city": "Hồ Chí Minh",
        "district": "Quận 12",
        "ward": "Phường Đông Hưng Thuận",
        "street": "Đường Đông Hưng Thuận 10B",
        "postal_code": "71508",
        "categories": [
            {
                "name": "Cửa hàng tiện lợi"
            },
            {
                "name": "Siêu thị"
            }
        ]
    },
    {
        "name": "Tạp Hóa Tâm Như",
        "latitude": 10.83194,
        "longitude": 106.62034,
        "address": "Tạp Hóa Tâm Như, Đường Tân Thới Nhất 13C, Phường Tân Thới Nhất, Quận 12, Hồ Chí Minh, Việt Nam",
        "country_code": "VNM",
        "country_name": "Việt Nam",
        "city": "Hồ Chí Minh",
        "district": "Quận 12",
        "ward": "Phường Tân Thới Nhất",
        "street": "Đường Tân Thới Nhất 13C",
        "postal_code": "71510",
        "categories": [
            {
                "name": "Cửa hàng tiện lợi"
            }
        ]
    },
    {
        "name": "Đổi Bình Nước",
        "latitude": 10.83206,
        "longitude": 106.62018,
        "address": "Đổi Bình Nước, 41 Hẻm 7 Đường Tân Thới Nhất 13C, Phường Tân Thới Nhất, Quận 12, Hồ Chí Minh, Việt Nam",
        "country_code": "VNM",
        "country_name": "Việt Nam",
        "city": "Hồ Chí Minh",
        "district": "Quận 12",
        "ward": "Phường Tân Thới Nhất",
        "street": "Hẻm 7 Đường Tân Thới Nhất 13C",
        "postal_code": "71510",
        "categories": [
            {
                "name": "Cửa hàng tiện lợi"
            }
        ]
    },
    {
        "name": "Cửa Hàng Huy Bình",
        "latitude": 10.83317,
        "longitude": 106.62369,
        "address": "Cửa Hàng Huy Bình, Đường Đông Hưng Thuận 45, Phường Tân Hưng Thuận, Quận 12, Hồ Chí Minh, Việt Nam",
        "country_code": "VNM",
        "country_name": "Việt Nam",
        "city": "Hồ Chí Minh",
        "district": "Quận 12",
        "ward": "Phường Tân Hưng Thuận",
        "street": "Đường Đông Hưng Thuận 45",
        "postal_code": "71509",
        "categories": [
            {
                "name": "Cửa hàng tiện lợi"
            }
        ]
    },
    {
        "name": "Bách Hóa Phi Lam",
        "latitude": 10.83327,
        "longitude": 106.62445,
        "address": "Bách Hóa Phi Lam, 17 Đường Đông Hưng Thuận 45, Phường Tân Hưng Thuận, Quận 12, Hồ Chí Minh, Việt Nam",
        "country_code": "VNM",
        "country_name": "Việt Nam",
        "city": "Hồ Chí Minh",
        "district": "Quận 12",
        "ward": "Phường Tân Hưng Thuận",
        "street": "Đường Đông Hưng Thuận 45",
        "postal_code": "71509",
        "categories": [
            {
                "name": "Cửa hàng tiện lợi"
            }
        ]
    },
    {
        "name": "Tạp Hóa Trâm Anh",
        "latitude": 10.8196,
        "longitude": 106.63166,
        "address": "Tạp Hóa Trâm Anh, Đường Trần Thái Tông, Phường 15, Quận Tân Bình, Hồ Chí Minh, Việt Nam",
        "country_code": "VNM",
        "country_name": "Việt Nam",
        "city": "Hồ Chí Minh",
        "district": "Quận Tân Bình",
        "ward": "Phường 15",
        "street": "Đường Trần Thái Tông",
        "postal_code": "72109",
        "categories": [
            {
                "name": "Cửa hàng tiện lợi"
            }
        ]
    },
    {
        "name": "Tạp Hóa Gia Phúc",
        "latitude": 10.83334,
        "longitude": 106.6245,
        "address": "Tạp Hóa Gia Phúc, 2/20 Đường Đông Hưng Thuận 45, Phường Tân Hưng Thuận, Quận 12, Hồ Chí Minh, Việt Nam",
        "country_code": "VNM",
        "country_name": "Việt Nam",
        "city": "Hồ Chí Minh",
        "district": "Quận 12",
        "ward": "Phường Tân Hưng Thuận",
        "street": "Đường Đông Hưng Thuận 45",
        "postal_code": "71509",
        "categories": [
            {
                "name": "Cửa hàng tiện lợi"
            }
        ]
    },
    {
        "name": "Tạp Hóa Hoàng",
        "latitude": 10.83335,
        "longitude": 106.62449,
        "address": "Tạp Hóa Hoàng, 20 Đường Đông Hưng Thuận 45, Phường Tân Hưng Thuận, Quận 12, Hồ Chí Minh, Việt Nam",
        "country_code": "VNM",
        "country_name": "Việt Nam",
        "city": "Hồ Chí Minh",
        "district": "Quận 12",
        "ward": "Phường Tân Hưng Thuận",
        "street": "Đường Đông Hưng Thuận 45",
        "postal_code": "71509",
        "categories": [
            {
                "name": "Cửa hàng tiện lợi"
            }
        ]
    },
    {
        "name": "Tạp Hoá Nga",
        "latitude": 10.81606,
        "longitude": 106.62272,
        "address": "Tạp Hoá Nga, Đường C2, Phường Tây Thạnh, Quận Tân Phú, Hồ Chí Minh, Việt Nam",
        "country_code": "VNM",
        "country_name": "Việt Nam",
        "city": "Hồ Chí Minh",
        "district": "Quận Tân Phú",
        "ward": "Phường Tây Thạnh",
        "street": "Đường C2",
        "postal_code": "72009",
        "categories": [
            {
                "name": "Cửa hàng tiện lợi"
            }
        ]
    },
    {
        "name": "Tạp Hóa - Điện",
        "latitude": 10.83324,
        "longitude": 106.62262,
        "address": "Tạp Hóa - Điện, Đường Đông Hưng Thuận 38, Phường Tân Hưng Thuận, Quận 12, Hồ Chí Minh, Việt Nam",
        "country_code": "VNM",
        "country_name": "Việt Nam",
        "city": "Hồ Chí Minh",
        "district": "Quận 12",
        "ward": "Phường Tân Hưng Thuận",
        "street": "Đường Đông Hưng Thuận 38",
        "postal_code": "71509",
        "categories": [
            {
                "name": "Cửa hàng tiện lợi"
            }
        ]
    },
    {
        "name": "Satrafoods Nguyễn Văn Quá 2",
        "latitude": 10.83312,
        "longitude": 106.62701,
        "address": "Satrafoods Nguyễn Văn Quá 2, Đường Đông Hưng Thuận 2, Phường Tân Hưng Thuận, Quận 12, Hồ Chí Minh, Việt Nam",
        "country_code": "VNM",
        "country_name": "Việt Nam",
        "city": "Hồ Chí Minh",
        "district": "Quận 12",
        "ward": "Phường Tân Hưng Thuận",
        "street": "Đường Đông Hưng Thuận 2",
        "postal_code": "71509",
        "categories": [
            {
                "name": "Cửa hàng tiện lợi"
            }
        ]
    },
    {
        "name": "Tạp Hóa Thành Linh",
        "latitude": 10.83252,
        "longitude": 106.62029,
        "address": "Tạp Hóa Thành Linh, Đường TTN 13, Phường Tân Thới Nhất, Quận 12, Hồ Chí Minh, Việt Nam",
        "country_code": "VNM",
        "country_name": "Việt Nam",
        "city": "Hồ Chí Minh",
        "district": "Quận 12",
        "ward": "Phường Tân Thới Nhất",
        "street": "Đường TTN 13",
        "postal_code": "71510",
        "categories": [
            {
                "name": "Cửa hàng tiện lợi"
            }
        ]
    },
    {
        "name": "G7 Mart Bích Liên",
        "latitude": 10.83309,
        "longitude": 106.62162,
        "address": "G7 Mart Bích Liên, 326 Đường Trường Chinh, Phường Tân Hưng Thuận, Quận 12, Hồ Chí Minh, Việt Nam",
        "country_code": "VNM",
        "country_name": "Việt Nam",
        "city": "Hồ Chí Minh",
        "district": "Quận 12",
        "ward": "Phường Tân Hưng Thuận",
        "street": "Đường Trường Chinh",
        "postal_code": "71509",
        "categories": [
            {
                "name": "Cửa hàng tiện lợi"
            }
        ]
    },
    {
        "name": "Tạp Hóa Anh Trương",
        "latitude": 10.83184,
        "longitude": 106.62987,
        "address": "Tạp Hóa Anh Trương, Đường Đông Hưng Thuận 10B, Phường Đông Hưng Thuận, Quận 12, Hồ Chí Minh, Việt Nam",
        "country_code": "VNM",
        "country_name": "Việt Nam",
        "city": "Hồ Chí Minh",
        "district": "Quận 12",
        "ward": "Phường Đông Hưng Thuận",
        "street": "Đường Đông Hưng Thuận 10B",
        "postal_code": "71508",
        "categories": [
            {
                "name": "Cửa hàng tiện lợi"
            }
        ]
    },
    {
        "name": "Cửa Hàng Bách Hóa 154",
        "latitude": 10.82922,
        "longitude": 106.61664,
        "address": "Cửa Hàng Bách Hóa 154, 154 Đường Phan Văn Hớn, Phường Tân Thới Nhất, Quận 12, Hồ Chí Minh, Việt Nam",
        "country_code": "VNM",
        "country_name": "Việt Nam",
        "city": "Hồ Chí Minh",
        "district": "Quận 12",
        "ward": "Phường Tân Thới Nhất",
        "street": "Đường Phan Văn Hớn",
        "postal_code": "71510",
        "categories": [
            {
                "name": "Cửa hàng tiện lợi"
            }
        ]
    },
    {
        "name": "Bách Hóa Bích Liên",
        "latitude": 10.83316,
        "longitude": 106.62158,
        "address": "Bách Hóa Bích Liên, 326A Đường Trường Chinh, Phường Tân Hưng Thuận, Quận 12, Hồ Chí Minh, Việt Nam",
        "country_code": "VNM",
        "country_name": "Việt Nam",
        "city": "Hồ Chí Minh",
        "district": "Quận 12",
        "ward": "Phường Tân Hưng Thuận",
        "street": "Đường Trường Chinh",
        "postal_code": "71509",
        "categories": [
            {
                "name": "Cửa hàng tiện lợi"
            }
        ]
    },
    {
        "name": "Tạp Hóa Chín Thương",
        "latitude": 10.81561,
        "longitude": 106.62494,
        "address": "Tạp Hóa Chín Thương, 121 Đường Tây Thạnh, Phường Tây Thạnh, Quận Tân Phú, Hồ Chí Minh, Việt Nam",
        "country_code": "VNM",
        "country_name": "Việt Nam",
        "city": "Hồ Chí Minh",
        "district": "Quận Tân Phú",
        "ward": "Phường Tây Thạnh",
        "street": "Đường Tây Thạnh",
        "postal_code": "72009",
        "categories": [
            {
                "name": "Cửa hàng tiện lợi"
            }
        ]
    },
    {
        "name": "Cửa Hàng Thanh Dương",
        "latitude": 10.81561,
        "longitude": 106.62494,
        "address": "Cửa Hàng Thanh Dương, 123 Đường Tây Thạnh, Phường Tây Thạnh, Quận Tân Phú, Hồ Chí Minh, Việt Nam",
        "country_code": "VNM",
        "country_name": "Việt Nam",
        "city": "Hồ Chí Minh",
        "district": "Quận Tân Phú",
        "ward": "Phường Tây Thạnh",
        "street": "Đường Tây Thạnh",
        "postal_code": "72009",
        "categories": [
            {
                "name": "Cửa hàng tiện lợi"
            },
            {
                "name": "Trạm xăng"
            }
        ]
    },
    {
        "name": "Tạp Hóa Yến Nhi",
        "latitude": 10.8193,
        "longitude": 106.63206,
        "address": "Tạp Hóa Yến Nhi, 39 Đường Trần Thái Tông, Phường 15, Quận Tân Bình, Hồ Chí Minh, Việt Nam",
        "country_code": "VNM",
        "country_name": "Việt Nam",
        "city": "Hồ Chí Minh",
        "district": "Quận Tân Bình",
        "ward": "Phường 15",
        "street": "Đường Trần Thái Tông",
        "postal_code": "72109",
        "categories": [
            {
                "name": "Cửa hàng tiện lợi"
            }
        ]
    }
]
