[
    {
        "name": "Vta.Phanvanhon",
        "latitude": 10.82726,
        "longitude": 106.62443,
        "address": "Vta.Phanvanhon, Đường Phan Văn Hớn, Phường Tân Thới Nhất, Quận 12, Hồ Chí Minh, Việt Nam",
        "country_code": "VNM",
        "country_name": "Việt Nam",
        "city": "Hồ Chí Minh",
        "district": "Quận 12",
        "ward": "Phường Tân Thới Nhất",
        "street": "Đường Phan Văn Hớn",
        "postal_code": "71510",
        "categories": [
            {
                "name": "Cửa hàng bán lẻ điện thoại di động"
            }
        ]
    },
    {
        "name": "Unlock Pro Giải Mã ĐTDĐ TPHCM",
        "latitude": 10.82769,
        "longitude": 106.6231,
        "address": "Unlock Pro Giải Mã ĐTDĐ TPHCM, Đường Phan Văn Hớn, Phường Tân Thới Nhất, Quận 12, Hồ Chí Minh, Việt Nam",
        "country_code": "VNM",
        "country_name": "Việt Nam",
        "city": "Hồ Chí Minh",
        "district": "Quận 12",
        "ward": "Phường Tân Thới Nhất",
        "street": "Đường Phan Văn Hớn",
        "postal_code": "71510",
        "categories": [
            {
                "name": "Cửa hàng bán lẻ điện thoại di động"
            }
        ]
    },
    {
        "name": "Shop Gia Huy",
        "latitude": 10.8279,
        "longitude": 106.62227,
        "address": "Shop Gia Huy, Đường Phan Văn Hớn, Phường Tân Thới Nhất, Quận 12, Hồ Chí Minh, Việt Nam",
        "country_code": "VNM",
        "country_name": "Việt Nam",
        "city": "Hồ Chí Minh",
        "district": "Quận 12",
        "ward": "Phường Tân Thới Nhất",
        "street": "Đường Phan Văn Hớn",
        "postal_code": "71510",
        "categories": [
            {
                "name": "Cửa hàng bán lẻ điện thoại di động"
            }
        ]
    },
    {
        "name": "FPT Shop 98 Nguyễn Văn Quá Q12",
        "latitude": 10.82983,
        "longitude": 106.62712,
        "address": "FPT Shop 98 Nguyễn Văn Quá Q12, Đường Nguyễn Văn Quá, Phường Tân Hưng Thuận, Quận 12, Hồ Chí Minh, Việt Nam",
        "country_code": "VNM",
        "country_name": "Việt Nam",
        "city": "Hồ Chí Minh",
        "district": "Quận 12",
        "ward": "Phường Tân Hưng Thuận",
        "street": "Đường Nguyễn Văn Quá",
        "postal_code": "71509",
        "categories": [
            {
                "name": "Cửa hàng bán lẻ điện thoại di động"
            }
        ]
    },
    {
        "name": "Viettel Store",
        "latitude": 10.83117,
        "longitude": 106.6224,
        "address": "Viettel Store, Đường Trường Chinh, Phường Tân Thới Nhất, Quận 12, Hồ Chí Minh, Việt Nam",
        "country_code": "VNM",
        "country_name": "Việt Nam",
        "city": "Hồ Chí Minh",
        "district": "Quận 12",
        "ward": "Phường Tân Thới Nhất",
        "street": "Đường Trường Chinh",
        "postal_code": "71510",
        "categories": [
            {
                "name": "Cửa hàng bán lẻ điện thoại di động"
            }
        ]
    },
    {
        "name": "Worldphone Sài Gòn",
        "latitude": 10.82316,
        "longitude": 106.6165,
        "address": "Worldphone Sài Gòn, Đường F, Phường Tân Thới Nhất, Quận 12, Hồ Chí Minh, Việt Nam",
        "country_code": "VNM",
        "country_name": "Việt Nam",
        "city": "Hồ Chí Minh",
        "district": "Quận 12",
        "ward": "Phường Tân Thới Nhất",
        "street": "Đường F",
        "postal_code": "71510",
        "categories": [
            {
                "name": "Cửa hàng bán lẻ điện thoại di động"
            }
        ]
    },
    {
        "name": "Viettel",
        "latitude": 10.8347,
        "longitude": 106.62862,
        "address": "Viettel, 119 Hẻm 2 Đường Nguyễn Văn Quá, Phường Đông Hưng Thuận, Quận 12, Hồ Chí Minh, Việt Nam",
        "country_code": "VNM",
        "country_name": "Việt Nam",
        "city": "Hồ Chí Minh",
        "district": "Quận 12",
        "ward": "Phường Đông Hưng Thuận",
        "street": "Hẻm 2 Đường Nguyễn Văn Quá",
        "postal_code": "71508",
        "categories": [
            {
                "name": "Cửa hàng bán lẻ điện thoại di động"
            },
            {
                "name": "Cửa hàng điện tử gia dụng"
            }
        ]
    },
    {
        "name": "Xây Dựng TMDV Trí Nghĩa",
        "latitude": 10.83067,
        "longitude": 106.61492,
        "address": "Xây Dựng TMDV Trí Nghĩa, Đường TTN 1, Phường Tân Thới Nhất, Quận 12, Hồ Chí Minh, Việt Nam",
        "country_code": "VNM",
        "country_name": "Việt Nam",
        "city": "Hồ Chí Minh",
        "district": "Quận 12",
        "ward": "Phường Tân Thới Nhất",
        "street": "Đường TTN 1",
        "postal_code": "71510",
        "categories": [
            {
                "name": "Cửa hàng bán lẻ điện thoại di động"
            }
        ]
    },
    {
        "name": "Ilux Mobile",
        "latitude": 10.82978,
        "longitude": 106.63668,
        "address": "Ilux Mobile, 6 Hẻm 72/34 Đường Huỳnh Văn Nghệ, Phường 15, Quận Tân Bình, Hồ Chí Minh, Việt Nam",
        "country_code": "VNM",
        "country_name": "Việt Nam",
        "city": "Hồ Chí Minh",
        "district": "Quận Tân Bình",
        "ward": "Phường 15",
        "street": "Hẻm 72/34 Đường Huỳnh Văn Nghệ",
        "postal_code": "72109",
        "categories": [
            {
                "name": "Cửa hàng bán lẻ điện thoại di động"
            }
        ]
    },
    {
        "name": "Viettel Tây Thạnh",
        "latitude": 10.81184,
        "longitude": 106.62155,
        "address": "Viettel Tây Thạnh, 269 Đường Tây Thạnh, Phường Tây Thạnh, Quận Tân Phú, Hồ Chí Minh, Việt Nam",
        "country_code": "VNM",
        "country_name": "Việt Nam",
        "city": "Hồ Chí Minh",
        "district": "Quận Tân Phú",
        "ward": "Phường Tây Thạnh",
        "street": "Đường Tây Thạnh",
        "postal_code": "72009",
        "categories": [
            {
                "name": "Cửa hàng bán lẻ điện thoại di động"
            },
            {
                "name": "Cửa hàng điện tử gia dụng"
            }
        ]
    },
    {
        "name": "Điểm Bán Hàng Viettel Cửa Hàng Myo",
        "latitude": 10.83497,
        "longitude": 106.61485,
        "address": "Điểm Bán Hàng Viettel Cửa Hàng Myo, 13A Hẻm 60 Đường Tân Thới Nhất 2, Phường Tân Thới Nhất, Quận 12, Hồ Chí Minh, Việt Nam",
        "country_code": "VNM",
        "country_name": "Việt Nam",
        "city": "Hồ Chí Minh",
        "district": "Quận 12",
        "ward": "Phường Tân Thới Nhất",
        "street": "Hẻm 60 Đường Tân Thới Nhất 2",
        "postal_code": "71510",
        "categories": [
            {
                "name": "Cửa hàng bán lẻ điện thoại di động"
            },
            {
                "name": "Cửa hàng điện tử gia dụng"
            }
        ]
    },
    {
        "name": "Táo Qua Tay",
        "latitude": 10.8226,
        "longitude": 106.63916,
        "address": "Táo Qua Tay, 407 Đường Phạm Văn Bạch, Phường 15, Quận Tân Bình, Hồ Chí Minh, Việt Nam",
        "country_code": "VNM",
        "country_name": "Việt Nam",
        "city": "Hồ Chí Minh",
        "district": "Quận Tân Bình",
        "ward": "Phường 15",
        "street": "Đường Phạm Văn Bạch",
        "postal_code": "72109",
        "categories": [
            {
                "name": "Cửa hàng bán lẻ điện thoại di động"
            }
        ]
    },
    {
        "name": "Phụ Kiện Công Nghệ SG",
        "latitude": 10.83856,
        "longitude": 106.62978,
        "address": "Phụ Kiện Công Nghệ SG, 464 Đường Nguyễn Văn Quá, Phường Đông Hưng Thuận, Quận 12, Hồ Chí Minh, Việt Nam",
        "country_code": "VNM",
        "country_name": "Việt Nam",
        "city": "Hồ Chí Minh",
        "district": "Quận 12",
        "ward": "Phường Đông Hưng Thuận",
        "street": "Đường Nguyễn Văn Quá",
        "postal_code": "71508",
        "categories": [
            {
                "name": "Quần áo & Phụ kiện"
            },
            {
                "name": "Cửa hàng bán lẻ điện thoại di động"
            }
        ]
    },
    {
        "name": "Dumy Apple - Spa For Your Iphone",
        "latitude": 10.82106,
        "longitude": 106.63945,
        "address": "Dumy Apple - Spa For Your Iphone, 135 Đường Tân Sơn, Phường 15, Quận Tân Bình, Hồ Chí Minh, Việt Nam",
        "country_code": "VNM",
        "country_name": "Việt Nam",
        "city": "Hồ Chí Minh",
        "district": "Quận Tân Bình",
        "ward": "Phường 15",
        "street": "Đường Tân Sơn",
        "postal_code": "72109",
        "categories": [
            {
                "name": "Cửa hàng bán lẻ điện thoại di động"
            }
        ]
    },
    {
        "name": "ĐTDĐ Chính Hãng",
        "latitude": 10.81156,
        "longitude": 106.63247,
        "address": "ĐTDĐ Chính Hãng, Hẻm 787 Trường Chinh, Phường Tây Thạnh, Quận Tân Phú, Hồ Chí Minh, Việt Nam",
        "country_code": "VNM",
        "country_name": "Việt Nam",
        "city": "Hồ Chí Minh",
        "district": "Quận Tân Phú",
        "ward": "Phường Tây Thạnh",
        "street": "Hẻm 787 Trường Chinh",
        "postal_code": "72009",
        "categories": [
            {
                "name": "Quần áo & Phụ kiện"
            },
            {
                "name": "Cửa hàng bán lẻ điện thoại di động"
            }
        ]
    },
    {
        "name": "Viễn Thông A Lê Trọng Tấn",
        "latitude": 10.8097,
        "longitude": 106.62111,
        "address": "Viễn Thông A Lê Trọng Tấn, Đường Tây Thạnh, Phường Tây Thạnh, Quận Tân Phú, Hồ Chí Minh, Việt Nam",
        "country_code": "VNM",
        "country_name": "Việt Nam",
        "city": "Hồ Chí Minh",
        "district": "Quận Tân Phú",
        "ward": "Phường Tây Thạnh",
        "street": "Đường Tây Thạnh",
        "postal_code": "72009",
        "categories": [
            {
                "name": "Cửa hàng bán lẻ điện thoại di động"
            }
        ]
    },
    {
        "name": "Luxury Mobile",
        "latitude": 10.82945,
        "longitude": 106.6401,
        "address": "Luxury Mobile, 157 Hẻm 1 Đường Huỳnh Văn Nghệ, Phường 12, Quận Gò Vấp, Hồ Chí Minh, Việt Nam",
        "country_code": "VNM",
        "country_name": "Việt Nam",
        "city": "Hồ Chí Minh",
        "district": "Quận Gò Vấp",
        "ward": "Phường 12",
        "street": "Hẻm 1 Đường Huỳnh Văn Nghệ",
        "postal_code": "71420",
        "categories": [
            {
                "name": "Cửa hàng bán lẻ điện thoại di động"
            }
        ]
    },
    {
        "name": "Rim Chuyên Mobile, Laptop Xịn",
        "latitude": 10.80824,
        "longitude": 106.61833,
        "address": "Rim Chuyên Mobile, Laptop Xịn, 387 Đường Lê Trọng Tấn, Phường Tây Thạnh, Quận Tân Phú, Hồ Chí Minh, Việt Nam",
        "country_code": "VNM",
        "country_name": "Việt Nam",
        "city": "Hồ Chí Minh",
        "district": "Quận Tân Phú",
        "ward": "Phường Tây Thạnh",
        "street": "Đường Lê Trọng Tấn",
        "postal_code": "72009",
        "categories": [
            {
                "name": "Cửa hàng bán lẻ điện thoại di động"
            }
        ]
    },
    {
        "name": "Điện Tử Viễn Thông Liên Minh",
        "latitude": 10.80855,
        "longitude": 106.61726,
        "address": "Điện Tử Viễn Thông Liên Minh, 415 Đường Lê Trọng Tấn, Phường Tây Thạnh, Quận Tân Phú, Hồ Chí Minh, Việt Nam",
        "country_code": "VNM",
        "country_name": "Việt Nam",
        "city": "Hồ Chí Minh",
        "district": "Quận Tân Phú",
        "ward": "Phường Tây Thạnh",
        "street": "Đường Lê Trọng Tấn",
        "postal_code": "72009",
        "categories": [
            {
                "name": "Cửa hàng bán lẻ điện thoại di động"
            }
        ]
    },
    {
        "name": "Cửa Hàng ĐTDĐ Việt Anh",
        "latitude": 10.84193,
        "longitude": 106.63094,
        "address": "Cửa Hàng ĐTDĐ Việt Anh, Đường Nguyễn Văn Quá, Phường Đông Hưng Thuận, Quận 12, Hồ Chí Minh, Việt Nam",
        "country_code": "VNM",
        "country_name": "Việt Nam",
        "city": "Hồ Chí Minh",
        "district": "Quận 12",
        "ward": "Phường Đông Hưng Thuận",
        "street": "Đường Nguyễn Văn Quá",
        "postal_code": "71508",
        "categories": [
            {
                "name": "Cửa hàng bán lẻ điện thoại di động"
            }
        ]
    },
    {
        "name": "Earpods - Tai Nghe Iphone Chính Hãng",
        "latitude": 10.84307,
        "longitude": 106.63111,
        "address": "Earpods - Tai Nghe Iphone Chính Hãng, 630 Đường Nguyễn Văn Quá, Phường Đông Hưng Thuận, Quận 12, Hồ Chí Minh, Việt Nam",
        "country_code": "VNM",
        "country_name": "Việt Nam",
        "city": "Hồ Chí Minh",
        "district": "Quận 12",
        "ward": "Phường Đông Hưng Thuận",
        "street": "Đường Nguyễn Văn Quá",
        "postal_code": "71508",
        "categories": [
            {
                "name": "Quần áo & Phụ kiện"
            },
            {
                "name": "Cửa hàng bán lẻ điện thoại di động"
            }
        ]
    },
    {
        "name": "Viettel",
        "latitude": 10.83608,
        "longitude": 106.64089,
        "address": "Viettel, Hẻm 49/23 Bùi Quang Là, Phường 12, Quận Gò Vấp, Hồ Chí Minh, Việt Nam",
        "country_code": "VNM",
        "country_name": "Việt Nam",
        "city": "Hồ Chí Minh",
        "district": "Quận Gò Vấp",
        "ward": "Phường 12",
        "street": "Hẻm 49/23 Bùi Quang Là",
        "postal_code": "71420",
        "categories": [
            {
                "name": "Cửa hàng bán lẻ điện thoại di động"
            }
        ]
    },
    {
        "name": "Miao Storez",
        "latitude": 10.83228,
        "longitude": 106.64331,
        "address": "Miao Storez, 558 Đường Phạm Văn Bạch, Phường 12, Quận Gò Vấp, Hồ Chí Minh, Việt Nam",
        "country_code": "VNM",
        "country_name": "Việt Nam",
        "city": "Hồ Chí Minh",
        "district": "Quận Gò Vấp",
        "ward": "Phường 12",
        "street": "Đường Phạm Văn Bạch",
        "postal_code": "71420",
        "categories": [
            {
                "name": "Cửa hàng bán lẻ điện thoại di động"
            },
            {
                "name": "Dịch vụ điện thoại"
            }
        ]
    },
    {
        "name": "2h Case",
        "latitude": 10.80405,
        "longitude": 106.62901,
        "address": "2h Case, 23A Đường Số 27, Phường Sơn Kỳ, Quận Tân Phú, Hồ Chí Minh, Việt Nam",
        "country_code": "VNM",
        "country_name": "Việt Nam",
        "city": "Hồ Chí Minh",
        "district": "Quận Tân Phú",
        "ward": "Phường Sơn Kỳ",
        "street": "Đường Số 27",
        "postal_code": "72010",
        "categories": [
            {
                "name": "Quần áo & Phụ kiện"
            },
            {
                "name": "Cửa hàng bán lẻ điện thoại di động"
            }
        ]
    },
    {
        "name": "Viettel",
        "latitude": 10.80451,
        "longitude": 106.61716,
        "address": "Viettel, Đường N2, Phường Sơn Kỳ, Quận Tân Phú, Hồ Chí Minh, Việt Nam",
        "country_code": "VNM",
        "country_name": "Việt Nam",
        "city": "Hồ Chí Minh",
        "district": "Quận Tân Phú",
        "ward": "Phường Sơn Kỳ",
        "street": "Đường N2",
        "postal_code": "72010",
        "categories": [
            {
                "name": "Cửa hàng bán lẻ điện thoại di động"
            }
        ]
    },
    {
        "name": "Thu Mua Macbook Cũ & Mới Giá Cao",
        "latitude": 10.80524,
        "longitude": 106.63578,
        "address": "Thu Mua Macbook Cũ & Mới Giá Cao, Đường Trường Chinh, Phường 15, Quận Tân Bình, Hồ Chí Minh, Việt Nam",
        "country_code": "VNM",
        "country_name": "Việt Nam",
        "city": "Hồ Chí Minh",
        "district": "Quận Tân Bình",
        "ward": "Phường 15",
        "street": "Đường Trường Chinh",
        "postal_code": "72109",
        "categories": [
            {
                "name": "Cửa hàng bán lẻ điện thoại di động"
            }
        ]
    },
    {
        "name": "Viettel",
        "latitude": 10.80559,
        "longitude": 106.63698,
        "address": "Viettel, Đường Phan Văn Sửu, Phường 13, Quận Tân Bình, Hồ Chí Minh, Việt Nam",
        "country_code": "VNM",
        "country_name": "Việt Nam",
        "city": "Hồ Chí Minh",
        "district": "Quận Tân Bình",
        "ward": "Phường 13",
        "street": "Đường Phan Văn Sửu",
        "postal_code": "72110",
        "categories": [
            {
                "name": "Cửa hàng bán lẻ điện thoại di động"
            },
            {
                "name": "Cửa hàng điện tử gia dụng"
            }
        ]
    },
    {
        "name": "TGDD 739 Lê Trọng Tấn",
        "latitude": 10.81559,
        "longitude": 106.60328,
        "address": "TGDD 739 Lê Trọng Tấn, 739 Đường Lê Trọng Tấn, Phường Bình Hưng Hòa, Quận Bình Tân, Hồ Chí Minh, Việt Nam",
        "country_code": "VNM",
        "country_name": "Việt Nam",
        "city": "Hồ Chí Minh",
        "district": "Quận Bình Tân",
        "ward": "Phường Bình Hưng Hòa",
        "street": "Đường Lê Trọng Tấn",
        "postal_code": "71913",
        "categories": [
            {
                "name": "Cửa hàng bán lẻ điện thoại di động"
            }
        ]
    },
    {
        "name": "Hạnh Smartphone",
        "latitude": 10.80423,
        "longitude": 106.63561,
        "address": "Hạnh Smartphone, 651 Đường Trường Chinh, Phường Tây Thạnh, Quận Tân Phú, Hồ Chí Minh, Việt Nam",
        "country_code": "VNM",
        "country_name": "Việt Nam",
        "city": "Hồ Chí Minh",
        "district": "Quận Tân Phú",
        "ward": "Phường Tây Thạnh",
        "street": "Đường Trường Chinh",
        "postal_code": "72009",
        "categories": [
            {
                "name": "Cửa hàng bán lẻ điện thoại di động"
            }
        ]
    },
    {
        "name": "TM & DV Xuất Nhập Khẩu Tuấn Thân - CN",
        "latitude": 10.80336,
        "longitude": 106.63528,
        "address": "TM & DV Xuất Nhập Khẩu Tuấn Thân - CN, Hẻm 26 Tân Sơn Nhì, Phường Tân Sơn Nhì, Quận Tân Phú, Hồ Chí Minh, Việt Nam",
        "country_code": "VNM",
        "country_name": "Việt Nam",
        "city": "Hồ Chí Minh",
        "district": "Quận Tân Phú",
        "ward": "Phường Tân Sơn Nhì",
        "street": "Hẻm 26 Tân Sơn Nhì",
        "postal_code": "72008",
        "categories": [
            {
                "name": "Cửa hàng bán lẻ điện thoại di động"
            }
        ]
    },
    {
        "name": "Tuan Gomay",
        "latitude": 10.81409,
        "longitude": 106.60236,
        "address": "Tuan Gomay, Hẻm 205 Phạm Đăng Giảng, Phường Bình Hưng Hòa, Quận Bình Tân, Hồ Chí Minh, Việt Nam",
        "country_code": "VNM",
        "country_name": "Việt Nam",
        "city": "Hồ Chí Minh",
        "district": "Quận Bình Tân",
        "ward": "Phường Bình Hưng Hòa",
        "street": "Hẻm 205 Phạm Đăng Giảng",
        "postal_code": "71913",
        "categories": [
            {
                "name": "Quần áo & Phụ kiện"
            },
            {
                "name": "Cửa hàng bán lẻ điện thoại di động"
            },
            {
                "name": "Dịch vụ kinh doanh"
            }
        ]
    },
    {
        "name": "Fptshop 598 Trường Chinh",
        "latitude": 10.80321,
        "longitude": 106.63604,
        "address": "Fptshop 598 Trường Chinh, 598 Đường Trường Chinh, Phường 13, Quận Tân Bình, Hồ Chí Minh, Việt Nam",
        "country_code": "VNM",
        "country_name": "Việt Nam",
        "city": "Hồ Chí Minh",
        "district": "Quận Tân Bình",
        "ward": "Phường 13",
        "street": "Đường Trường Chinh",
        "postal_code": "72110",
        "categories": [
            {
                "name": "Cửa hàng bán lẻ điện thoại di động"
            }
        ]
    },
    {
        "name": "Cửa Hàng Điện Thoại Oppo",
        "latitude": 10.80235,
        "longitude": 106.63485,
        "address": "Cửa Hàng Điện Thoại Oppo, 61 Đường Tân Sơn Nhì, Phường Tân Sơn Nhì, Quận Tân Phú, Hồ Chí Minh, Việt Nam",
        "country_code": "VNM",
        "country_name": "Việt Nam",
        "city": "Hồ Chí Minh",
        "district": "Quận Tân Phú",
        "ward": "Phường Tân Sơn Nhì",
        "street": "Đường Tân Sơn Nhì",
        "postal_code": "72008",
        "categories": [
            {
                "name": "Cửa hàng bán lẻ điện thoại di động"
            }
        ]
    },
    {
        "name": "Thegioitragop.Vn",
        "latitude": 10.80235,
        "longitude": 106.63485,
        "address": "Thegioitragop.Vn, 61 Đường Tân Sơn Nhì, Phường Tân Sơn Nhì, Quận Tân Phú, Hồ Chí Minh, Việt Nam",
        "country_code": "VNM",
        "country_name": "Việt Nam",
        "city": "Hồ Chí Minh",
        "district": "Quận Tân Phú",
        "ward": "Phường Tân Sơn Nhì",
        "street": "Đường Tân Sơn Nhì",
        "postal_code": "72008",
        "categories": [
            {
                "name": "Cửa hàng bán lẻ điện thoại di động"
            }
        ]
    },
    {
        "name": "Iphone Shop",
        "latitude": 10.80579,
        "longitude": 106.6084,
        "address": "Iphone Shop, 651 Đường CN1, Phường Bình Hưng Hòa, Quận Bình Tân, Hồ Chí Minh, Việt Nam",
        "country_code": "VNM",
        "country_name": "Việt Nam",
        "city": "Hồ Chí Minh",
        "district": "Quận Bình Tân",
        "ward": "Phường Bình Hưng Hòa",
        "street": "Đường CN1",
        "postal_code": "71913",
        "categories": [
            {
                "name": "Quần áo & Phụ kiện"
            },
            {
                "name": "Cửa hàng bán lẻ điện thoại di động"
            },
            {
                "name": "Dịch vụ kinh doanh"
            }
        ]
    },
    {
        "name": "Pkfone Store",
        "latitude": 10.83757,
        "longitude": 106.64584,
        "address": "Pkfone Store, 782 Đường Phạm Văn Bạch, Phường 12, Quận Gò Vấp, Hồ Chí Minh, Việt Nam",
        "country_code": "VNM",
        "country_name": "Việt Nam",
        "city": "Hồ Chí Minh",
        "district": "Quận Gò Vấp",
        "ward": "Phường 12",
        "street": "Đường Phạm Văn Bạch",
        "postal_code": "71420",
        "categories": [
            {
                "name": "Cửa hàng bán lẻ điện thoại di động"
            },
            {
                "name": "Thợ kim hoàn"
            }
        ]
    },
    {
        "name": "Blackberryhcm",
        "latitude": 10.83757,
        "longitude": 106.64584,
        "address": "Blackberryhcm, 782 Đường Phạm Văn Bạch, Phường 12, Quận Gò Vấp, Hồ Chí Minh, Việt Nam",
        "country_code": "VNM",
        "country_name": "Việt Nam",
        "city": "Hồ Chí Minh",
        "district": "Quận Gò Vấp",
        "ward": "Phường 12",
        "street": "Đường Phạm Văn Bạch",
        "postal_code": "71420",
        "categories": [
            {
                "name": "Quần áo & Phụ kiện"
            },
            {
                "name": "Cửa hàng bán lẻ điện thoại di động"
            }
        ]
    },
    {
        "name": "Gs Shop",
        "latitude": 10.8051,
        "longitude": 106.64049,
        "address": "Gs Shop, 32 Hẻm 62 Nhất Chi Mai, Phường 13, Quận Tân Bình, Hồ Chí Minh, Việt Nam",
        "country_code": "VNM",
        "country_name": "Việt Nam",
        "city": "Hồ Chí Minh",
        "district": "Quận Tân Bình",
        "ward": "Phường 13",
        "street": "Hẻm 62 Nhất Chi Mai",
        "postal_code": "72110",
        "categories": [
            {
                "name": "Quần áo & Phụ kiện"
            },
            {
                "name": "Cửa hàng bán lẻ điện thoại di động"
            }
        ]
    },
    {
        "name": "Siêu Thị Điện Thoại Viettel",
        "latitude": 10.84286,
        "longitude": 106.64211,
        "address": "Siêu Thị Điện Thoại Viettel, Đường Quang Trung, Phường 12, Quận Gò Vấp, Hồ Chí Minh, Việt Nam",
        "country_code": "VNM",
        "country_name": "Việt Nam",
        "city": "Hồ Chí Minh",
        "district": "Quận Gò Vấp",
        "ward": "Phường 12",
        "street": "Đường Quang Trung",
        "postal_code": "71420",
        "categories": [
            {
                "name": "Cửa hàng bán lẻ điện thoại di động"
            },
            {
                "name": "Cửa hàng điện tử gia dụng"
            }
        ]
    },
    {
        "name": "Kinh Doanh Điện Thoại Di Động - Tâm Mobile",
        "latitude": 10.79963,
        "longitude": 106.6283,
        "address": "Kinh Doanh Điện Thoại Di Động - Tâm Mobile, Hẻm 5 Đường Hoa Bằng, Phường Tân Sơn Nhì, Quận Tân Phú, Hồ Chí Minh, Việt Nam",
        "country_code": "VNM",
        "country_name": "Việt Nam",
        "city": "Hồ Chí Minh",
        "district": "Quận Tân Phú",
        "ward": "Phường Tân Sơn Nhì",
        "street": "Hẻm 5 Đường Hoa Bằng",
        "postal_code": "72008",
        "categories": [
            {
                "name": "Cửa hàng điện tử"
            },
            {
                "name": "Cửa hàng bán lẻ điện thoại di động"
            }
        ]
    },
    {
        "name": "Tiến Pro Mobile",
        "latitude": 10.80518,
        "longitude": 106.64161,
        "address": "Tiến Pro Mobile, Đường Nguyễn Đức Thuận, Phường 13, Quận Tân Bình, Hồ Chí Minh, Việt Nam",
        "country_code": "VNM",
        "country_name": "Việt Nam",
        "city": "Hồ Chí Minh",
        "district": "Quận Tân Bình",
        "ward": "Phường 13",
        "street": "Đường Nguyễn Đức Thuận",
        "postal_code": "72110",
        "categories": [
            {
                "name": "Cửa hàng bán lẻ điện thoại di động"
            }
        ]
    },
    {
        "name": "Tuấn Unlock",
        "latitude": 10.80893,
        "longitude": 106.64531,
        "address": "Tuấn Unlock, Hẻm 56/5 Văn Chung, Phường 13, Quận Tân Bình, Hồ Chí Minh, Việt Nam",
        "country_code": "VNM",
        "country_name": "Việt Nam",
        "city": "Hồ Chí Minh",
        "district": "Quận Tân Bình",
        "ward": "Phường 13",
        "street": "Hẻm 56/5 Văn Chung",
        "postal_code": "72110",
        "categories": [
            {
                "name": "Cửa hàng bán lẻ điện thoại di động"
            }
        ]
    },
    {
        "name": "Cửa Hàng Điện Thoại Di Động HT Mobile",
        "latitude": 10.80129,
        "longitude": 106.63675,
        "address": "Cửa Hàng Điện Thoại Di Động HT Mobile, 991 Đường Âu Cơ, Phường Tân Sơn Nhì, Quận Tân Phú, Hồ Chí Minh, Việt Nam",
        "country_code": "VNM",
        "country_name": "Việt Nam",
        "city": "Hồ Chí Minh",
        "district": "Quận Tân Phú",
        "ward": "Phường Tân Sơn Nhì",
        "street": "Đường Âu Cơ",
        "postal_code": "72008",
        "categories": [
            {
                "name": "Cửa hàng bán lẻ điện thoại di động"
            }
        ]
    },
    {
        "name": "Thế Giới Di Động Chính Hãng",
        "latitude": 10.80257,
        "longitude": 106.63918,
        "address": "Thế Giới Di Động Chính Hãng, Đường Cộng Hòa, Phường 13, Quận Tân Bình, Hồ Chí Minh, Việt Nam",
        "country_code": "VNM",
        "country_name": "Việt Nam",
        "city": "Hồ Chí Minh",
        "district": "Quận Tân Bình",
        "ward": "Phường 13",
        "street": "Đường Cộng Hòa",
        "postal_code": "72110",
        "categories": [
            {
                "name": "Cửa hàng bán lẻ điện thoại di động"
            }
        ]
    },
    {
        "name": "Uno Mini Store",
        "latitude": 10.79866,
        "longitude": 106.61963,
        "address": "Uno Mini Store, 1 Đường Tân Quý, Phường Tân Quý, Quận Tân Phú, Hồ Chí Minh, Việt Nam",
        "country_code": "VNM",
        "country_name": "Việt Nam",
        "city": "Hồ Chí Minh",
        "district": "Quận Tân Phú",
        "ward": "Phường Tân Quý",
        "street": "Đường Tân Quý",
        "postal_code": "72011",
        "categories": [
            {
                "name": "Cửa hàng bán lẻ điện thoại di động"
            }
        ]
    },
    {
        "name": "Viettel Store",
        "latitude": 10.80117,
        "longitude": 106.63754,
        "address": "Viettel Store, Đường Trường Chinh, Phường 14, Quận Tân Bình, Hồ Chí Minh, Việt Nam",
        "country_code": "VNM",
        "country_name": "Việt Nam",
        "city": "Hồ Chí Minh",
        "district": "Quận Tân Bình",
        "ward": "Phường 14",
        "street": "Đường Trường Chinh",
        "postal_code": "72112",
        "categories": [
            {
                "name": "Cửa hàng bán lẻ điện thoại di động"
            },
            {
                "name": "Cửa hàng điện tử gia dụng"
            }
        ]
    },
    {
        "name": "Cửa Hàng Điện Thoại Di Động Thảo Duy",
        "latitude": 10.80079,
        "longitude": 106.63687,
        "address": "Cửa Hàng Điện Thoại Di Động Thảo Duy, 973 Đường Âu Cơ, Phường Tân Sơn Nhì, Quận Tân Phú, Hồ Chí Minh, Việt Nam",
        "country_code": "VNM",
        "country_name": "Việt Nam",
        "city": "Hồ Chí Minh",
        "district": "Quận Tân Phú",
        "ward": "Phường Tân Sơn Nhì",
        "street": "Đường Âu Cơ",
        "postal_code": "72008",
        "categories": [
            {
                "name": "Cửa hàng chuyên dụng"
            },
            {
                "name": "Cửa hàng điện tử gia dụng"
            },
            {
                "name": "Cửa hàng bán lẻ điện thoại di động"
            },
            {
                "name": "Cửa hàng bán đồ gia dụng/Nội thất"
            },
            {
                "name": "Dịch vụ kinh doanh"
            }
        ]
    },
    {
        "name": "Cửa Hàng Điện Thoại Di Động Trà My",
        "latitude": 10.80066,
        "longitude": 106.63684,
        "address": "Cửa Hàng Điện Thoại Di Động Trà My, 967A Đường Âu Cơ, Phường Tân Sơn Nhì, Quận Tân Phú, Hồ Chí Minh, Việt Nam",
        "country_code": "VNM",
        "country_name": "Việt Nam",
        "city": "Hồ Chí Minh",
        "district": "Quận Tân Phú",
        "ward": "Phường Tân Sơn Nhì",
        "street": "Đường Âu Cơ",
        "postal_code": "72008",
        "categories": [
            {
                "name": "Cửa hàng bán lẻ điện thoại di động"
            }
        ]
    },
    {
        "name": "Fptshop 98/4A Nguyễn Văn Quá, Quận 12",
        "latitude": 10.84902,
        "longitude": 106.63602,
        "address": "Fptshop 98/4A Nguyễn Văn Quá, Quận 12, Đường Nguyễn Văn Quá, Phường Đông Hưng Thuận, Quận 12, Hồ Chí Minh, Việt Nam",
        "country_code": "VNM",
        "country_name": "Việt Nam",
        "city": "Hồ Chí Minh",
        "district": "Quận 12",
        "ward": "Phường Đông Hưng Thuận",
        "street": "Đường Nguyễn Văn Quá",
        "postal_code": "71508",
        "categories": [
            {
                "name": "Cửa hàng bán lẻ điện thoại di động"
            }
        ]
    },
    {
        "name": "Nnow",
        "latitude": 10.80994,
        "longitude": 106.60149,
        "address": "Nnow, 5 Đường Số 3, Phường Bình Hưng Hòa, Quận Bình Tân, Hồ Chí Minh, Việt Nam",
        "country_code": "VNM",
        "country_name": "Việt Nam",
        "city": "Hồ Chí Minh",
        "district": "Quận Bình Tân",
        "ward": "Phường Bình Hưng Hòa",
        "street": "Đường Số 3",
        "postal_code": "71913",
        "categories": [
            {
                "name": "Cửa hàng điện tử"
            },
            {
                "name": "Cửa hàng bán lẻ điện thoại di động"
            },
            {
                "name": "Quần áo & Phụ kiện"
            }
        ]
    },
    {
        "name": "Cty Danh Tín TNHH Thương Mại Dịch Vụ",
        "latitude": 10.80844,
        "longitude": 106.64672,
        "address": "Cty Danh Tín TNHH Thương Mại Dịch Vụ, Hẻm 14 Đường Văn Chung, Phường 13, Quận Tân Bình, Hồ Chí Minh, Việt Nam",
        "country_code": "VNM",
        "country_name": "Việt Nam",
        "city": "Hồ Chí Minh",
        "district": "Quận Tân Bình",
        "ward": "Phường 13",
        "street": "Hẻm 14 Đường Văn Chung",
        "postal_code": "72110",
        "categories": [
            {
                "name": "Cửa hàng bán lẻ điện thoại di động"
            }
        ]
    },
    {
        "name": "Anh7 Hitek",
        "latitude": 10.79921,
        "longitude": 106.63534,
        "address": "Anh7 Hitek, 3 Đường Nguyễn Văn Săng, Phường Tân Sơn Nhì, Quận Tân Phú, Hồ Chí Minh, Việt Nam",
        "country_code": "VNM",
        "country_name": "Việt Nam",
        "city": "Hồ Chí Minh",
        "district": "Quận Tân Phú",
        "ward": "Phường Tân Sơn Nhì",
        "street": "Đường Nguyễn Văn Săng",
        "postal_code": "72008",
        "categories": [
            {
                "name": "Cửa hàng bán lẻ điện thoại di động"
            }
        ]
    },
    {
        "name": "Callcenter Thegioididong.Com",
        "latitude": 10.80879,
        "longitude": 106.6477,
        "address": "Callcenter Thegioididong.Com, Đường Trần Văn Danh, Phường 13, Quận Tân Bình, Hồ Chí Minh, Việt Nam",
        "country_code": "VNM",
        "country_name": "Việt Nam",
        "city": "Hồ Chí Minh",
        "district": "Quận Tân Bình",
        "ward": "Phường 13",
        "street": "Đường Trần Văn Danh",
        "postal_code": "72110",
        "categories": [
            {
                "name": "Cửa hàng bán lẻ điện thoại di động"
            }
        ]
    },
    {
        "name": "Hệ Thống Điện Thoại Cầm Đồ Phúc Khang Mobilepro",
        "latitude": 10.79964,
        "longitude": 106.63717,
        "address": "Hệ Thống Điện Thoại Cầm Đồ Phúc Khang Mobilepro, 935 Đường Âu Cơ, Phường Tân Sơn Nhì, Quận Tân Phú, Hồ Chí Minh, Việt Nam",
        "country_code": "VNM",
        "country_name": "Việt Nam",
        "city": "Hồ Chí Minh",
        "district": "Quận Tân Phú",
        "ward": "Phường Tân Sơn Nhì",
        "street": "Đường Âu Cơ",
        "postal_code": "72008",
        "categories": [
            {
                "name": "Cửa hàng bán lẻ điện thoại di động"
            }
        ]
    },
    {
        "name": "Cửa Hàng ĐTDĐ Toàn Cầu",
        "latitude": 10.79793,
        "longitude": 106.6157,
        "address": "Cửa Hàng ĐTDĐ Toàn Cầu, 488 Đường Tân Kỳ Tân Quý, Phường Tân Quý, Quận Tân Phú, Hồ Chí Minh, Việt Nam",
        "country_code": "VNM",
        "country_name": "Việt Nam",
        "city": "Hồ Chí Minh",
        "district": "Quận Tân Phú",
        "ward": "Phường Tân Quý",
        "street": "Đường Tân Kỳ Tân Quý",
        "postal_code": "72011",
        "categories": [
            {
                "name": "Cửa hàng bán lẻ điện thoại di động"
            }
        ]
    },
    {
        "name": "Nguyễn Mobile",
        "latitude": 10.84723,
        "longitude": 106.64165,
        "address": "Nguyễn Mobile, 80 Hẻm 49 Đường Số 51, Phường 14, Quận Gò Vấp, Hồ Chí Minh, Việt Nam",
        "country_code": "VNM",
        "country_name": "Việt Nam",
        "city": "Hồ Chí Minh",
        "district": "Quận Gò Vấp",
        "ward": "Phường 14",
        "street": "Hẻm 49 Đường Số 51",
        "postal_code": "71418",
        "categories": [
            {
                "name": "Cửa hàng bán lẻ điện thoại di động"
            }
        ]
    },
    {
        "name": "Doanh Nghiệp Tư Nhân Đăng Khoa",
        "latitude": 10.83878,
        "longitude": 106.64937,
        "address": "Doanh Nghiệp Tư Nhân Đăng Khoa, Đường Quang Trung, Phường 8, Quận Gò Vấp, Hồ Chí Minh, Việt Nam",
        "country_code": "VNM",
        "country_name": "Việt Nam",
        "city": "Hồ Chí Minh",
        "district": "Quận Gò Vấp",
        "ward": "Phường 8",
        "street": "Đường Quang Trung",
        "postal_code": "71419",
        "categories": [
            {
                "name": "Cửa hàng bán lẻ điện thoại di động"
            }
        ]
    },
    {
        "name": "Tai Nghe Loa Chính Hãng Giá Rẻ - Cận Audio",
        "latitude": 10.80743,
        "longitude": 106.64794,
        "address": "Tai Nghe Loa Chính Hãng Giá Rẻ - Cận Audio, 279 Hẻm 158 Hoàng Hoa Thám, Phường 12, Quận Tân Bình, Hồ Chí Minh, Việt Nam",
        "country_code": "VNM",
        "country_name": "Việt Nam",
        "city": "Hồ Chí Minh",
        "district": "Quận Tân Bình",
        "ward": "Phường 12",
        "street": "Hẻm 158 Hoàng Hoa Thám",
        "postal_code": "72111",
        "categories": [
            {
                "name": "Quần áo & Phụ kiện"
            },
            {
                "name": "Cửa hàng bán lẻ điện thoại di động"
            }
        ]
    },
    {
        "name": "Thay Kính-Màn Hình Điện Thoại Quận Tân Phú",
        "latitude": 10.79562,
        "longitude": 106.62076,
        "address": "Thay Kính-Màn Hình Điện Thoại Quận Tân Phú, Đường Gò Dầu, Phường Tân Quý, Quận Tân Phú, Hồ Chí Minh, Việt Nam",
        "country_code": "VNM",
        "country_name": "Việt Nam",
        "city": "Hồ Chí Minh",
        "district": "Quận Tân Phú",
        "ward": "Phường Tân Quý",
        "street": "Đường Gò Dầu",
        "postal_code": "72011",
        "categories": [
            {
                "name": "Cửa hàng bán lẻ điện thoại di động"
            },
            {
                "name": "Dịch vụ kinh doanh"
            }
        ]
    },
    {
        "name": "Black And White 70 Gò Dầu",
        "latitude": 10.7951,
        "longitude": 106.62535,
        "address": "Black And White 70 Gò Dầu, Hẻm 95 Gò Dầu, Phường Tân Quý, Quận Tân Phú, Hồ Chí Minh, Việt Nam",
        "country_code": "VNM",
        "country_name": "Việt Nam",
        "city": "Hồ Chí Minh",
        "district": "Quận Tân Phú",
        "ward": "Phường Tân Quý",
        "street": "Hẻm 95 Gò Dầu",
        "postal_code": "72011",
        "categories": [
            {
                "name": "Cửa hàng bán lẻ điện thoại di động"
            }
        ]
    },
    {
        "name": "Chợ Apple",
        "latitude": 10.80202,
        "longitude": 106.64426,
        "address": "Chợ Apple, 279-281 Đường Cộng Hòa, Phường 13, Quận Tân Bình, Hồ Chí Minh, Việt Nam",
        "country_code": "VNM",
        "country_name": "Việt Nam",
        "city": "Hồ Chí Minh",
        "district": "Quận Tân Bình",
        "ward": "Phường 13",
        "street": "Đường Cộng Hòa",
        "postal_code": "72110",
        "categories": [
            {
                "name": "Cửa hàng bán lẻ điện thoại di động"
            },
            {
                "name": "Hàng tiêu dùng"
            }
        ]
    },
    {
        "name": "Điện Thoại Vỏ Gỗ Bình Dương",
        "latitude": 10.79474,
        "longitude": 106.62783,
        "address": "Điện Thoại Vỏ Gỗ Bình Dương, Hẻm 33 Gò Dầu, Phường Tân Quý, Quận Tân Phú, Hồ Chí Minh, Việt Nam",
        "country_code": "VNM",
        "country_name": "Việt Nam",
        "city": "Hồ Chí Minh",
        "district": "Quận Tân Phú",
        "ward": "Phường Tân Quý",
        "street": "Hẻm 33 Gò Dầu",
        "postal_code": "72011",
        "categories": [
            {
                "name": "Cửa hàng bán lẻ điện thoại di động"
            }
        ]
    },
    {
        "name": "Cell Phone Services",
        "latitude": 10.79453,
        "longitude": 106.62082,
        "address": "Cell Phone Services, Hẻm 143 Gò Dầu, Phường Tân Quý, Quận Tân Phú, Hồ Chí Minh, Việt Nam",
        "country_code": "VNM",
        "country_name": "Việt Nam",
        "city": "Hồ Chí Minh",
        "district": "Quận Tân Phú",
        "ward": "Phường Tân Quý",
        "street": "Hẻm 143 Gò Dầu",
        "postal_code": "72011",
        "categories": [
            {
                "name": "Quần áo & Phụ kiện"
            },
            {
                "name": "Cửa hàng bán lẻ điện thoại di động"
            }
        ]
    },
    {
        "name": "X Store Sg",
        "latitude": 10.79472,
        "longitude": 106.61653,
        "address": "X Store Sg, 98 Đường Dương Văn Dương, Phường Tân Quý, Quận Tân Phú, Hồ Chí Minh, Việt Nam",
        "country_code": "VNM",
        "country_name": "Việt Nam",
        "city": "Hồ Chí Minh",
        "district": "Quận Tân Phú",
        "ward": "Phường Tân Quý",
        "street": "Đường Dương Văn Dương",
        "postal_code": "72011",
        "categories": [
            {
                "name": "Cửa hàng bán lẻ điện thoại di động"
            }
        ]
    },
    {
        "name": "Vien Thong A Nguyen Thi Tu",
        "latitude": 10.81551,
        "longitude": 106.59406,
        "address": "Vien Thong A Nguyen Thi Tu, Đường Số 3, Phường Bình Hưng Hòa B, Quận Bình Tân, Hồ Chí Minh, Việt Nam",
        "country_code": "VNM",
        "country_name": "Việt Nam",
        "city": "Hồ Chí Minh",
        "district": "Quận Bình Tân",
        "ward": "Phường Bình Hưng Hòa B",
        "street": "Đường Số 3",
        "postal_code": "71914",
        "categories": [
            {
                "name": "Cửa hàng bán lẻ điện thoại di động"
            }
        ]
    },
    {
        "name": "Viettel Telecom",
        "latitude": 10.79894,
        "longitude": 106.60611,
        "address": "Viettel Telecom, Đường 26 Tháng 3, Phường Bình Hưng Hòa, Quận Bình Tân, Hồ Chí Minh, Việt Nam",
        "country_code": "VNM",
        "country_name": "Việt Nam",
        "city": "Hồ Chí Minh",
        "district": "Quận Bình Tân",
        "ward": "Phường Bình Hưng Hòa",
        "street": "Đường 26 Tháng 3",
        "postal_code": "71913",
        "categories": [
            {
                "name": "Cửa hàng bán lẻ điện thoại di động"
            },
            {
                "name": "Cửa hàng điện tử gia dụng"
            }
        ]
    },
    {
        "name": "Cty TNHH TM Gia Kiên",
        "latitude": 10.79592,
        "longitude": 106.63812,
        "address": "Cty TNHH TM Gia Kiên, 849 Đường Âu Cơ, Phường Tân Sơn Nhì, Quận Tân Phú, Hồ Chí Minh, Việt Nam",
        "country_code": "VNM",
        "country_name": "Việt Nam",
        "city": "Hồ Chí Minh",
        "district": "Quận Tân Phú",
        "ward": "Phường Tân Sơn Nhì",
        "street": "Đường Âu Cơ",
        "postal_code": "72008",
        "categories": [
            {
                "name": "Cửa hàng bán lẻ điện thoại di động"
            }
        ]
    },
    {
        "name": "Cửa Hàng Thu Cước Và Dịch Vụ Viettel",
        "latitude": 10.84619,
        "longitude": 106.60016,
        "address": "Cửa Hàng Thu Cước Và Dịch Vụ Viettel, Đường Nguyễn Ảnh Thủ, Xã Bà Điểm, Huyện Hóc Môn, Hồ Chí Minh, Việt Nam",
        "country_code": "VNM",
        "country_name": "Việt Nam",
        "city": "Hồ Chí Minh",
        "district": "Huyện Hóc Môn",
        "ward": "Xã Bà Điểm",
        "street": "Đường Nguyễn Ảnh Thủ",
        "postal_code": "71714",
        "categories": [
            {
                "name": "Cửa hàng bán lẻ điện thoại di động"
            }
        ]
    },
    {
        "name": "Smartphone Pin Khủng",
        "latitude": 10.79335,
        "longitude": 106.63331,
        "address": "Smartphone Pin Khủng, 153 Đường Thành Công, Phường Tân Thành, Quận Tân Phú, Hồ Chí Minh, Việt Nam",
        "country_code": "VNM",
        "country_name": "Việt Nam",
        "city": "Hồ Chí Minh",
        "district": "Quận Tân Phú",
        "ward": "Phường Tân Thành",
        "street": "Đường Thành Công",
        "postal_code": "72007",
        "categories": [
            {
                "name": "Cửa hàng bán lẻ điện thoại di động"
            }
        ]
    },
    {
        "name": "Di Động Gia",
        "latitude": 10.79335,
        "longitude": 106.63331,
        "address": "Di Động Gia, 153 Đường Thành Công, Phường Tân Thành, Quận Tân Phú, Hồ Chí Minh, Việt Nam",
        "country_code": "VNM",
        "country_name": "Việt Nam",
        "city": "Hồ Chí Minh",
        "district": "Quận Tân Phú",
        "ward": "Phường Tân Thành",
        "street": "Đường Thành Công",
        "postal_code": "72007",
        "categories": [
            {
                "name": "Cửa hàng bán lẻ điện thoại di động"
            }
        ]
    },
    {
        "name": "Smartphonestore.Vn",
        "latitude": 10.79335,
        "longitude": 106.63331,
        "address": "Smartphonestore.Vn, 153 Đường Thành Công, Phường Tân Thành, Quận Tân Phú, Hồ Chí Minh, Việt Nam",
        "country_code": "VNM",
        "country_name": "Việt Nam",
        "city": "Hồ Chí Minh",
        "district": "Quận Tân Phú",
        "ward": "Phường Tân Thành",
        "street": "Đường Thành Công",
        "postal_code": "72007",
        "categories": [
            {
                "name": "Cửa hàng bán lẻ điện thoại di động"
            }
        ]
    },
    {
        "name": "Viettel Store",
        "latitude": 10.79787,
        "longitude": 106.64422,
        "address": "Viettel Store, 304 Đường Trường Chinh, Phường 14, Quận Tân Bình, Hồ Chí Minh, Việt Nam",
        "country_code": "VNM",
        "country_name": "Việt Nam",
        "city": "Hồ Chí Minh",
        "district": "Quận Tân Bình",
        "ward": "Phường 14",
        "street": "Đường Trường Chinh",
        "postal_code": "72112",
        "categories": [
            {
                "name": "Cửa hàng bán lẻ điện thoại di động"
            },
            {
                "name": "Cửa hàng điện tử gia dụng"
            }
        ]
    },
    {
        "name": "Iphone Giá Gốc",
        "latitude": 10.85162,
        "longitude": 106.60367,
        "address": "Iphone Giá Gốc, Đường Nguyễn Ảnh Thủ, Xã Bà Điểm, Huyện Hóc Môn, Hồ Chí Minh, Việt Nam",
        "country_code": "VNM",
        "country_name": "Việt Nam",
        "city": "Hồ Chí Minh",
        "district": "Huyện Hóc Môn",
        "ward": "Xã Bà Điểm",
        "street": "Đường Nguyễn Ảnh Thủ",
        "postal_code": "71714",
        "categories": [
            {
                "name": "Cửa hàng bán lẻ điện thoại di động"
            }
        ]
    },
    {
        "name": "Phong Thuỷ Magic",
        "latitude": 10.79909,
        "longitude": 106.64716,
        "address": "Phong Thuỷ Magic, 31 Hẻm 19 Hoàng Hoa Thám, Phường 13, Quận Tân Bình, Hồ Chí Minh, Việt Nam",
        "country_code": "VNM",
        "country_name": "Việt Nam",
        "city": "Hồ Chí Minh",
        "district": "Quận Tân Bình",
        "ward": "Phường 13",
        "street": "Hẻm 19 Hoàng Hoa Thám",
        "postal_code": "72110",
        "categories": [
            {
                "name": "Quần áo & Phụ kiện"
            },
            {
                "name": "Cửa hàng bán lẻ điện thoại di động"
            }
        ]
    },
    {
        "name": "Thế Giới Di Động",
        "latitude": 10.85819,
        "longitude": 106.61888,
        "address": "Thế Giới Di Động, Đường Tô Ký, Phường Trung Mỹ Tây, Quận 12, Hồ Chí Minh, Việt Nam",
        "country_code": "VNM",
        "country_name": "Việt Nam",
        "city": "Hồ Chí Minh",
        "district": "Quận 12",
        "ward": "Phường Trung Mỹ Tây",
        "street": "Đường Tô Ký",
        "postal_code": "71507",
        "categories": [
            {
                "name": "Quần áo & Phụ kiện"
            },
            {
                "name": "Cửa hàng bán lẻ điện thoại di động"
            }
        ]
    },
    {
        "name": "Thay Kính Bảo Khang Q12",
        "latitude": 10.85549,
        "longitude": 106.63913,
        "address": "Thay Kính Bảo Khang Q12, Đường Nguyễn Văn Quá, Phường Đông Hưng Thuận, Quận 12, Hồ Chí Minh, Việt Nam",
        "country_code": "VNM",
        "country_name": "Việt Nam",
        "city": "Hồ Chí Minh",
        "district": "Quận 12",
        "ward": "Phường Đông Hưng Thuận",
        "street": "Đường Nguyễn Văn Quá",
        "postal_code": "71508",
        "categories": [
            {
                "name": "Cửa hàng bán lẻ điện thoại di động"
            }
        ]
    },
    {
        "name": "Mobi Fone Truong Chinh",
        "latitude": 10.79789,
        "longitude": 106.64602,
        "address": "Mobi Fone Truong Chinh, Hẻm 304 Đường Trường Chinh, Phường 13, Quận Tân Bình, Hồ Chí Minh, Việt Nam",
        "country_code": "VNM",
        "country_name": "Việt Nam",
        "city": "Hồ Chí Minh",
        "district": "Quận Tân Bình",
        "ward": "Phường 13",
        "street": "Hẻm 304 Đường Trường Chinh",
        "postal_code": "72110",
        "categories": [
            {
                "name": "Cửa hàng bán lẻ điện thoại di động"
            }
        ]
    },
    {
        "name": "Fptshop 235 Tân Hương, Tân Phú, HCM",
        "latitude": 10.78999,
        "longitude": 106.62214,
        "address": "Fptshop 235 Tân Hương, Tân Phú, HCM, 235 Đường Tân Hương, Phường Tân Quý, Quận Tân Phú, Hồ Chí Minh, Việt Nam",
        "country_code": "VNM",
        "country_name": "Việt Nam",
        "city": "Hồ Chí Minh",
        "district": "Quận Tân Phú",
        "ward": "Phường Tân Quý",
        "street": "Đường Tân Hương",
        "postal_code": "72011",
        "categories": [
            {
                "name": "Cửa hàng bán lẻ điện thoại di động"
            },
            {
                "name": "Cửa hàng điện tử gia dụng"
            }
        ]
    },
    {
        "name": "Đăng Khánh Mobile - Chuyên Táo Giá Rẻ",
        "latitude": 10.79488,
        "longitude": 106.60605,
        "address": "Đăng Khánh Mobile - Chuyên Táo Giá Rẻ, Hẻm 206 Đường Số 8, Phường Bình Hưng Hòa, Quận Bình Tân, Hồ Chí Minh, Việt Nam",
        "country_code": "VNM",
        "country_name": "Việt Nam",
        "city": "Hồ Chí Minh",
        "district": "Quận Bình Tân",
        "ward": "Phường Bình Hưng Hòa",
        "street": "Hẻm 206 Đường Số 8",
        "postal_code": "71913",
        "categories": [
            {
                "name": "Cửa hàng bán lẻ điện thoại di động"
            }
        ]
    },
    {
        "name": "Nokia Cổ Giá Rẻ",
        "latitude": 10.79197,
        "longitude": 106.63736,
        "address": "Nokia Cổ Giá Rẻ, 89 Đường Nguyễn Thái Học, Phường Tân Thành, Quận Tân Phú, Hồ Chí Minh, Việt Nam",
        "country_code": "VNM",
        "country_name": "Việt Nam",
        "city": "Hồ Chí Minh",
        "district": "Quận Tân Phú",
        "ward": "Phường Tân Thành",
        "street": "Đường Nguyễn Thái Học",
        "postal_code": "72007",
        "categories": [
            {
                "name": "Cửa hàng bán lẻ điện thoại di động"
            }
        ]
    },
    {
        "name": "Hq Mobile",
        "latitude": 10.78947,
        "longitude": 106.62657,
        "address": "Hq Mobile, 118 Đường Tân Hương, Phường Tân Quý, Quận Tân Phú, Hồ Chí Minh, Việt Nam",
        "country_code": "VNM",
        "country_name": "Việt Nam",
        "city": "Hồ Chí Minh",
        "district": "Quận Tân Phú",
        "ward": "Phường Tân Quý",
        "street": "Đường Tân Hương",
        "postal_code": "72011",
        "categories": [
            {
                "name": "Cửa hàng bán lẻ điện thoại di động"
            },
            {
                "name": "Phần mềm và phần cứng máy tính"
            }
        ]
    },
    {
        "name": "Việc Làm Realme Hồ Chí Minh 2",
        "latitude": 10.80052,
        "longitude": 106.65106,
        "address": "Việc Làm Realme Hồ Chí Minh 2, 49 Đường Lê Trung Nghĩa, Phường 12, Quận Tân Bình, Hồ Chí Minh, Việt Nam",
        "country_code": "VNM",
        "country_name": "Việt Nam",
        "city": "Hồ Chí Minh",
        "district": "Quận Tân Bình",
        "ward": "Phường 12",
        "street": "Đường Lê Trung Nghĩa",
        "postal_code": "72111",
        "categories": [
            {
                "name": "Cửa hàng bán lẻ điện thoại di động"
            },
            {
                "name": "Dịch vụ nguồn nhân lực & tuyển dụng"
            }
        ]
    },
    {
        "name": "Iphone 3gs",
        "latitude": 10.85973,
        "longitude": 106.63061,
        "address": "Iphone 3gs, Đường Dương Thị Mười, Phường Tân Chánh Hiệp, Quận 12, Hồ Chí Minh, Việt Nam",
        "country_code": "VNM",
        "country_name": "Việt Nam",
        "city": "Hồ Chí Minh",
        "district": "Quận 12",
        "ward": "Phường Tân Chánh Hiệp",
        "street": "Đường Dương Thị Mười",
        "postal_code": "71506",
        "categories": [
            {
                "name": "Cửa hàng bán lẻ điện thoại di động"
            }
        ]
    },
    {
        "name": "Viettel Store",
        "latitude": 10.85672,
        "longitude": 106.60826,
        "address": "Viettel Store, 1C Hẻm 154 Nguyễn Ảnh Thủ, Phường Trung Mỹ Tây, Quận 12, Hồ Chí Minh, Việt Nam",
        "country_code": "VNM",
        "country_name": "Việt Nam",
        "city": "Hồ Chí Minh",
        "district": "Quận 12",
        "ward": "Phường Trung Mỹ Tây",
        "street": "Hẻm 154 Nguyễn Ảnh Thủ",
        "postal_code": "71507",
        "categories": [
            {
                "name": "Cửa hàng bán lẻ điện thoại di động"
            },
            {
                "name": "Cửa hàng điện tử gia dụng"
            }
        ]
    },
    {
        "name": "Viettel",
        "latitude": 10.78814,
        "longitude": 106.62901,
        "address": "Viettel, Đường Vườn Lài, Phường Tân Thành, Quận Tân Phú, Hồ Chí Minh, Việt Nam",
        "country_code": "VNM",
        "country_name": "Việt Nam",
        "city": "Hồ Chí Minh",
        "district": "Quận Tân Phú",
        "ward": "Phường Tân Thành",
        "street": "Đường Vườn Lài",
        "postal_code": "72007",
        "categories": [
            {
                "name": "Cửa hàng bán lẻ điện thoại di động"
            },
            {
                "name": "Cửa hàng điện tử gia dụng"
            }
        ]
    },
    {
        "name": "Khang Phát Mobile",
        "latitude": 10.84984,
        "longitude": 106.65173,
        "address": "Khang Phát Mobile, 316 Đường Phạm Văn Chiêu, Phường 9, Quận Gò Vấp, Hồ Chí Minh, Việt Nam",
        "country_code": "VNM",
        "country_name": "Việt Nam",
        "city": "Hồ Chí Minh",
        "district": "Quận Gò Vấp",
        "ward": "Phường 9",
        "street": "Đường Phạm Văn Chiêu",
        "postal_code": "71417",
        "categories": [
            {
                "name": "Cửa hàng bán lẻ điện thoại di động"
            },
            {
                "name": "Cửa hàng điện tử gia dụng"
            }
        ]
    },
    {
        "name": "Itshop",
        "latitude": 10.80103,
        "longitude": 106.65325,
        "address": "Itshop, 20 Đường Cộng Hòa, Phường 12, Quận Tân Bình, Hồ Chí Minh, Việt Nam",
        "country_code": "VNM",
        "country_name": "Việt Nam",
        "city": "Hồ Chí Minh",
        "district": "Quận Tân Bình",
        "ward": "Phường 12",
        "street": "Đường Cộng Hòa",
        "postal_code": "72111",
        "categories": [
            {
                "name": "Quần áo & Phụ kiện"
            },
            {
                "name": "Cửa hàng bán lẻ điện thoại di động"
            }
        ]
    },
    {
        "name": "Cửa Hàng ĐTDĐ DK",
        "latitude": 10.78828,
        "longitude": 106.61855,
        "address": "Cửa Hàng ĐTDĐ DK, 202 Đường Lê Thúc Hoạch, Phường Tân Quý, Quận Tân Phú, Hồ Chí Minh, Việt Nam",
        "country_code": "VNM",
        "country_name": "Việt Nam",
        "city": "Hồ Chí Minh",
        "district": "Quận Tân Phú",
        "ward": "Phường Tân Quý",
        "street": "Đường Lê Thúc Hoạch",
        "postal_code": "72011",
        "categories": [
            {
                "name": "Cửa hàng bán lẻ điện thoại di động"
            }
        ]
    },
    {
        "name": "Ốp Lưng Liên Quân Mobile Garena Đẹp Giá Rẻ",
        "latitude": 10.78786,
        "longitude": 106.63024,
        "address": "Ốp Lưng Liên Quân Mobile Garena Đẹp Giá Rẻ, Hẻm 195 Vườn Lài, Phường Phú Thọ Hòa, Quận Tân Phú, Hồ Chí Minh, Việt Nam",
        "country_code": "VNM",
        "country_name": "Việt Nam",
        "city": "Hồ Chí Minh",
        "district": "Quận Tân Phú",
        "ward": "Phường Phú Thọ Hòa",
        "street": "Hẻm 195 Vườn Lài",
        "postal_code": "72012",
        "categories": [
            {
                "name": "Cửa hàng bán lẻ điện thoại di động"
            }
        ]
    },
    {
        "name": "Baseus Việt Nam",
        "latitude": 10.78922,
        "longitude": 106.6367,
        "address": "Baseus Việt Nam, Đường Cách Mạng, Phường Tân Thành, Quận Tân Phú, Hồ Chí Minh, Việt Nam",
        "country_code": "VNM",
        "country_name": "Việt Nam",
        "city": "Hồ Chí Minh",
        "district": "Quận Tân Phú",
        "ward": "Phường Tân Thành",
        "street": "Đường Cách Mạng",
        "postal_code": "72007",
        "categories": [
            {
                "name": "Quần áo & Phụ kiện"
            },
            {
                "name": "Cửa hàng bán lẻ điện thoại di động"
            }
        ]
    },
    {
        "name": "Thinh Mobile - Cơ Sở Hồ Chí Minh",
        "latitude": 10.78922,
        "longitude": 106.63678,
        "address": "Thinh Mobile - Cơ Sở Hồ Chí Minh, Đường Cách Mạng, Phường Tân Thành, Quận Tân Phú, Hồ Chí Minh, Việt Nam",
        "country_code": "VNM",
        "country_name": "Việt Nam",
        "city": "Hồ Chí Minh",
        "district": "Quận Tân Phú",
        "ward": "Phường Tân Thành",
        "street": "Đường Cách Mạng",
        "postal_code": "72007",
        "categories": [
            {
                "name": "Cửa hàng bán lẻ điện thoại di động"
            }
        ]
    },
    {
        "name": "Toha.Com.VN - Trung Tâm Sửa Chữa Điện Thoại Ép Kính Thay Màn Hình",
        "latitude": 10.78808,
        "longitude": 106.63356,
        "address": "Toha.Com.VN - Trung Tâm Sửa Chữa Điện Thoại Ép Kính Thay Màn Hình, 139 Đường Nguyễn Xuân Khoát, Phường Tân Thành, Quận Tân Phú, Hồ Chí Minh, Việt Nam",
        "country_code": "VNM",
        "country_name": "Việt Nam",
        "city": "Hồ Chí Minh",
        "district": "Quận Tân Phú",
        "ward": "Phường Tân Thành",
        "street": "Đường Nguyễn Xuân Khoát",
        "postal_code": "72007",
        "categories": [
            {
                "name": "Cửa hàng bán lẻ điện thoại di động"
            },
            {
                "name": "Dịch vụ sửa chữa"
            }
        ]
    },
    {
        "name": "SONY Center",
        "latitude": 10.79196,
        "longitude": 106.64407,
        "address": "SONY Center, Đường Đồng Đen, Phường 12, Quận Tân Bình, Hồ Chí Minh, Việt Nam",
        "country_code": "VNM",
        "country_name": "Việt Nam",
        "city": "Hồ Chí Minh",
        "district": "Quận Tân Bình",
        "ward": "Phường 12",
        "street": "Đường Đồng Đen",
        "postal_code": "72111",
        "categories": [
            {
                "name": "Cửa hàng bán lẻ điện thoại di động"
            }
        ]
    },
    {
        "name": "Siêu Thị Thế Giới Di Động",
        "latitude": 10.85038,
        "longitude": 106.65299,
        "address": "Siêu Thị Thế Giới Di Động, Đường Phạm Văn Chiêu, Phường 9, Quận Gò Vấp, Hồ Chí Minh, Việt Nam",
        "country_code": "VNM",
        "country_name": "Việt Nam",
        "city": "Hồ Chí Minh",
        "district": "Quận Gò Vấp",
        "ward": "Phường 9",
        "street": "Đường Phạm Văn Chiêu",
        "postal_code": "71417",
        "categories": [
            {
                "name": "Cửa hàng bán lẻ điện thoại di động"
            }
        ]
    }
]
