[
    {
        "name": "Câu Lạc Bộ Quần Vợt Phước Thịnh",
        "latitude": 10.82503,
        "longitude": 106.62585,
        "address": "Câu Lạc Bộ Quần Vợt Phước Thịnh, Đường Tân Thới Nhất 17, Phường Tân Thới Nhất, Quận 12, Hồ Chí Minh, Việt Nam",
        "country_code": "VNM",
        "country_name": "Việt Nam",
        "city": "Hồ Chí Minh",
        "district": "Quận 12",
        "ward": "Phường Tân Thới Nhất",
        "street": "Đường Tân Thới Nhất 17",
        "postal_code": "71510",
        "categories": [
            {
                "name": "Quần áo & Phụ kiện"
            }
        ]
    },
    {
        "name": "Shop Quần Áo Thời Trang Quỳnh Anh",
        "latitude": 10.824,
        "longitude": 106.6227,
        "address": "Shop Quần Áo Thời Trang Quỳnh Anh, Đường Tân Thới Nhất 17, Phường Tân Thới Nhất, Quận 12, Hồ Chí Minh, Việt Nam",
        "country_code": "VNM",
        "country_name": "Việt Nam",
        "city": "Hồ Chí Minh",
        "district": "Quận 12",
        "ward": "Phường Tân Thới Nhất",
        "street": "Đường Tân Thới Nhất 17",
        "postal_code": "71510",
        "categories": [
            {
                "name": "Quần áo & Phụ kiện"
            }
        ]
    },
    {
        "name": "Tmg-083-Jh Bigc Tc",
        "latitude": 10.82624,
        "longitude": 106.6259,
        "address": "Tmg-083-Jh Bigc Tc, 11 Đường Trường Chinh, Phường Tân Thới Nhất, Quận 12, Hồ Chí Minh, Việt Nam",
        "country_code": "VNM",
        "country_name": "Việt Nam",
        "city": "Hồ Chí Minh",
        "district": "Quận 12",
        "ward": "Phường Tân Thới Nhất",
        "street": "Đường Trường Chinh",
        "postal_code": "71510",
        "categories": [
            {
                "name": "Quần áo & Phụ kiện"
            }
        ]
    },
    {
        "name": "Lê Trâm",
        "latitude": 10.82665,
        "longitude": 106.62379,
        "address": "Lê Trâm, 48 Hẻm 7 Đường Phan Văn Hớn, Phường Tân Thới Nhất, Quận 12, Hồ Chí Minh, Việt Nam",
        "country_code": "VNM",
        "country_name": "Việt Nam",
        "city": "Hồ Chí Minh",
        "district": "Quận 12",
        "ward": "Phường Tân Thới Nhất",
        "street": "Hẻm 7 Đường Phan Văn Hớn",
        "postal_code": "71510",
        "categories": [
            {
                "name": "Quần áo & Phụ kiện"
            },
            {
                "name": "Cửa hàng chuyên dụng"
            }
        ]
    },
    {
        "name": "Công Ty TNHH MTV TM DV May Mặc Rồng",
        "latitude": 10.82617,
        "longitude": 106.62295,
        "address": "Công Ty TNHH MTV TM DV May Mặc Rồng, Đường Phan Văn Hớn, Phường Tân Thới Nhất, Quận 12, Hồ Chí Minh, Việt Nam",
        "country_code": "VNM",
        "country_name": "Việt Nam",
        "city": "Hồ Chí Minh",
        "district": "Quận 12",
        "ward": "Phường Tân Thới Nhất",
        "street": "Đường Phan Văn Hớn",
        "postal_code": "71510",
        "categories": [
            {
                "name": "Quần áo & Phụ kiện"
            }
        ]
    },
    {
        "name": "Thời Trang Lovely",
        "latitude": 10.82653,
        "longitude": 106.62558,
        "address": "Thời Trang Lovely, Đường Trường Chinh, Phường Tân Thới Nhất, Quận 12, Hồ Chí Minh, Việt Nam",
        "country_code": "VNM",
        "country_name": "Việt Nam",
        "city": "Hồ Chí Minh",
        "district": "Quận 12",
        "ward": "Phường Tân Thới Nhất",
        "street": "Đường Trường Chinh",
        "postal_code": "71510",
        "categories": [
            {
                "name": "Quần áo & Phụ kiện"
            }
        ]
    },
    {
        "name": "Thời Trang Nữ Hạt Dẻ 2",
        "latitude": 10.82394,
        "longitude": 106.62234,
        "address": "Thời Trang Nữ Hạt Dẻ 2, Đường Tân Thới Nhất 21, Phường Tân Thới Nhất, Quận 12, Hồ Chí Minh, Việt Nam",
        "country_code": "VNM",
        "country_name": "Việt Nam",
        "city": "Hồ Chí Minh",
        "district": "Quận 12",
        "ward": "Phường Tân Thới Nhất",
        "street": "Đường Tân Thới Nhất 21",
        "postal_code": "71510",
        "categories": [
            {
                "name": "Quần áo & Phụ kiện"
            }
        ]
    },
    {
        "name": "Cua Hang Viet Tien",
        "latitude": 10.82397,
        "longitude": 106.62194,
        "address": "Cua Hang Viet Tien, Đường TTN 17, Phường Tân Thới Nhất, Quận 12, Hồ Chí Minh, Việt Nam",
        "country_code": "VNM",
        "country_name": "Việt Nam",
        "city": "Hồ Chí Minh",
        "district": "Quận 12",
        "ward": "Phường Tân Thới Nhất",
        "street": "Đường TTN 17",
        "postal_code": "71510",
        "categories": [
            {
                "name": "Quần áo & Phụ kiện"
            }
        ]
    },
    {
        "name": "Cty Vĩnh Phú TNHH May",
        "latitude": 10.82722,
        "longitude": 106.62485,
        "address": "Cty Vĩnh Phú TNHH May, 3 Đường Phan Văn Hớn, Phường Tân Thới Nhất, Quận 12, Hồ Chí Minh, Việt Nam",
        "country_code": "VNM",
        "country_name": "Việt Nam",
        "city": "Hồ Chí Minh",
        "district": "Quận 12",
        "ward": "Phường Tân Thới Nhất",
        "street": "Đường Phan Văn Hớn",
        "postal_code": "71510",
        "categories": [
            {
                "name": "Quần áo & Phụ kiện"
            }
        ]
    },
    {
        "name": "Dép Mang Trong Nhà",
        "latitude": 10.82712,
        "longitude": 106.62548,
        "address": "Dép Mang Trong Nhà, 84 Đường Trường Chinh, Phường Tân Hưng Thuận, Quận 12, Hồ Chí Minh, Việt Nam",
        "country_code": "VNM",
        "country_name": "Việt Nam",
        "city": "Hồ Chí Minh",
        "district": "Quận 12",
        "ward": "Phường Tân Hưng Thuận",
        "street": "Đường Trường Chinh",
        "postal_code": "71509",
        "categories": [
            {
                "name": "Quần áo & Phụ kiện"
            }
        ]
    },
    {
        "name": "Cửa Hàng Quần Áo Thời Trang E24 Store",
        "latitude": 10.82231,
        "longitude": 106.62307,
        "address": "Cửa Hàng Quần Áo Thời Trang E24 Store, 24 Đường B, Phường Tân Thới Nhất, Quận 12, Hồ Chí Minh, Việt Nam",
        "country_code": "VNM",
        "country_name": "Việt Nam",
        "city": "Hồ Chí Minh",
        "district": "Quận 12",
        "ward": "Phường Tân Thới Nhất",
        "street": "Đường B",
        "postal_code": "71510",
        "categories": [
            {
                "name": "Quần áo & Phụ kiện"
            }
        ]
    },
    {
        "name": "Thái Tuấn Fashion",
        "latitude": 10.82642,
        "longitude": 106.62657,
        "address": "Thái Tuấn Fashion, Đường Nguyễn Văn Quá, Phường Tân Hưng Thuận, Quận 12, Hồ Chí Minh, Việt Nam",
        "country_code": "VNM",
        "country_name": "Việt Nam",
        "city": "Hồ Chí Minh",
        "district": "Quận 12",
        "ward": "Phường Tân Hưng Thuận",
        "street": "Đường Nguyễn Văn Quá",
        "postal_code": "71509",
        "categories": [
            {
                "name": "Quần áo & Phụ kiện"
            }
        ]
    },
    {
        "name": "Anna Corner",
        "latitude": 10.82647,
        "longitude": 106.62657,
        "address": "Anna Corner, Đường Nguyễn Văn Quá, Phường Tân Hưng Thuận, Quận 12, Hồ Chí Minh, Việt Nam",
        "country_code": "VNM",
        "country_name": "Việt Nam",
        "city": "Hồ Chí Minh",
        "district": "Quận 12",
        "ward": "Phường Tân Hưng Thuận",
        "street": "Đường Nguyễn Văn Quá",
        "postal_code": "71509",
        "categories": [
            {
                "name": "Quần áo & Phụ kiện"
            }
        ]
    },
    {
        "name": "Lucy Silver",
        "latitude": 10.82753,
        "longitude": 106.62476,
        "address": "Lucy Silver, Đường Trường Chinh, Phường Tân Thới Nhất, Quận 12, Hồ Chí Minh, Việt Nam",
        "country_code": "VNM",
        "country_name": "Việt Nam",
        "city": "Hồ Chí Minh",
        "district": "Quận 12",
        "ward": "Phường Tân Thới Nhất",
        "street": "Đường Trường Chinh",
        "postal_code": "71510",
        "categories": [
            {
                "name": "Quần áo & Phụ kiện"
            }
        ]
    },
    {
        "name": "Sifa Fashion",
        "latitude": 10.82737,
        "longitude": 106.62551,
        "address": "Sifa Fashion, Đường Trường Chinh, Phường Tân Hưng Thuận, Quận 12, Hồ Chí Minh, Việt Nam",
        "country_code": "VNM",
        "country_name": "Việt Nam",
        "city": "Hồ Chí Minh",
        "district": "Quận 12",
        "ward": "Phường Tân Hưng Thuận",
        "street": "Đường Trường Chinh",
        "postal_code": "71509",
        "categories": [
            {
                "name": "Quần áo & Phụ kiện"
            }
        ]
    },
    {
        "name": "An Phuoc",
        "latitude": 10.82747,
        "longitude": 106.6254,
        "address": "An Phuoc, Đường Trường Chinh, Phường Tân Hưng Thuận, Quận 12, Hồ Chí Minh, Việt Nam",
        "country_code": "VNM",
        "country_name": "Việt Nam",
        "city": "Hồ Chí Minh",
        "district": "Quận 12",
        "ward": "Phường Tân Hưng Thuận",
        "street": "Đường Trường Chinh",
        "postal_code": "71509",
        "categories": [
            {
                "name": "Quần áo & Phụ kiện"
            }
        ]
    },
    {
        "name": "Vascara",
        "latitude": 10.82773,
        "longitude": 106.62463,
        "address": "Vascara, Đường Trường Chinh, Phường Tân Thới Nhất, Quận 12, Hồ Chí Minh, Việt Nam",
        "country_code": "VNM",
        "country_name": "Việt Nam",
        "city": "Hồ Chí Minh",
        "district": "Quận 12",
        "ward": "Phường Tân Thới Nhất",
        "street": "Đường Trường Chinh",
        "postal_code": "71510",
        "categories": [
            {
                "name": "Quần áo & Phụ kiện"
            }
        ]
    },
    {
        "name": "An Phước",
        "latitude": 10.82763,
        "longitude": 106.62534,
        "address": "An Phước, Đường Trường Chinh, Phường Tân Hưng Thuận, Quận 12, Hồ Chí Minh, Việt Nam",
        "country_code": "VNM",
        "country_name": "Việt Nam",
        "city": "Hồ Chí Minh",
        "district": "Quận 12",
        "ward": "Phường Tân Hưng Thuận",
        "street": "Đường Trường Chinh",
        "postal_code": "71509",
        "categories": [
            {
                "name": "Quần áo & Phụ kiện"
            }
        ]
    },
    {
        "name": "Rabbit's House",
        "latitude": 10.82156,
        "longitude": 106.62388,
        "address": "Rabbit's House, Đường C4, Phường Tân Thới Nhất, Quận 12, Hồ Chí Minh, Việt Nam",
        "country_code": "VNM",
        "country_name": "Việt Nam",
        "city": "Hồ Chí Minh",
        "district": "Quận 12",
        "ward": "Phường Tân Thới Nhất",
        "street": "Đường C4",
        "postal_code": "71510",
        "categories": [
            {
                "name": "Quần áo & Phụ kiện"
            }
        ]
    },
    {
        "name": "Áo Cưới Phương Uyên",
        "latitude": 10.82763,
        "longitude": 106.62344,
        "address": "Áo Cưới Phương Uyên, Đường Phan Văn Hớn, Phường Tân Thới Nhất, Quận 12, Hồ Chí Minh, Việt Nam",
        "country_code": "VNM",
        "country_name": "Việt Nam",
        "city": "Hồ Chí Minh",
        "district": "Quận 12",
        "ward": "Phường Tân Thới Nhất",
        "street": "Đường Phan Văn Hớn",
        "postal_code": "71510",
        "categories": [
            {
                "name": "Quần áo & Phụ kiện"
            },
            {
                "name": "Dịch vụ hôn lễ & cô dâu"
            }
        ]
    },
    {
        "name": "Áo Dài Khôi's",
        "latitude": 10.82766,
        "longitude": 106.62333,
        "address": "Áo Dài Khôi's, Đường Phan Văn Hớn, Phường Tân Thới Nhất, Quận 12, Hồ Chí Minh, Việt Nam",
        "country_code": "VNM",
        "country_name": "Việt Nam",
        "city": "Hồ Chí Minh",
        "district": "Quận 12",
        "ward": "Phường Tân Thới Nhất",
        "street": "Đường Phan Văn Hớn",
        "postal_code": "71510",
        "categories": [
            {
                "name": "Quần áo & Phụ kiện"
            }
        ]
    },
    {
        "name": "Gukids.VN - Con Là Tất Cả Của Cha Mẹ.",
        "latitude": 10.82719,
        "longitude": 106.62673,
        "address": "Gukids.VN - Con Là Tất Cả Của Cha Mẹ., Đường Nguyễn Văn Quá, Phường Tân Hưng Thuận, Quận 12, Hồ Chí Minh, Việt Nam",
        "country_code": "VNM",
        "country_name": "Việt Nam",
        "city": "Hồ Chí Minh",
        "district": "Quận 12",
        "ward": "Phường Tân Hưng Thuận",
        "street": "Đường Nguyễn Văn Quá",
        "postal_code": "71509",
        "categories": [
            {
                "name": "Quần áo & Phụ kiện"
            }
        ]
    },
    {
        "name": "Đồ Tập Yoga, Aerobic, Gym Nam Nữ",
        "latitude": 10.8278,
        "longitude": 106.62258,
        "address": "Đồ Tập Yoga, Aerobic, Gym Nam Nữ, 52 Đường Phan Văn Hớn, Phường Tân Thới Nhất, Quận 12, Hồ Chí Minh, Việt Nam",
        "country_code": "VNM",
        "country_name": "Việt Nam",
        "city": "Hồ Chí Minh",
        "district": "Quận 12",
        "ward": "Phường Tân Thới Nhất",
        "street": "Đường Phan Văn Hớn",
        "postal_code": "71510",
        "categories": [
            {
                "name": "Quần áo & Phụ kiện"
            }
        ]
    },
    {
        "name": "Lynhs Store Chuyên Đầm & Áo Dài",
        "latitude": 10.82811,
        "longitude": 106.62573,
        "address": "Lynhs Store Chuyên Đầm & Áo Dài, Đường Song Hành Quốc Lộ 22, Phường Tân Hưng Thuận, Quận 12, Hồ Chí Minh, Việt Nam",
        "country_code": "VNM",
        "country_name": "Việt Nam",
        "city": "Hồ Chí Minh",
        "district": "Quận 12",
        "ward": "Phường Tân Hưng Thuận",
        "street": "Đường Song Hành Quốc Lộ 22",
        "postal_code": "71509",
        "categories": [
            {
                "name": "Quần áo & Phụ kiện"
            }
        ]
    },
    {
        "name": "Cửa Hàng Thời Trang Trẻ Em Minh Anh",
        "latitude": 10.82795,
        "longitude": 106.6222,
        "address": "Cửa Hàng Thời Trang Trẻ Em Minh Anh, 58A Đường Phan Văn Hớn, Phường Tân Thới Nhất, Quận 12, Hồ Chí Minh, Việt Nam",
        "country_code": "VNM",
        "country_name": "Việt Nam",
        "city": "Hồ Chí Minh",
        "district": "Quận 12",
        "ward": "Phường Tân Thới Nhất",
        "street": "Đường Phan Văn Hớn",
        "postal_code": "71510",
        "categories": [
            {
                "name": "Quần áo & Phụ kiện"
            }
        ]
    },
    {
        "name": "Fashion Sang",
        "latitude": 10.82791,
        "longitude": 106.62209,
        "address": "Fashion Sang, 66 Đường Phan Văn Hớn, Phường Tân Thới Nhất, Quận 12, Hồ Chí Minh, Việt Nam",
        "country_code": "VNM",
        "country_name": "Việt Nam",
        "city": "Hồ Chí Minh",
        "district": "Quận 12",
        "ward": "Phường Tân Thới Nhất",
        "street": "Đường Phan Văn Hớn",
        "postal_code": "71510",
        "categories": [
            {
                "name": "Quần áo & Phụ kiện"
            },
            {
                "name": "Đền thờ"
            }
        ]
    },
    {
        "name": "Ngocanh2",
        "latitude": 10.82792,
        "longitude": 106.62203,
        "address": "Ngocanh2, 68 Đường Phan Văn Hớn, Phường Tân Thới Nhất, Quận 12, Hồ Chí Minh, Việt Nam",
        "country_code": "VNM",
        "country_name": "Việt Nam",
        "city": "Hồ Chí Minh",
        "district": "Quận 12",
        "ward": "Phường Tân Thới Nhất",
        "street": "Đường Phan Văn Hớn",
        "postal_code": "71510",
        "categories": [
            {
                "name": "Quần áo & Phụ kiện"
            }
        ]
    },
    {
        "name": "Pipi-Shop",
        "latitude": 10.82146,
        "longitude": 106.62178,
        "address": "Pipi-Shop, Đường Tân Thới Nhất 18, Phường Tân Thới Nhất, Quận 12, Hồ Chí Minh, Việt Nam",
        "country_code": "VNM",
        "country_name": "Việt Nam",
        "city": "Hồ Chí Minh",
        "district": "Quận 12",
        "ward": "Phường Tân Thới Nhất",
        "street": "Đường Tân Thới Nhất 18",
        "postal_code": "71510",
        "categories": [
            {
                "name": "Quần áo & Phụ kiện"
            }
        ]
    },
    {
        "name": "Shop Quần Áo Long Phương",
        "latitude": 10.82784,
        "longitude": 106.6217,
        "address": "Shop Quần Áo Long Phương, 51 Đường Phan Văn Hớn, Phường Tân Thới Nhất, Quận 12, Hồ Chí Minh, Việt Nam",
        "country_code": "VNM",
        "country_name": "Việt Nam",
        "city": "Hồ Chí Minh",
        "district": "Quận 12",
        "ward": "Phường Tân Thới Nhất",
        "street": "Đường Phan Văn Hớn",
        "postal_code": "71510",
        "categories": [
            {
                "name": "Quần áo & Phụ kiện"
            }
        ]
    },
    {
        "name": "Cong Ty Tnhh Mtv Psa",
        "latitude": 10.82401,
        "longitude": 106.62017,
        "address": "Cong Ty Tnhh Mtv Psa, 77 Đường Thị Giang, Phường Tân Thới Nhất, Quận 12, Hồ Chí Minh, Việt Nam",
        "country_code": "VNM",
        "country_name": "Việt Nam",
        "city": "Hồ Chí Minh",
        "district": "Quận 12",
        "ward": "Phường Tân Thới Nhất",
        "street": "Đường Thị Giang",
        "postal_code": "71510",
        "categories": [
            {
                "name": "Quần áo & Phụ kiện"
            }
        ]
    },
    {
        "name": "T & L",
        "latitude": 10.82839,
        "longitude": 106.62675,
        "address": "T & L, 73 Đường Nguyễn Văn Quá, Phường Tân Hưng Thuận, Quận 12, Hồ Chí Minh, Việt Nam",
        "country_code": "VNM",
        "country_name": "Việt Nam",
        "city": "Hồ Chí Minh",
        "district": "Quận 12",
        "ward": "Phường Tân Hưng Thuận",
        "street": "Đường Nguyễn Văn Quá",
        "postal_code": "71509",
        "categories": [
            {
                "name": "Quần áo & Phụ kiện"
            }
        ]
    },
    {
        "name": "Shop Thời Trang",
        "latitude": 10.82839,
        "longitude": 106.62675,
        "address": "Shop Thời Trang, 73 Đường Nguyễn Văn Quá, Phường Tân Hưng Thuận, Quận 12, Hồ Chí Minh, Việt Nam",
        "country_code": "VNM",
        "country_name": "Việt Nam",
        "city": "Hồ Chí Minh",
        "district": "Quận 12",
        "ward": "Phường Tân Hưng Thuận",
        "street": "Đường Nguyễn Văn Quá",
        "postal_code": "71509",
        "categories": [
            {
                "name": "Quần áo & Phụ kiện"
            },
            {
                "name": "Hàng tiêu dùng"
            }
        ]
    },
    {
        "name": "Nơ Boutique",
        "latitude": 10.8279,
        "longitude": 106.62143,
        "address": "Nơ Boutique, 63 Đường Phan Văn Hớn, Phường Tân Thới Nhất, Quận 12, Hồ Chí Minh, Việt Nam",
        "country_code": "VNM",
        "country_name": "Việt Nam",
        "city": "Hồ Chí Minh",
        "district": "Quận 12",
        "ward": "Phường Tân Thới Nhất",
        "street": "Đường Phan Văn Hớn",
        "postal_code": "71510",
        "categories": [
            {
                "name": "Quần áo & Phụ kiện"
            },
            {
                "name": "Hàng tiêu dùng"
            }
        ]
    },
    {
        "name": "Cửa Hàng Thời Trang Comaxx",
        "latitude": 10.8291,
        "longitude": 106.62437,
        "address": "Cửa Hàng Thời Trang Comaxx, Đường Trường Chinh, Phường Tân Hưng Thuận, Quận 12, Hồ Chí Minh, Việt Nam",
        "country_code": "VNM",
        "country_name": "Việt Nam",
        "city": "Hồ Chí Minh",
        "district": "Quận 12",
        "ward": "Phường Tân Hưng Thuận",
        "street": "Đường Trường Chinh",
        "postal_code": "71509",
        "categories": [
            {
                "name": "Quần áo & Phụ kiện"
            }
        ]
    },
    {
        "name": "Áo Cưới Phạm Lộc",
        "latitude": 10.8287,
        "longitude": 106.62677,
        "address": "Áo Cưới Phạm Lộc, Đường Nguyễn Văn Quá, Phường Tân Hưng Thuận, Quận 12, Hồ Chí Minh, Việt Nam",
        "country_code": "VNM",
        "country_name": "Việt Nam",
        "city": "Hồ Chí Minh",
        "district": "Quận 12",
        "ward": "Phường Tân Hưng Thuận",
        "street": "Đường Nguyễn Văn Quá",
        "postal_code": "71509",
        "categories": [
            {
                "name": "Quần áo & Phụ kiện"
            },
            {
                "name": "Doanh nghiệp"
            }
        ]
    },
    {
        "name": "Fashion Nhật Mai",
        "latitude": 10.82811,
        "longitude": 106.62117,
        "address": "Fashion Nhật Mai, Đường Phan Văn Hớn, Phường Tân Thới Nhất, Quận 12, Hồ Chí Minh, Việt Nam",
        "country_code": "VNM",
        "country_name": "Việt Nam",
        "city": "Hồ Chí Minh",
        "district": "Quận 12",
        "ward": "Phường Tân Thới Nhất",
        "street": "Đường Phan Văn Hớn",
        "postal_code": "71510",
        "categories": [
            {
                "name": "Quần áo & Phụ kiện"
            }
        ]
    },
    {
        "name": "Tringo Store",
        "latitude": 10.82777,
        "longitude": 106.62831,
        "address": "Tringo Store, Đường Nguyễn Văn Quá, Phường Đông Hưng Thuận, Quận 12, Hồ Chí Minh, Việt Nam",
        "country_code": "VNM",
        "country_name": "Việt Nam",
        "city": "Hồ Chí Minh",
        "district": "Quận 12",
        "ward": "Phường Đông Hưng Thuận",
        "street": "Đường Nguyễn Văn Quá",
        "postal_code": "71508",
        "categories": [
            {
                "name": "Quần áo & Phụ kiện"
            }
        ]
    },
    {
        "name": "Shop VI Phương Trinh",
        "latitude": 10.8295,
        "longitude": 106.62337,
        "address": "Shop VI Phương Trinh, Đường Trường Chinh, Phường Tân Thới Nhất, Quận 12, Hồ Chí Minh, Việt Nam",
        "country_code": "VNM",
        "country_name": "Việt Nam",
        "city": "Hồ Chí Minh",
        "district": "Quận 12",
        "ward": "Phường Tân Thới Nhất",
        "street": "Đường Trường Chinh",
        "postal_code": "71510",
        "categories": [
            {
                "name": "Quần áo & Phụ kiện"
            }
        ]
    },
    {
        "name": "Cửa Hàng Ba Chị Em",
        "latitude": 10.82962,
        "longitude": 106.62406,
        "address": "Cửa Hàng Ba Chị Em, Đường Trường Chinh, Phường Tân Hưng Thuận, Quận 12, Hồ Chí Minh, Việt Nam",
        "country_code": "VNM",
        "country_name": "Việt Nam",
        "city": "Hồ Chí Minh",
        "district": "Quận 12",
        "ward": "Phường Tân Hưng Thuận",
        "street": "Đường Trường Chinh",
        "postal_code": "71509",
        "categories": [
            {
                "name": "Quần áo & Phụ kiện"
            }
        ]
    },
    {
        "name": "PT Fashion Trung Tâm Thời Trang Nam",
        "latitude": 10.82915,
        "longitude": 106.62683,
        "address": "PT Fashion Trung Tâm Thời Trang Nam, Đường Nguyễn Văn Quá, Phường Tân Hưng Thuận, Quận 12, Hồ Chí Minh, Việt Nam",
        "country_code": "VNM",
        "country_name": "Việt Nam",
        "city": "Hồ Chí Minh",
        "district": "Quận 12",
        "ward": "Phường Tân Hưng Thuận",
        "street": "Đường Nguyễn Văn Quá",
        "postal_code": "71509",
        "categories": [
            {
                "name": "Quần áo & Phụ kiện"
            },
            {
                "name": "Quần áo nam"
            }
        ]
    },
    {
        "name": "Ch127jh-Fl",
        "latitude": 10.82287,
        "longitude": 106.62949,
        "address": "Ch127jh-Fl, 2 Đường Trường Chinh, Phường Tây Thạnh, Quận Tân Phú, Hồ Chí Minh, Việt Nam",
        "country_code": "VNM",
        "country_name": "Việt Nam",
        "city": "Hồ Chí Minh",
        "district": "Quận Tân Phú",
        "ward": "Phường Tây Thạnh",
        "street": "Đường Trường Chinh",
        "postal_code": "72009",
        "categories": [
            {
                "name": "Quần áo & Phụ kiện"
            }
        ]
    },
    {
        "name": "Shop Thời Trang SD",
        "latitude": 10.82977,
        "longitude": 106.6233,
        "address": "Shop Thời Trang SD, 125 Đường Trường Chinh, Phường Tân Thới Nhất, Quận 12, Hồ Chí Minh, Việt Nam",
        "country_code": "VNM",
        "country_name": "Việt Nam",
        "city": "Hồ Chí Minh",
        "district": "Quận 12",
        "ward": "Phường Tân Thới Nhất",
        "street": "Đường Trường Chinh",
        "postal_code": "71510",
        "categories": [
            {
                "name": "Quần áo & Phụ kiện"
            }
        ]
    },
    {
        "name": "Fashion Yêu & Thương",
        "latitude": 10.82933,
        "longitude": 106.62696,
        "address": "Fashion Yêu & Thương, 82 Đường Nguyễn Văn Quá, Phường Tân Hưng Thuận, Quận 12, Hồ Chí Minh, Việt Nam",
        "country_code": "VNM",
        "country_name": "Việt Nam",
        "city": "Hồ Chí Minh",
        "district": "Quận 12",
        "ward": "Phường Tân Hưng Thuận",
        "street": "Đường Nguyễn Văn Quá",
        "postal_code": "71509",
        "categories": [
            {
                "name": "Quần áo & Phụ kiện"
            }
        ]
    },
    {
        "name": "Shop Evàco Kid",
        "latitude": 10.82823,
        "longitude": 106.62054,
        "address": "Shop Evàco Kid, 101 Đường Phan Văn Hớn, Phường Tân Thới Nhất, Quận 12, Hồ Chí Minh, Việt Nam",
        "country_code": "VNM",
        "country_name": "Việt Nam",
        "city": "Hồ Chí Minh",
        "district": "Quận 12",
        "ward": "Phường Tân Thới Nhất",
        "street": "Đường Phan Văn Hớn",
        "postal_code": "71510",
        "categories": [
            {
                "name": "Quần áo & Phụ kiện"
            },
            {
                "name": "Hàng tiêu dùng"
            }
        ]
    },
    {
        "name": "Iora",
        "latitude": 10.82234,
        "longitude": 106.61961,
        "address": "Iora, Đường F, Phường Tân Thới Nhất, Quận 12, Hồ Chí Minh, Việt Nam",
        "country_code": "VNM",
        "country_name": "Việt Nam",
        "city": "Hồ Chí Minh",
        "district": "Quận 12",
        "ward": "Phường Tân Thới Nhất",
        "street": "Đường F",
        "postal_code": "71510",
        "categories": [
            {
                "name": "Quần áo & Phụ kiện"
            }
        ]
    },
    {
        "name": "MTV Co.Op Mart Hòa Hảo",
        "latitude": 10.8231,
        "longitude": 106.62967,
        "address": "MTV Co.Op Mart Hòa Hảo, Đường Trường Chinh, Phường 15, Quận Tân Bình, Hồ Chí Minh, Việt Nam",
        "country_code": "VNM",
        "country_name": "Việt Nam",
        "city": "Hồ Chí Minh",
        "district": "Quận Tân Bình",
        "ward": "Phường 15",
        "street": "Đường Trường Chinh",
        "postal_code": "72109",
        "categories": [
            {
                "name": "Quần áo & Phụ kiện"
            },
            {
                "name": "Siêu thị"
            }
        ]
    },
    {
        "name": "TCM-Dệt May Thành Công",
        "latitude": 10.82258,
        "longitude": 106.62953,
        "address": "TCM-Dệt May Thành Công, Đường Trường Chinh, Phường Tây Thạnh, Quận Tân Phú, Hồ Chí Minh, Việt Nam",
        "country_code": "VNM",
        "country_name": "Việt Nam",
        "city": "Hồ Chí Minh",
        "district": "Quận Tân Phú",
        "ward": "Phường Tây Thạnh",
        "street": "Đường Trường Chinh",
        "postal_code": "72009",
        "categories": [
            {
                "name": "Quần áo & Phụ kiện"
            },
            {
                "name": "Doanh nghiệp"
            }
        ]
    },
    {
        "name": "Cửa Hàng TCM",
        "latitude": 10.82252,
        "longitude": 106.62951,
        "address": "Cửa Hàng TCM, Đường Trường Chinh, Phường Tây Thạnh, Quận Tân Phú, Hồ Chí Minh, Việt Nam",
        "country_code": "VNM",
        "country_name": "Việt Nam",
        "city": "Hồ Chí Minh",
        "district": "Quận Tân Phú",
        "ward": "Phường Tây Thạnh",
        "street": "Đường Trường Chinh",
        "postal_code": "72009",
        "categories": [
            {
                "name": "Quần áo & Phụ kiện"
            }
        ]
    },
    {
        "name": "Linh Chi 2",
        "latitude": 10.82937,
        "longitude": 106.62711,
        "address": "Linh Chi 2, Đường Nguyễn Văn Quá, Phường Tân Hưng Thuận, Quận 12, Hồ Chí Minh, Việt Nam",
        "country_code": "VNM",
        "country_name": "Việt Nam",
        "city": "Hồ Chí Minh",
        "district": "Quận 12",
        "ward": "Phường Tân Hưng Thuận",
        "street": "Đường Nguyễn Văn Quá",
        "postal_code": "71509",
        "categories": [
            {
                "name": "Quần áo & Phụ kiện"
            },
            {
                "name": "Dụng cụ sơn và trang trí"
            }
        ]
    },
    {
        "name": "Adidas",
        "latitude": 10.82318,
        "longitude": 106.62978,
        "address": "Adidas, Đường Trường Chinh, Phường 15, Quận Tân Bình, Hồ Chí Minh, Việt Nam",
        "country_code": "VNM",
        "country_name": "Việt Nam",
        "city": "Hồ Chí Minh",
        "district": "Quận Tân Bình",
        "ward": "Phường 15",
        "street": "Đường Trường Chinh",
        "postal_code": "72109",
        "categories": [
            {
                "name": "Cửa hàng dụng cụ thể thao"
            },
            {
                "name": "Quần áo & Phụ kiện"
            }
        ]
    },
    {
        "name": "NO1SHOES",
        "latitude": 10.82987,
        "longitude": 106.62318,
        "address": "NO1SHOES, Đường Trường Chinh, Phường Tân Thới Nhất, Quận 12, Hồ Chí Minh, Việt Nam",
        "country_code": "VNM",
        "country_name": "Việt Nam",
        "city": "Hồ Chí Minh",
        "district": "Quận 12",
        "ward": "Phường Tân Thới Nhất",
        "street": "Đường Trường Chinh",
        "postal_code": "71510",
        "categories": [
            {
                "name": "Quần áo & Phụ kiện"
            }
        ]
    },
    {
        "name": "Tiệm Giày Tiến Long",
        "latitude": 10.82379,
        "longitude": 106.62998,
        "address": "Tiệm Giày Tiến Long, Đường Phan Huy Ích, Phường 15, Quận Tân Bình, Hồ Chí Minh, Việt Nam",
        "country_code": "VNM",
        "country_name": "Việt Nam",
        "city": "Hồ Chí Minh",
        "district": "Quận Tân Bình",
        "ward": "Phường 15",
        "street": "Đường Phan Huy Ích",
        "postal_code": "72109",
        "categories": [
            {
                "name": "Quần áo & Phụ kiện"
            }
        ]
    },
    {
        "name": "Outlet Dệt May Thành Công",
        "latitude": 10.8225,
        "longitude": 106.62969,
        "address": "Outlet Dệt May Thành Công, Đường Trường Chinh, Phường Tây Thạnh, Quận Tân Phú, Hồ Chí Minh, Việt Nam",
        "country_code": "VNM",
        "country_name": "Việt Nam",
        "city": "Hồ Chí Minh",
        "district": "Quận Tân Phú",
        "ward": "Phường Tây Thạnh",
        "street": "Đường Trường Chinh",
        "postal_code": "72009",
        "categories": [
            {
                "name": "Quần áo & Phụ kiện"
            }
        ]
    },
    {
        "name": "Short Jean",
        "latitude": 10.82968,
        "longitude": 106.62692,
        "address": "Short Jean, Đường Nguyễn Văn Quá, Phường Tân Hưng Thuận, Quận 12, Hồ Chí Minh, Việt Nam",
        "country_code": "VNM",
        "country_name": "Việt Nam",
        "city": "Hồ Chí Minh",
        "district": "Quận 12",
        "ward": "Phường Tân Hưng Thuận",
        "street": "Đường Nguyễn Văn Quá",
        "postal_code": "71509",
        "categories": [
            {
                "name": "Quần áo & Phụ kiện"
            }
        ]
    },
    {
        "name": "Quyết Tiến Thành",
        "latitude": 10.83005,
        "longitude": 106.62307,
        "address": "Quyết Tiến Thành, 27 Đường Trường Chinh, Phường Tân Thới Nhất, Quận 12, Hồ Chí Minh, Việt Nam",
        "country_code": "VNM",
        "country_name": "Việt Nam",
        "city": "Hồ Chí Minh",
        "district": "Quận 12",
        "ward": "Phường Tân Thới Nhất",
        "street": "Đường Trường Chinh",
        "postal_code": "71510",
        "categories": [
            {
                "name": "Quần áo & Phụ kiện"
            }
        ]
    },
    {
        "name": "Cửa Hàng Thời Trang Thành Công - TCM",
        "latitude": 10.82246,
        "longitude": 106.62976,
        "address": "Cửa Hàng Thời Trang Thành Công - TCM, 911 Đường Trường Chinh, Phường Tây Thạnh, Quận Tân Phú, Hồ Chí Minh, Việt Nam",
        "country_code": "VNM",
        "country_name": "Việt Nam",
        "city": "Hồ Chí Minh",
        "district": "Quận Tân Phú",
        "ward": "Phường Tây Thạnh",
        "street": "Đường Trường Chinh",
        "postal_code": "72009",
        "categories": [
            {
                "name": "Quần áo & Phụ kiện"
            }
        ]
    },
    {
        "name": "Giày Việt Hoàn",
        "latitude": 10.82822,
        "longitude": 106.61995,
        "address": "Giày Việt Hoàn, Đường Phan Văn Hớn, Phường Tân Thới Nhất, Quận 12, Hồ Chí Minh, Việt Nam",
        "country_code": "VNM",
        "country_name": "Việt Nam",
        "city": "Hồ Chí Minh",
        "district": "Quận 12",
        "ward": "Phường Tân Thới Nhất",
        "street": "Đường Phan Văn Hớn",
        "postal_code": "71510",
        "categories": [
            {
                "name": "Quần áo & Phụ kiện"
            },
            {
                "name": "Giày dép"
            }
        ]
    },
    {
        "name": "Chợ Đồ Bộ TP HCM",
        "latitude": 10.83021,
        "longitude": 106.62241,
        "address": "Chợ Đồ Bộ TP HCM, Đường Trường Chinh, Phường Tân Thới Nhất, Quận 12, Hồ Chí Minh, Việt Nam",
        "country_code": "VNM",
        "country_name": "Việt Nam",
        "city": "Hồ Chí Minh",
        "district": "Quận 12",
        "ward": "Phường Tân Thới Nhất",
        "street": "Đường Trường Chinh",
        "postal_code": "71510",
        "categories": [
            {
                "name": "Quần áo & Phụ kiện"
            },
            {
                "name": "Dịch vụ kinh doanh"
            }
        ]
    },
    {
        "name": "Thời Trang Trẻ Em E & Co",
        "latitude": 10.82829,
        "longitude": 106.61964,
        "address": "Thời Trang Trẻ Em E & Co, Đường Phan Văn Hớn, Phường Tân Thới Nhất, Quận 12, Hồ Chí Minh, Việt Nam",
        "country_code": "VNM",
        "country_name": "Việt Nam",
        "city": "Hồ Chí Minh",
        "district": "Quận 12",
        "ward": "Phường Tân Thới Nhất",
        "street": "Đường Phan Văn Hớn",
        "postal_code": "71510",
        "categories": [
            {
                "name": "Quần áo & Phụ kiện"
            }
        ]
    },
    {
        "name": "Shop Vân Trang",
        "latitude": 10.82829,
        "longitude": 106.61964,
        "address": "Shop Vân Trang, 103 Đường Phan Văn Hớn, Phường Tân Thới Nhất, Quận 12, Hồ Chí Minh, Việt Nam",
        "country_code": "VNM",
        "country_name": "Việt Nam",
        "city": "Hồ Chí Minh",
        "district": "Quận 12",
        "ward": "Phường Tân Thới Nhất",
        "street": "Đường Phan Văn Hớn",
        "postal_code": "71510",
        "categories": [
            {
                "name": "Quần áo & Phụ kiện"
            }
        ]
    },
    {
        "name": "Cửa Hàng Giày Thời Trang Kim Lan",
        "latitude": 10.8252,
        "longitude": 106.63065,
        "address": "Cửa Hàng Giày Thời Trang Kim Lan, 28 Đường Phan Huy Ích, Phường 15, Quận Tân Bình, Hồ Chí Minh, Việt Nam",
        "country_code": "VNM",
        "country_name": "Việt Nam",
        "city": "Hồ Chí Minh",
        "district": "Quận Tân Bình",
        "ward": "Phường 15",
        "street": "Đường Phan Huy Ích",
        "postal_code": "72109",
        "categories": [
            {
                "name": "Giày dép"
            },
            {
                "name": "Quần áo & Phụ kiện"
            }
        ]
    },
    {
        "name": "Fashion Rosa",
        "latitude": 10.82538,
        "longitude": 106.63063,
        "address": "Fashion Rosa, Đường Phan Huy Ích, Phường 15, Quận Tân Bình, Hồ Chí Minh, Việt Nam",
        "country_code": "VNM",
        "country_name": "Việt Nam",
        "city": "Hồ Chí Minh",
        "district": "Quận Tân Bình",
        "ward": "Phường 15",
        "street": "Đường Phan Huy Ích",
        "postal_code": "72109",
        "categories": [
            {
                "name": "Quần áo & Phụ kiện"
            }
        ]
    },
    {
        "name": "Cty Giang Sinh TNHH Sản Xuất & Thương Mại",
        "latitude": 10.82284,
        "longitude": 106.63053,
        "address": "Cty Giang Sinh TNHH Sản Xuất & Thương Mại, Hẻm 936 Đường Trường Chinh, Phường 15, Quận Tân Bình, Hồ Chí Minh, Việt Nam",
        "country_code": "VNM",
        "country_name": "Việt Nam",
        "city": "Hồ Chí Minh",
        "district": "Quận Tân Bình",
        "ward": "Phường 15",
        "street": "Hẻm 936 Đường Trường Chinh",
        "postal_code": "72109",
        "categories": [
            {
                "name": "Quần áo & Phụ kiện"
            }
        ]
    },
    {
        "name": "Jean 95",
        "latitude": 10.82542,
        "longitude": 106.63075,
        "address": "Jean 95, Đường Phan Huy Ích, Phường 15, Quận Tân Bình, Hồ Chí Minh, Việt Nam",
        "country_code": "VNM",
        "country_name": "Việt Nam",
        "city": "Hồ Chí Minh",
        "district": "Quận Tân Bình",
        "ward": "Phường 15",
        "street": "Đường Phan Huy Ích",
        "postal_code": "72109",
        "categories": [
            {
                "name": "Quần áo & Phụ kiện"
            }
        ]
    },
    {
        "name": "Thanh Thưởng Shop",
        "latitude": 10.82547,
        "longitude": 106.63077,
        "address": "Thanh Thưởng Shop, 34 Đường Phan Huy Ích, Phường 15, Quận Tân Bình, Hồ Chí Minh, Việt Nam",
        "country_code": "VNM",
        "country_name": "Việt Nam",
        "city": "Hồ Chí Minh",
        "district": "Quận Tân Bình",
        "ward": "Phường 15",
        "street": "Đường Phan Huy Ích",
        "postal_code": "72109",
        "categories": [
            {
                "name": "Quần áo & Phụ kiện"
            },
            {
                "name": "Cắt tóc & Tạo mẫu"
            }
        ]
    },
    {
        "name": "Jean 135",
        "latitude": 10.82544,
        "longitude": 106.63082,
        "address": "Jean 135, 32 Đường Phan Huy Ích, Phường 15, Quận Tân Bình, Hồ Chí Minh, Việt Nam",
        "country_code": "VNM",
        "country_name": "Việt Nam",
        "city": "Hồ Chí Minh",
        "district": "Quận Tân Bình",
        "ward": "Phường 15",
        "street": "Đường Phan Huy Ích",
        "postal_code": "72109",
        "categories": [
            {
                "name": "Quần áo & Phụ kiện"
            }
        ]
    },
    {
        "name": "Trung Tâm Mua Sắm Thời Trang Nam Cao Cấp Trung Đức",
        "latitude": 10.82567,
        "longitude": 106.63086,
        "address": "Trung Tâm Mua Sắm Thời Trang Nam Cao Cấp Trung Đức, 38 Đường Phan Huy Ích, Phường 15, Quận Tân Bình, Hồ Chí Minh, Việt Nam",
        "country_code": "VNM",
        "country_name": "Việt Nam",
        "city": "Hồ Chí Minh",
        "district": "Quận Tân Bình",
        "ward": "Phường 15",
        "street": "Đường Phan Huy Ích",
        "postal_code": "72109",
        "categories": [
            {
                "name": "Quần áo & Phụ kiện"
            }
        ]
    },
    {
        "name": "Hương Nguyên Chuyên Thời Trang Nam Nữ",
        "latitude": 10.82318,
        "longitude": 106.61817,
        "address": "Hương Nguyên Chuyên Thời Trang Nam Nữ, Đường D, Phường Tân Thới Nhất, Quận 12, Hồ Chí Minh, Việt Nam",
        "country_code": "VNM",
        "country_name": "Việt Nam",
        "city": "Hồ Chí Minh",
        "district": "Quận 12",
        "ward": "Phường Tân Thới Nhất",
        "street": "Đường D",
        "postal_code": "71510",
        "categories": [
            {
                "name": "Quần áo & Phụ kiện"
            }
        ]
    },
    {
        "name": "Thời Trang Nam Trung Niên Rồng Vàng",
        "latitude": 10.8214,
        "longitude": 106.63015,
        "address": "Thời Trang Nam Trung Niên Rồng Vàng, Đường Trường Chinh, Phường Tây Thạnh, Quận Tân Phú, Hồ Chí Minh, Việt Nam",
        "country_code": "VNM",
        "country_name": "Việt Nam",
        "city": "Hồ Chí Minh",
        "district": "Quận Tân Phú",
        "ward": "Phường Tây Thạnh",
        "street": "Đường Trường Chinh",
        "postal_code": "72009",
        "categories": [
            {
                "name": "Quần áo & Phụ kiện"
            }
        ]
    },
    {
        "name": "New Fashion Sành Điệu",
        "latitude": 10.82587,
        "longitude": 106.63095,
        "address": "New Fashion Sành Điệu, 40 Đường Phan Huy Ích, Phường 15, Quận Tân Bình, Hồ Chí Minh, Việt Nam",
        "country_code": "VNM",
        "country_name": "Việt Nam",
        "city": "Hồ Chí Minh",
        "district": "Quận Tân Bình",
        "ward": "Phường 15",
        "street": "Đường Phan Huy Ích",
        "postal_code": "72109",
        "categories": [
            {
                "name": "Quần áo & Phụ kiện"
            }
        ]
    },
    {
        "name": "Shop Blue Sky Fashion",
        "latitude": 10.82419,
        "longitude": 106.6312,
        "address": "Shop Blue Sky Fashion, Đường Tân Trụ, Phường 15, Quận Tân Bình, Hồ Chí Minh, Việt Nam",
        "country_code": "VNM",
        "country_name": "Việt Nam",
        "city": "Hồ Chí Minh",
        "district": "Quận Tân Bình",
        "ward": "Phường 15",
        "street": "Đường Tân Trụ",
        "postal_code": "72109",
        "categories": [
            {
                "name": "Quần áo & Phụ kiện"
            }
        ]
    },
    {
        "name": "Nu Store Thời Trang Nữ",
        "latitude": 10.83061,
        "longitude": 106.62739,
        "address": "Nu Store Thời Trang Nữ, 145 Đường Nguyễn Văn Quá, Phường Đông Hưng Thuận, Quận 12, Hồ Chí Minh, Việt Nam",
        "country_code": "VNM",
        "country_name": "Việt Nam",
        "city": "Hồ Chí Minh",
        "district": "Quận 12",
        "ward": "Phường Đông Hưng Thuận",
        "street": "Đường Nguyễn Văn Quá",
        "postal_code": "71508",
        "categories": [
            {
                "name": "Quần áo & Phụ kiện"
            },
            {
                "name": "Quần áo phụ nữ"
            },
            {
                "name": "Hàng tiêu dùng"
            }
        ]
    },
    {
        "name": "Shop Thời Trang Minh Vẫn",
        "latitude": 10.82645,
        "longitude": 106.63111,
        "address": "Shop Thời Trang Minh Vẫn, 45 Đường Phan Huy Ích, Phường 15, Quận Tân Bình, Hồ Chí Minh, Việt Nam",
        "country_code": "VNM",
        "country_name": "Việt Nam",
        "city": "Hồ Chí Minh",
        "district": "Quận Tân Bình",
        "ward": "Phường 15",
        "street": "Đường Phan Huy Ích",
        "postal_code": "72109",
        "categories": [
            {
                "name": "Quần áo & Phụ kiện"
            }
        ]
    },
    {
        "name": "Thịnh",
        "latitude": 10.83083,
        "longitude": 106.62722,
        "address": "Thịnh, Đường Nguyễn Văn Quá, Phường Đông Hưng Thuận, Quận 12, Hồ Chí Minh, Việt Nam",
        "country_code": "VNM",
        "country_name": "Việt Nam",
        "city": "Hồ Chí Minh",
        "district": "Quận 12",
        "ward": "Phường Đông Hưng Thuận",
        "street": "Đường Nguyễn Văn Quá",
        "postal_code": "71508",
        "categories": [
            {
                "name": "Quần áo & Phụ kiện"
            }
        ]
    },
    {
        "name": "Hải Triều Premium Watches",
        "latitude": 10.82628,
        "longitude": 106.63122,
        "address": "Hải Triều Premium Watches, Đường Phan Huy Ích, Phường 15, Quận Tân Bình, Hồ Chí Minh, Việt Nam",
        "country_code": "VNM",
        "country_name": "Việt Nam",
        "city": "Hồ Chí Minh",
        "district": "Quận Tân Bình",
        "ward": "Phường 15",
        "street": "Đường Phan Huy Ích",
        "postal_code": "72109",
        "categories": [
            {
                "name": "Quần áo & Phụ kiện"
            }
        ]
    },
    {
        "name": "Shop Thời Trang Trúc Giang - Tân Trụ",
        "latitude": 10.82433,
        "longitude": 106.63142,
        "address": "Shop Thời Trang Trúc Giang - Tân Trụ, 23 Hẻm 45 Tân Trụ, Phường 15, Quận Tân Bình, Hồ Chí Minh, Việt Nam",
        "country_code": "VNM",
        "country_name": "Việt Nam",
        "city": "Hồ Chí Minh",
        "district": "Quận Tân Bình",
        "ward": "Phường 15",
        "street": "Hẻm 45 Tân Trụ",
        "postal_code": "72109",
        "categories": [
            {
                "name": "Quần áo & Phụ kiện"
            }
        ]
    },
    {
        "name": "Kissy",
        "latitude": 10.8267,
        "longitude": 106.6311,
        "address": "Kissy, Đường Phan Huy Ích, Phường 15, Quận Tân Bình, Hồ Chí Minh, Việt Nam",
        "country_code": "VNM",
        "country_name": "Việt Nam",
        "city": "Hồ Chí Minh",
        "district": "Quận Tân Bình",
        "ward": "Phường 15",
        "street": "Đường Phan Huy Ích",
        "postal_code": "72109",
        "categories": [
            {
                "name": "Quần áo & Phụ kiện"
            }
        ]
    },
    {
        "name": "Thời Trang Evada.VN",
        "latitude": 10.824,
        "longitude": 106.6314,
        "address": "Thời Trang Evada.VN, Đường Tân Trụ, Phường 15, Quận Tân Bình, Hồ Chí Minh, Việt Nam",
        "country_code": "VNM",
        "country_name": "Việt Nam",
        "city": "Hồ Chí Minh",
        "district": "Quận Tân Bình",
        "ward": "Phường 15",
        "street": "Đường Tân Trụ",
        "postal_code": "72109",
        "categories": [
            {
                "name": "Quần áo & Phụ kiện"
            },
            {
                "name": "Hàng tiêu dùng"
            }
        ]
    },
    {
        "name": "Thời Trang Thành Đạt",
        "latitude": 10.81904,
        "longitude": 106.62848,
        "address": "Thời Trang Thành Đạt, Đường Tây Thạnh, Phường Tây Thạnh, Quận Tân Phú, Hồ Chí Minh, Việt Nam",
        "country_code": "VNM",
        "country_name": "Việt Nam",
        "city": "Hồ Chí Minh",
        "district": "Quận Tân Phú",
        "ward": "Phường Tây Thạnh",
        "street": "Đường Tây Thạnh",
        "postal_code": "72009",
        "categories": [
            {
                "name": "Quần áo & Phụ kiện"
            }
        ]
    },
    {
        "name": "Cửa Hàng Thời Trang Hồng Hạnh",
        "latitude": 10.81899,
        "longitude": 106.62843,
        "address": "Cửa Hàng Thời Trang Hồng Hạnh, Đường Tây Thạnh, Phường Tây Thạnh, Quận Tân Phú, Hồ Chí Minh, Việt Nam",
        "country_code": "VNM",
        "country_name": "Việt Nam",
        "city": "Hồ Chí Minh",
        "district": "Quận Tân Phú",
        "ward": "Phường Tây Thạnh",
        "street": "Đường Tây Thạnh",
        "postal_code": "72009",
        "categories": [
            {
                "name": "Quần áo & Phụ kiện"
            }
        ]
    },
    {
        "name": "Thời Trang Nữ Hồng Nhung",
        "latitude": 10.81891,
        "longitude": 106.62832,
        "address": "Thời Trang Nữ Hồng Nhung, Đường Tây Thạnh, Phường Tây Thạnh, Quận Tân Phú, Hồ Chí Minh, Việt Nam",
        "country_code": "VNM",
        "country_name": "Việt Nam",
        "city": "Hồ Chí Minh",
        "district": "Quận Tân Phú",
        "ward": "Phường Tây Thạnh",
        "street": "Đường Tây Thạnh",
        "postal_code": "72009",
        "categories": [
            {
                "name": "Quần áo & Phụ kiện"
            }
        ]
    },
    {
        "name": "Kissy",
        "latitude": 10.8266,
        "longitude": 106.63117,
        "address": "Kissy, Đường Phan Huy Ích, Phường 15, Quận Tân Bình, Hồ Chí Minh, Việt Nam",
        "country_code": "VNM",
        "country_name": "Việt Nam",
        "city": "Hồ Chí Minh",
        "district": "Quận Tân Bình",
        "ward": "Phường 15",
        "street": "Đường Phan Huy Ích",
        "postal_code": "72109",
        "categories": [
            {
                "name": "Quần áo & Phụ kiện"
            }
        ]
    },
    {
        "name": "May Kim Vàng",
        "latitude": 10.82555,
        "longitude": 106.63141,
        "address": "May Kim Vàng, Hẻm Sở 10 Cống Lở, Phường 15, Quận Tân Bình, Hồ Chí Minh, Việt Nam",
        "country_code": "VNM",
        "country_name": "Việt Nam",
        "city": "Hồ Chí Minh",
        "district": "Quận Tân Bình",
        "ward": "Phường 15",
        "street": "Hẻm Sở 10 Cống Lở",
        "postal_code": "72109",
        "categories": [
            {
                "name": "Quần áo & Phụ kiện"
            }
        ]
    },
    {
        "name": "Thời Trang Nữ Thái Hiền",
        "latitude": 10.81883,
        "longitude": 106.62822,
        "address": "Thời Trang Nữ Thái Hiền, Đường Tây Thạnh, Phường Tây Thạnh, Quận Tân Phú, Hồ Chí Minh, Việt Nam",
        "country_code": "VNM",
        "country_name": "Việt Nam",
        "city": "Hồ Chí Minh",
        "district": "Quận Tân Phú",
        "ward": "Phường Tây Thạnh",
        "street": "Đường Tây Thạnh",
        "postal_code": "72009",
        "categories": [
            {
                "name": "Quần áo & Phụ kiện"
            }
        ]
    },
    {
        "name": "New Fashion D & G",
        "latitude": 10.82661,
        "longitude": 106.63119,
        "address": "New Fashion D & G, 47D Đường Phan Huy Ích, Phường 15, Quận Tân Bình, Hồ Chí Minh, Việt Nam",
        "country_code": "VNM",
        "country_name": "Việt Nam",
        "city": "Hồ Chí Minh",
        "district": "Quận Tân Bình",
        "ward": "Phường 15",
        "street": "Đường Phan Huy Ích",
        "postal_code": "72109",
        "categories": [
            {
                "name": "Quần áo & Phụ kiện"
            }
        ]
    },
    {
        "name": "Cửa Hàng Quần Áo Nữ",
        "latitude": 10.8187,
        "longitude": 106.62807,
        "address": "Cửa Hàng Quần Áo Nữ, Đường Tây Thạnh, Phường Tây Thạnh, Quận Tân Phú, Hồ Chí Minh, Việt Nam",
        "country_code": "VNM",
        "country_name": "Việt Nam",
        "city": "Hồ Chí Minh",
        "district": "Quận Tân Phú",
        "ward": "Phường Tây Thạnh",
        "street": "Đường Tây Thạnh",
        "postal_code": "72009",
        "categories": [
            {
                "name": "Quần áo & Phụ kiện"
            }
        ]
    },
    {
        "name": "Thời Trang Big Size Thanh Tâm",
        "latitude": 10.82552,
        "longitude": 106.63147,
        "address": "Thời Trang Big Size Thanh Tâm, Hẻm Sở 10 Cống Lở, Phường 15, Quận Tân Bình, Hồ Chí Minh, Việt Nam",
        "country_code": "VNM",
        "country_name": "Việt Nam",
        "city": "Hồ Chí Minh",
        "district": "Quận Tân Bình",
        "ward": "Phường 15",
        "street": "Hẻm Sở 10 Cống Lở",
        "postal_code": "72109",
        "categories": [
            {
                "name": "Quần áo & Phụ kiện"
            }
        ]
    },
    {
        "name": "Giày Dép Trường An",
        "latitude": 10.83091,
        "longitude": 106.62748,
        "address": "Giày Dép Trường An, 69 Đường Nguyễn Văn Quá, Phường Đông Hưng Thuận, Quận 12, Hồ Chí Minh, Việt Nam",
        "country_code": "VNM",
        "country_name": "Việt Nam",
        "city": "Hồ Chí Minh",
        "district": "Quận 12",
        "ward": "Phường Đông Hưng Thuận",
        "street": "Đường Nguyễn Văn Quá",
        "postal_code": "71508",
        "categories": [
            {
                "name": "Giày dép"
            },
            {
                "name": "Quần áo & Phụ kiện"
            }
        ]
    },
    {
        "name": "Phong Cách Đường Phố",
        "latitude": 10.82173,
        "longitude": 106.63104,
        "address": "Phong Cách Đường Phố, Đường Nguyễn Phúc Chu, Phường 15, Quận Tân Bình, Hồ Chí Minh, Việt Nam",
        "country_code": "VNM",
        "country_name": "Việt Nam",
        "city": "Hồ Chí Minh",
        "district": "Quận Tân Bình",
        "ward": "Phường 15",
        "street": "Đường Nguyễn Phúc Chu",
        "postal_code": "72109",
        "categories": [
            {
                "name": "Quần áo & Phụ kiện"
            }
        ]
    },
    {
        "name": "Fashion Thanh Hưng",
        "latitude": 10.82675,
        "longitude": 106.63136,
        "address": "Fashion Thanh Hưng, 56 Đường Phan Huy Ích, Phường 15, Quận Tân Bình, Hồ Chí Minh, Việt Nam",
        "country_code": "VNM",
        "country_name": "Việt Nam",
        "city": "Hồ Chí Minh",
        "district": "Quận Tân Bình",
        "ward": "Phường 15",
        "street": "Đường Phan Huy Ích",
        "postal_code": "72109",
        "categories": [
            {
                "name": "Quần áo & Phụ kiện"
            },
            {
                "name": "Quần áo nam"
            }
        ]
    },
    {
        "name": "Thời Trang Trẻ",
        "latitude": 10.82676,
        "longitude": 106.63136,
        "address": "Thời Trang Trẻ, 54A Đường Phan Huy Ích, Phường 15, Quận Tân Bình, Hồ Chí Minh, Việt Nam",
        "country_code": "VNM",
        "country_name": "Việt Nam",
        "city": "Hồ Chí Minh",
        "district": "Quận Tân Bình",
        "ward": "Phường 15",
        "street": "Đường Phan Huy Ích",
        "postal_code": "72109",
        "categories": [
            {
                "name": "Quần áo & Phụ kiện"
            }
        ]
    },
    {
        "name": "Pijama House",
        "latitude": 10.82553,
        "longitude": 106.63165,
        "address": "Pijama House, 12 Đường Cống Lở, Phường 15, Quận Tân Bình, Hồ Chí Minh, Việt Nam",
        "country_code": "VNM",
        "country_name": "Việt Nam",
        "city": "Hồ Chí Minh",
        "district": "Quận Tân Bình",
        "ward": "Phường 15",
        "street": "Đường Cống Lở",
        "postal_code": "72109",
        "categories": [
            {
                "name": "Quần áo & Phụ kiện"
            }
        ]
    },
    {
        "name": "Cửa Hàng Quần Áo Lót",
        "latitude": 10.82788,
        "longitude": 106.61806,
        "address": "Cửa Hàng Quần Áo Lót, Hẻm 129 Đường Phan Văn Hớn, Phường Tân Thới Nhất, Quận 12, Hồ Chí Minh, Việt Nam",
        "country_code": "VNM",
        "country_name": "Việt Nam",
        "city": "Hồ Chí Minh",
        "district": "Quận 12",
        "ward": "Phường Tân Thới Nhất",
        "street": "Hẻm 129 Đường Phan Văn Hớn",
        "postal_code": "71510",
        "categories": [
            {
                "name": "Quần áo & Phụ kiện"
            }
        ]
    }
]
