[
    {
        "name": "Cửa Hàng Sữa Quang Huy",
        "latitude": 10.82642,
        "longitude": 106.62657,
        "address": "Cửa Hàng Sữa Quang Huy, Đường Nguyễn Văn Quá, Phường Tân Hưng Thuận, Quận 12, Hồ Chí Minh, Việt Nam",
        "country_code": "VNM",
        "country_name": "Việt Nam",
        "city": "Hồ Chí Minh",
        "district": "Quận 12",
        "ward": "Phường Tân Hưng Thuận",
        "street": "Đường Nguyễn Văn Quá",
        "postal_code": "71509",
        "categories": [
            {
                "name": "Cửa hàng bách hóa"
            }
        ]
    },
    {
        "name": "Aeon Mall Vn",
        "latitude": 10.82201,
        "longitude": 106.62254,
        "address": "Aeon Mall Vn, Đường B, Phường Tân Thới Nhất, Quận 12, Hồ Chí Minh, Việt Nam",
        "country_code": "VNM",
        "country_name": "Việt Nam",
        "city": "Hồ Chí Minh",
        "district": "Quận 12",
        "ward": "Phường Tân Thới Nhất",
        "street": "Đường B",
        "postal_code": "71510",
        "categories": [
            {
                "name": "Cửa hàng bách hóa"
            }
        ]
    },
    {
        "name": "Cửa Hàng Tạp Hóa Huy Hoàng",
        "latitude": 10.82903,
        "longitude": 106.62532,
        "address": "Cửa Hàng Tạp Hóa Huy Hoàng, Đường Song Hành Quốc Lộ 22, Phường Tân Hưng Thuận, Quận 12, Hồ Chí Minh, Việt Nam",
        "country_code": "VNM",
        "country_name": "Việt Nam",
        "city": "Hồ Chí Minh",
        "district": "Quận 12",
        "ward": "Phường Tân Hưng Thuận",
        "street": "Đường Song Hành Quốc Lộ 22",
        "postal_code": "71509",
        "categories": [
            {
                "name": "Cửa hàng bách hóa"
            }
        ]
    },
    {
        "name": "Cm & Cl",
        "latitude": 10.82308,
        "longitude": 106.62964,
        "address": "Cm & Cl, Đường Trường Chinh, Phường 15, Quận Tân Bình, Hồ Chí Minh, Việt Nam",
        "country_code": "VNM",
        "country_name": "Việt Nam",
        "city": "Hồ Chí Minh",
        "district": "Quận Tân Bình",
        "ward": "Phường 15",
        "street": "Đường Trường Chinh",
        "postal_code": "72109",
        "categories": [
            {
                "name": "Cửa hàng bách hóa"
            }
        ]
    },
    {
        "name": "Phong Phú",
        "latitude": 10.82974,
        "longitude": 106.62623,
        "address": "Phong Phú, 10 Hẻm 115/23 Đường Nguyễn Văn Quá, Phường Tân Hưng Thuận, Quận 12, Hồ Chí Minh, Việt Nam",
        "country_code": "VNM",
        "country_name": "Việt Nam",
        "city": "Hồ Chí Minh",
        "district": "Quận 12",
        "ward": "Phường Tân Hưng Thuận",
        "street": "Hẻm 115/23 Đường Nguyễn Văn Quá",
        "postal_code": "71509",
        "categories": [
            {
                "name": "Cửa hàng bách hóa"
            }
        ]
    },
    {
        "name": "Cửa Hàng Tạp Hóa Hòa Thành",
        "latitude": 10.82469,
        "longitude": 106.63031,
        "address": "Cửa Hàng Tạp Hóa Hòa Thành, Đường Phan Huy Ích, Phường 15, Quận Tân Bình, Hồ Chí Minh, Việt Nam",
        "country_code": "VNM",
        "country_name": "Việt Nam",
        "city": "Hồ Chí Minh",
        "district": "Quận Tân Bình",
        "ward": "Phường 15",
        "street": "Đường Phan Huy Ích",
        "postal_code": "72109",
        "categories": [
            {
                "name": "Cửa hàng bách hóa"
            }
        ]
    },
    {
        "name": "Cửa Hàng Bách Hóa Mai",
        "latitude": 10.82181,
        "longitude": 106.631,
        "address": "Cửa Hàng Bách Hóa Mai, 9 Hẻm 14 Đường Nguyễn Phúc Chu, Phường 15, Quận Tân Bình, Hồ Chí Minh, Việt Nam",
        "country_code": "VNM",
        "country_name": "Việt Nam",
        "city": "Hồ Chí Minh",
        "district": "Quận Tân Bình",
        "ward": "Phường 15",
        "street": "Hẻm 14 Đường Nguyễn Phúc Chu",
        "postal_code": "72109",
        "categories": [
            {
                "name": "Cửa hàng bách hóa"
            }
        ]
    },
    {
        "name": "Dịch Vụ Cầm Đồ Bảo Long 3",
        "latitude": 10.82671,
        "longitude": 106.63133,
        "address": "Dịch Vụ Cầm Đồ Bảo Long 3, 54B Đường Phan Huy Ích, Phường 15, Quận Tân Bình, Hồ Chí Minh, Việt Nam",
        "country_code": "VNM",
        "country_name": "Việt Nam",
        "city": "Hồ Chí Minh",
        "district": "Quận Tân Bình",
        "ward": "Phường 15",
        "street": "Đường Phan Huy Ích",
        "postal_code": "72109",
        "categories": [
            {
                "name": "Cửa hàng bách hóa"
            }
        ]
    },
    {
        "name": "Bach Hoa Buyhere Vn",
        "latitude": 10.81982,
        "longitude": 106.6298,
        "address": "Bach Hoa Buyhere Vn, 27 Đường Tây Thạnh, Phường Tây Thạnh, Quận Tân Phú, Hồ Chí Minh, Việt Nam",
        "country_code": "VNM",
        "country_name": "Việt Nam",
        "city": "Hồ Chí Minh",
        "district": "Quận Tân Phú",
        "ward": "Phường Tây Thạnh",
        "street": "Đường Tây Thạnh",
        "postal_code": "72009",
        "categories": [
            {
                "name": "Cửa hàng bách hóa"
            }
        ]
    },
    {
        "name": "Doanh Nghiệp Tư Nhân Cầm Đồ Hữu Khương",
        "latitude": 10.82646,
        "longitude": 106.63212,
        "address": "Doanh Nghiệp Tư Nhân Cầm Đồ Hữu Khương, Hẻm 66 Phan Huy Ích, Phường 15, Quận Tân Bình, Hồ Chí Minh, Việt Nam",
        "country_code": "VNM",
        "country_name": "Việt Nam",
        "city": "Hồ Chí Minh",
        "district": "Quận Tân Bình",
        "ward": "Phường 15",
        "street": "Hẻm 66 Phan Huy Ích",
        "postal_code": "72109",
        "categories": [
            {
                "name": "Cửa hàng bách hóa"
            }
        ]
    },
    {
        "name": "Co.Op Food",
        "latitude": 10.82591,
        "longitude": 106.63281,
        "address": "Co.Op Food, Đường Cống Lở, Phường 15, Quận Tân Bình, Hồ Chí Minh, Việt Nam",
        "country_code": "VNM",
        "country_name": "Việt Nam",
        "city": "Hồ Chí Minh",
        "district": "Quận Tân Bình",
        "ward": "Phường 15",
        "street": "Đường Cống Lở",
        "postal_code": "72109",
        "categories": [
            {
                "name": "Siêu thị"
            },
            {
                "name": "Cửa hàng bách hóa"
            }
        ]
    },
    {
        "name": "Hoàng Lạc",
        "latitude": 10.81561,
        "longitude": 106.62494,
        "address": "Hoàng Lạc, Đường Tây Thạnh, Phường Tây Thạnh, Quận Tân Phú, Hồ Chí Minh, Việt Nam",
        "country_code": "VNM",
        "country_name": "Việt Nam",
        "city": "Hồ Chí Minh",
        "district": "Quận Tân Phú",
        "ward": "Phường Tây Thạnh",
        "street": "Đường Tây Thạnh",
        "postal_code": "72009",
        "categories": [
            {
                "name": "Cửa hàng bách hóa"
            },
            {
                "name": "Doanh nghiệp"
            }
        ]
    },
    {
        "name": "Cửa Hàng Thiên Thảo II",
        "latitude": 10.83313,
        "longitude": 106.62825,
        "address": "Cửa Hàng Thiên Thảo II, 262 Hẻm 260 Nguyễn Văn Quá, Phường Đông Hưng Thuận, Quận 12, Hồ Chí Minh, Việt Nam",
        "country_code": "VNM",
        "country_name": "Việt Nam",
        "city": "Hồ Chí Minh",
        "district": "Quận 12",
        "ward": "Phường Đông Hưng Thuận",
        "street": "Hẻm 260 Nguyễn Văn Quá",
        "postal_code": "71508",
        "categories": [
            {
                "name": "Cửa hàng bách hóa"
            }
        ]
    },
    {
        "name": "Coop Mart Truong Chinh",
        "latitude": 10.81762,
        "longitude": 106.63138,
        "address": "Coop Mart Truong Chinh, Đường Trường Chinh, Phường Tây Thạnh, Quận Tân Phú, Hồ Chí Minh, Việt Nam",
        "country_code": "VNM",
        "country_name": "Việt Nam",
        "city": "Hồ Chí Minh",
        "district": "Quận Tân Phú",
        "ward": "Phường Tây Thạnh",
        "street": "Đường Trường Chinh",
        "postal_code": "72009",
        "categories": [
            {
                "name": "Cửa hàng bách hóa"
            }
        ]
    },
    {
        "name": "Cửa Hàng Tạp Hóa Kim Nhung",
        "latitude": 10.83408,
        "longitude": 106.62847,
        "address": "Cửa Hàng Tạp Hóa Kim Nhung, 284 Hẻm 1 Đường Nguyễn Văn Quá, Phường Đông Hưng Thuận, Quận 12, Hồ Chí Minh, Việt Nam",
        "country_code": "VNM",
        "country_name": "Việt Nam",
        "city": "Hồ Chí Minh",
        "district": "Quận 12",
        "ward": "Phường Đông Hưng Thuận",
        "street": "Hẻm 1 Đường Nguyễn Văn Quá",
        "postal_code": "71508",
        "categories": [
            {
                "name": "Cửa hàng bách hóa"
            }
        ]
    },
    {
        "name": "Cửa Hàng Tạp Hóa Tuyết",
        "latitude": 10.83465,
        "longitude": 106.62235,
        "address": "Cửa Hàng Tạp Hóa Tuyết, Đường ĐHT 3, Phường Tân Hưng Thuận, Quận 12, Hồ Chí Minh, Việt Nam",
        "country_code": "VNM",
        "country_name": "Việt Nam",
        "city": "Hồ Chí Minh",
        "district": "Quận 12",
        "ward": "Phường Tân Hưng Thuận",
        "street": "Đường ĐHT 3",
        "postal_code": "71509",
        "categories": [
            {
                "name": "Cửa hàng bách hóa"
            }
        ]
    },
    {
        "name": "Công Ty Liên Doanh KSN Cosmetech",
        "latitude": 10.81831,
        "longitude": 106.61499,
        "address": "Công Ty Liên Doanh KSN Cosmetech, Đường CN1, Phường Tây Thạnh, Quận Tân Phú, Hồ Chí Minh, Việt Nam",
        "country_code": "VNM",
        "country_name": "Việt Nam",
        "city": "Hồ Chí Minh",
        "district": "Quận Tân Phú",
        "ward": "Phường Tây Thạnh",
        "street": "Đường CN1",
        "postal_code": "72009",
        "categories": [
            {
                "name": "Cửa hàng bách hóa"
            },
            {
                "name": "Doanh nghiệp"
            }
        ]
    },
    {
        "name": "Shop Hoa 24h",
        "latitude": 10.8352,
        "longitude": 106.62917,
        "address": "Shop Hoa 24h, Hẻm 338 Nguyễn Văn Quá, Phường Đông Hưng Thuận, Quận 12, Hồ Chí Minh, Việt Nam",
        "country_code": "VNM",
        "country_name": "Việt Nam",
        "city": "Hồ Chí Minh",
        "district": "Quận 12",
        "ward": "Phường Đông Hưng Thuận",
        "street": "Hẻm 338 Nguyễn Văn Quá",
        "postal_code": "71508",
        "categories": [
            {
                "name": "Cửa hàng bách hóa"
            }
        ]
    },
    {
        "name": "Cửa Hàng Tạp Hóa Hưng Trang",
        "latitude": 10.83046,
        "longitude": 106.63509,
        "address": "Cửa Hàng Tạp Hóa Hưng Trang, Hẻm 118 Phan Huy Ích, Phường 15, Quận Tân Bình, Hồ Chí Minh, Việt Nam",
        "country_code": "VNM",
        "country_name": "Việt Nam",
        "city": "Hồ Chí Minh",
        "district": "Quận Tân Bình",
        "ward": "Phường 15",
        "street": "Hẻm 118 Phan Huy Ích",
        "postal_code": "72109",
        "categories": [
            {
                "name": "Cửa hàng bách hóa"
            }
        ]
    },
    {
        "name": "Cửa Hàng Công Thành",
        "latitude": 10.83567,
        "longitude": 106.61951,
        "address": "Cửa Hàng Công Thành, Đường Trường Chinh, Phường Tân Thới Nhất, Quận 12, Hồ Chí Minh, Việt Nam",
        "country_code": "VNM",
        "country_name": "Việt Nam",
        "city": "Hồ Chí Minh",
        "district": "Quận 12",
        "ward": "Phường Tân Thới Nhất",
        "street": "Đường Trường Chinh",
        "postal_code": "71510",
        "categories": [
            {
                "name": "Cửa hàng bách hóa"
            }
        ]
    },
    {
        "name": "Trường Trung",
        "latitude": 10.83631,
        "longitude": 106.61909,
        "address": "Trường Trung, 347 Đường Trường Chinh, Phường Tân Thới Nhất, Quận 12, Hồ Chí Minh, Việt Nam",
        "country_code": "VNM",
        "country_name": "Việt Nam",
        "city": "Hồ Chí Minh",
        "district": "Quận 12",
        "ward": "Phường Tân Thới Nhất",
        "street": "Đường Trường Chinh",
        "postal_code": "71510",
        "categories": [
            {
                "name": "Cửa hàng bách hóa"
            }
        ]
    },
    {
        "name": "Cửa Hàng Bia Nước Ngọt Huy Hoàng",
        "latitude": 10.8308,
        "longitude": 106.61286,
        "address": "Cửa Hàng Bia Nước Ngọt Huy Hoàng, 5 Đường Phan Văn Hớn, Phường Tân Thới Nhất, Quận 12, Hồ Chí Minh, Việt Nam",
        "country_code": "VNM",
        "country_name": "Việt Nam",
        "city": "Hồ Chí Minh",
        "district": "Quận 12",
        "ward": "Phường Tân Thới Nhất",
        "street": "Đường Phan Văn Hớn",
        "postal_code": "71510",
        "categories": [
            {
                "name": "Cửa hàng bách hóa"
            }
        ]
    },
    {
        "name": "Cửa Hàng Thái Bình",
        "latitude": 10.83644,
        "longitude": 106.61885,
        "address": "Cửa Hàng Thái Bình, 359 Hẻm 363/63 Đường Trường Chinh, Phường Tân Thới Nhất, Quận 12, Hồ Chí Minh, Việt Nam",
        "country_code": "VNM",
        "country_name": "Việt Nam",
        "city": "Hồ Chí Minh",
        "district": "Quận 12",
        "ward": "Phường Tân Thới Nhất",
        "street": "Hẻm 363/63 Đường Trường Chinh",
        "postal_code": "71510",
        "categories": [
            {
                "name": "Cửa hàng bách hóa"
            }
        ]
    },
    {
        "name": "Xuân Tiến Bakery",
        "latitude": 10.83142,
        "longitude": 106.6117,
        "address": "Xuân Tiến Bakery, 7 Đường Phan Văn Hớn, Phường Tân Thới Nhất, Quận 12, Hồ Chí Minh, Việt Nam",
        "country_code": "VNM",
        "country_name": "Việt Nam",
        "city": "Hồ Chí Minh",
        "district": "Quận 12",
        "ward": "Phường Tân Thới Nhất",
        "street": "Đường Phan Văn Hớn",
        "postal_code": "71510",
        "categories": [
            {
                "name": "Cửa hàng bách hóa"
            }
        ]
    },
    {
        "name": "Thành Tiến",
        "latitude": 10.83472,
        "longitude": 106.63508,
        "address": "Thành Tiến, 208 Đường Phan Huy Ích, Phường 14, Quận Gò Vấp, Hồ Chí Minh, Việt Nam",
        "country_code": "VNM",
        "country_name": "Việt Nam",
        "city": "Hồ Chí Minh",
        "district": "Quận Gò Vấp",
        "ward": "Phường 14",
        "street": "Đường Phan Huy Ích",
        "postal_code": "71418",
        "categories": [
            {
                "name": "Cửa hàng bách hóa"
            }
        ]
    },
    {
        "name": "Chính Nghĩa",
        "latitude": 10.82359,
        "longitude": 106.63962,
        "address": "Chính Nghĩa, 216 Đường Phạm Văn Bạch, Phường 15, Quận Tân Bình, Hồ Chí Minh, Việt Nam",
        "country_code": "VNM",
        "country_name": "Việt Nam",
        "city": "Hồ Chí Minh",
        "district": "Quận Tân Bình",
        "ward": "Phường 15",
        "street": "Đường Phạm Văn Bạch",
        "postal_code": "72109",
        "categories": [
            {
                "name": "Cửa hàng bách hóa"
            }
        ]
    },
    {
        "name": "Tạp Hóa Châu Anh",
        "latitude": 10.83768,
        "longitude": 106.61547,
        "address": "Tạp Hóa Châu Anh, 183 Đường Tân Thới Nhất 1, Phường Tân Thới Nhất, Quận 12, Hồ Chí Minh, Việt Nam",
        "country_code": "VNM",
        "country_name": "Việt Nam",
        "city": "Hồ Chí Minh",
        "district": "Quận 12",
        "ward": "Phường Tân Thới Nhất",
        "street": "Đường Tân Thới Nhất 1",
        "postal_code": "71510",
        "categories": [
            {
                "name": "Cửa hàng bách hóa"
            },
            {
                "name": "Cửa hàng tiện lợi"
            }
        ]
    },
    {
        "name": "Shop Thể Dục Thể Thao Ngọc Lan",
        "latitude": 10.80923,
        "longitude": 106.62886,
        "address": "Shop Thể Dục Thể Thao Ngọc Lan, 97 Đường Phạm Ngọc Thảo, Phường Tây Thạnh, Quận Tân Phú, Hồ Chí Minh, Việt Nam",
        "country_code": "VNM",
        "country_name": "Việt Nam",
        "city": "Hồ Chí Minh",
        "district": "Quận Tân Phú",
        "ward": "Phường Tây Thạnh",
        "street": "Đường Phạm Ngọc Thảo",
        "postal_code": "72009",
        "categories": [
            {
                "name": "Cửa hàng bách hóa"
            }
        ]
    },
    {
        "name": "Cửa Hàng Tạp Hóa Tân An",
        "latitude": 10.80888,
        "longitude": 106.62783,
        "address": "Cửa Hàng Tạp Hóa Tân An, Hẻm 50 Đường Dương Đức Hiền, Phường Tây Thạnh, Quận Tân Phú, Hồ Chí Minh, Việt Nam",
        "country_code": "VNM",
        "country_name": "Việt Nam",
        "city": "Hồ Chí Minh",
        "district": "Quận Tân Phú",
        "ward": "Phường Tây Thạnh",
        "street": "Hẻm 50 Đường Dương Đức Hiền",
        "postal_code": "72009",
        "categories": [
            {
                "name": "Cửa hàng bách hóa"
            }
        ]
    },
    {
        "name": "Tạp Hóa Thuận Thiên",
        "latitude": 10.80914,
        "longitude": 106.6292,
        "address": "Tạp Hóa Thuận Thiên, 91 Hẻm 118 Đường Lê Trọng Tấn, Phường Tây Thạnh, Quận Tân Phú, Hồ Chí Minh, Việt Nam",
        "country_code": "VNM",
        "country_name": "Việt Nam",
        "city": "Hồ Chí Minh",
        "district": "Quận Tân Phú",
        "ward": "Phường Tây Thạnh",
        "street": "Hẻm 118 Đường Lê Trọng Tấn",
        "postal_code": "72009",
        "categories": [
            {
                "name": "Cửa hàng bách hóa"
            },
            {
                "name": "Cửa hàng tiện lợi"
            }
        ]
    },
    {
        "name": "Tạp Hóa Kim Vui",
        "latitude": 10.82693,
        "longitude": 106.64079,
        "address": "Tạp Hóa Kim Vui, 366 Đường Phạm Văn Bạch, Phường 15, Quận Tân Bình, Hồ Chí Minh, Việt Nam",
        "country_code": "VNM",
        "country_name": "Việt Nam",
        "city": "Hồ Chí Minh",
        "district": "Quận Tân Bình",
        "ward": "Phường 15",
        "street": "Đường Phạm Văn Bạch",
        "postal_code": "72109",
        "categories": [
            {
                "name": "Cửa hàng bách hóa"
            },
            {
                "name": "Cửa hàng tiện lợi"
            }
        ]
    },
    {
        "name": "Cửa Hàng Chim Cảnh Huy Lan",
        "latitude": 10.84045,
        "longitude": 106.62965,
        "address": "Cửa Hàng Chim Cảnh Huy Lan, Đường Nguyễn Văn Quá, Phường Đông Hưng Thuận, Quận 12, Hồ Chí Minh, Việt Nam",
        "country_code": "VNM",
        "country_name": "Việt Nam",
        "city": "Hồ Chí Minh",
        "district": "Quận 12",
        "ward": "Phường Đông Hưng Thuận",
        "street": "Đường Nguyễn Văn Quá",
        "postal_code": "71508",
        "categories": [
            {
                "name": "Cửa hàng bách hóa"
            }
        ]
    },
    {
        "name": "Cửa Hàng Mỹ Phẩm 390",
        "latitude": 10.80827,
        "longitude": 106.61937,
        "address": "Cửa Hàng Mỹ Phẩm 390, 390 Đường Lê Trọng Tấn, Phường Tây Thạnh, Quận Tân Phú, Hồ Chí Minh, Việt Nam",
        "country_code": "VNM",
        "country_name": "Việt Nam",
        "city": "Hồ Chí Minh",
        "district": "Quận Tân Phú",
        "ward": "Phường Tây Thạnh",
        "street": "Đường Lê Trọng Tấn",
        "postal_code": "72009",
        "categories": [
            {
                "name": "Cửa hàng bách hóa"
            },
            {
                "name": "Cửa hàng chuyên dụng"
            },
            {
                "name": "Cắt tóc & Tạo mẫu"
            }
        ]
    },
    {
        "name": "Thiên Thạch - Cty TNHH TM Kỹ Thuật Thiên Thạch",
        "latitude": 10.80735,
        "longitude": 106.62286,
        "address": "Thiên Thạch - Cty TNHH TM Kỹ Thuật Thiên Thạch, 274 Đường Lê Trọng Tấn, Phường Tây Thạnh, Quận Tân Phú, Hồ Chí Minh, Việt Nam",
        "country_code": "VNM",
        "country_name": "Việt Nam",
        "city": "Hồ Chí Minh",
        "district": "Quận Tân Phú",
        "ward": "Phường Tây Thạnh",
        "street": "Đường Lê Trọng Tấn",
        "postal_code": "72009",
        "categories": [
            {
                "name": "Cửa hàng bách hóa"
            },
            {
                "name": "Xây dựng"
            }
        ]
    },
    {
        "name": "Trang",
        "latitude": 10.84098,
        "longitude": 106.61667,
        "address": "Trang, Đường Trường Chinh, Phường Tân Hưng Thuận, Quận 12, Hồ Chí Minh, Việt Nam",
        "country_code": "VNM",
        "country_name": "Việt Nam",
        "city": "Hồ Chí Minh",
        "district": "Quận 12",
        "ward": "Phường Tân Hưng Thuận",
        "street": "Đường Trường Chinh",
        "postal_code": "71509",
        "categories": [
            {
                "name": "Cửa hàng bách hóa"
            }
        ]
    },
    {
        "name": "Cửa Hàng Tạp Hóa Thanh Thảo",
        "latitude": 10.809,
        "longitude": 106.6344,
        "address": "Cửa Hàng Tạp Hóa Thanh Thảo, Đường Trường Chinh, Phường 15, Quận Tân Bình, Hồ Chí Minh, Việt Nam",
        "country_code": "VNM",
        "country_name": "Việt Nam",
        "city": "Hồ Chí Minh",
        "district": "Quận Tân Bình",
        "ward": "Phường 15",
        "street": "Đường Trường Chinh",
        "postal_code": "72109",
        "categories": [
            {
                "name": "Cửa hàng bách hóa"
            }
        ]
    },
    {
        "name": "Dịch Vụ Cầm Đồ Minh Hiếu",
        "latitude": 10.84193,
        "longitude": 106.63094,
        "address": "Dịch Vụ Cầm Đồ Minh Hiếu, Đường Nguyễn Văn Quá, Phường Đông Hưng Thuận, Quận 12, Hồ Chí Minh, Việt Nam",
        "country_code": "VNM",
        "country_name": "Việt Nam",
        "city": "Hồ Chí Minh",
        "district": "Quận 12",
        "ward": "Phường Đông Hưng Thuận",
        "street": "Đường Nguyễn Văn Quá",
        "postal_code": "71508",
        "categories": [
            {
                "name": "Cửa hàng bách hóa"
            }
        ]
    },
    {
        "name": "Cửa Hàng Tạp Hóa Văn Khoa",
        "latitude": 10.82044,
        "longitude": 106.60584,
        "address": "Cửa Hàng Tạp Hóa Văn Khoa, 59 Hẻm 20 Đường Phạm Đăng Giảng, Phường Bình Hưng Hòa, Quận Bình Tân, Hồ Chí Minh, Việt Nam",
        "country_code": "VNM",
        "country_name": "Việt Nam",
        "city": "Hồ Chí Minh",
        "district": "Quận Bình Tân",
        "ward": "Phường Bình Hưng Hòa",
        "street": "Hẻm 20 Đường Phạm Đăng Giảng",
        "postal_code": "71913",
        "categories": [
            {
                "name": "Cửa hàng bách hóa"
            }
        ]
    },
    {
        "name": "Cữa Hàng Htsaigon",
        "latitude": 10.81768,
        "longitude": 106.60671,
        "address": "Cữa Hàng Htsaigon, 54 Hẻm 135/37 Phạm Đăng Giảng, Phường Bình Hưng Hòa, Quận Bình Tân, Hồ Chí Minh, Việt Nam",
        "country_code": "VNM",
        "country_name": "Việt Nam",
        "city": "Hồ Chí Minh",
        "district": "Quận Bình Tân",
        "ward": "Phường Bình Hưng Hòa",
        "street": "Hẻm 135/37 Phạm Đăng Giảng",
        "postal_code": "71913",
        "categories": [
            {
                "name": "Cửa hàng bách hóa"
            }
        ]
    },
    {
        "name": "Huy Anh",
        "latitude": 10.83001,
        "longitude": 106.64316,
        "address": "Huy Anh, 459 Đường Tân Sơn, Phường 12, Quận Gò Vấp, Hồ Chí Minh, Việt Nam",
        "country_code": "VNM",
        "country_name": "Việt Nam",
        "city": "Hồ Chí Minh",
        "district": "Quận Gò Vấp",
        "ward": "Phường 12",
        "street": "Đường Tân Sơn",
        "postal_code": "71420",
        "categories": [
            {
                "name": "Cửa hàng bách hóa"
            }
        ]
    },
    {
        "name": "Tiến",
        "latitude": 10.83927,
        "longitude": 106.63733,
        "address": "Tiến, 499C Đường Phan Huy Ích, Phường 14, Quận Gò Vấp, Hồ Chí Minh, Việt Nam",
        "country_code": "VNM",
        "country_name": "Việt Nam",
        "city": "Hồ Chí Minh",
        "district": "Quận Gò Vấp",
        "ward": "Phường 14",
        "street": "Đường Phan Huy Ích",
        "postal_code": "71418",
        "categories": [
            {
                "name": "Cửa hàng bách hóa"
            }
        ]
    },
    {
        "name": "2TF Trái Cây Nhập Khẩu - Tân Phú",
        "latitude": 10.8048,
        "longitude": 106.62611,
        "address": "2TF Trái Cây Nhập Khẩu - Tân Phú, 11 Đường Đỗ Nhuận, Phường Sơn Kỳ, Quận Tân Phú, Hồ Chí Minh, Việt Nam",
        "country_code": "VNM",
        "country_name": "Việt Nam",
        "city": "Hồ Chí Minh",
        "district": "Quận Tân Phú",
        "ward": "Phường Sơn Kỳ",
        "street": "Đường Đỗ Nhuận",
        "postal_code": "72010",
        "categories": [
            {
                "name": "Cửa hàng bách hóa"
            },
            {
                "name": "Đặc sản & Đồ uống"
            }
        ]
    },
    {
        "name": "Trung Tâm Thương Mại Tafoco",
        "latitude": 10.80707,
        "longitude": 106.63486,
        "address": "Trung Tâm Thương Mại Tafoco, Đường Trường Chinh, Phường Tây Thạnh, Quận Tân Phú, Hồ Chí Minh, Việt Nam",
        "country_code": "VNM",
        "country_name": "Việt Nam",
        "city": "Hồ Chí Minh",
        "district": "Quận Tân Phú",
        "ward": "Phường Tây Thạnh",
        "street": "Đường Trường Chinh",
        "postal_code": "72009",
        "categories": [
            {
                "name": "Cửa hàng bách hóa"
            }
        ]
    },
    {
        "name": "Cửa Hàng Tạp Hóa",
        "latitude": 10.80689,
        "longitude": 106.63555,
        "address": "Cửa Hàng Tạp Hóa, Đường Cộng Hòa, Phường 15, Quận Tân Bình, Hồ Chí Minh, Việt Nam",
        "country_code": "VNM",
        "country_name": "Việt Nam",
        "city": "Hồ Chí Minh",
        "district": "Quận Tân Bình",
        "ward": "Phường 15",
        "street": "Đường Cộng Hòa",
        "postal_code": "72109",
        "categories": [
            {
                "name": "Cửa hàng bách hóa"
            }
        ]
    },
    {
        "name": "R.E.E",
        "latitude": 10.81011,
        "longitude": 106.6089,
        "address": "R.E.E, Đường CN6, Phường Sơn Kỳ, Quận Tân Phú, Hồ Chí Minh, Việt Nam",
        "country_code": "VNM",
        "country_name": "Việt Nam",
        "city": "Hồ Chí Minh",
        "district": "Quận Tân Phú",
        "ward": "Phường Sơn Kỳ",
        "street": "Đường CN6",
        "postal_code": "72010",
        "categories": [
            {
                "name": "Cửa hàng bách hóa"
            }
        ]
    },
    {
        "name": "F.C",
        "latitude": 10.8103,
        "longitude": 106.60867,
        "address": "F.C, Đường CN6, Phường Sơn Kỳ, Quận Tân Phú, Hồ Chí Minh, Việt Nam",
        "country_code": "VNM",
        "country_name": "Việt Nam",
        "city": "Hồ Chí Minh",
        "district": "Quận Tân Phú",
        "ward": "Phường Sơn Kỳ",
        "street": "Đường CN6",
        "postal_code": "72010",
        "categories": [
            {
                "name": "Cửa hàng bách hóa"
            }
        ]
    },
    {
        "name": "Chăn Ga Gối Đệm Đức Vinh",
        "latitude": 10.838,
        "longitude": 106.60768,
        "address": "Chăn Ga Gối Đệm Đức Vinh, Đường Nam Lân 4, Xã Bà Điểm, Huyện Hóc Môn, Hồ Chí Minh, Việt Nam",
        "country_code": "VNM",
        "country_name": "Việt Nam",
        "city": "Hồ Chí Minh",
        "district": "Huyện Hóc Môn",
        "ward": "Xã Bà Điểm",
        "street": "Đường Nam Lân 4",
        "postal_code": "71714",
        "categories": [
            {
                "name": "Cửa hàng bách hóa"
            },
            {
                "name": "Dịch vụ kinh doanh"
            }
        ]
    },
    {
        "name": "Tri San Co., Ltd",
        "latitude": 10.83384,
        "longitude": 106.64467,
        "address": "Tri San Co., Ltd, Đường Tân Sơn, Phường 12, Quận Gò Vấp, Hồ Chí Minh, Việt Nam",
        "country_code": "VNM",
        "country_name": "Việt Nam",
        "city": "Hồ Chí Minh",
        "district": "Quận Gò Vấp",
        "ward": "Phường 12",
        "street": "Đường Tân Sơn",
        "postal_code": "71420",
        "categories": [
            {
                "name": "Cửa hàng bách hóa"
            }
        ]
    },
    {
        "name": "Cửa Hàng Tạp Hóa",
        "latitude": 10.80723,
        "longitude": 106.63904,
        "address": "Cửa Hàng Tạp Hóa, Đường Nhất Chi Mai, Phường 13, Quận Tân Bình, Hồ Chí Minh, Việt Nam",
        "country_code": "VNM",
        "country_name": "Việt Nam",
        "city": "Hồ Chí Minh",
        "district": "Quận Tân Bình",
        "ward": "Phường 13",
        "street": "Đường Nhất Chi Mai",
        "postal_code": "72110",
        "categories": [
            {
                "name": "Cửa hàng bách hóa"
            }
        ]
    },
    {
        "name": "Cửa Hàng Điện Gia Dụng Đại Phúc",
        "latitude": 10.81591,
        "longitude": 106.60304,
        "address": "Cửa Hàng Điện Gia Dụng Đại Phúc, 778 Đường Lê Trọng Tấn, Phường Bình Hưng Hòa, Quận Bình Tân, Hồ Chí Minh, Việt Nam",
        "country_code": "VNM",
        "country_name": "Việt Nam",
        "city": "Hồ Chí Minh",
        "district": "Quận Bình Tân",
        "ward": "Phường Bình Hưng Hòa",
        "street": "Đường Lê Trọng Tấn",
        "postal_code": "71913",
        "categories": [
            {
                "name": "Cửa hàng bách hóa"
            },
            {
                "name": "Cửa hàng điện tử gia dụng"
            },
            {
                "name": "Cửa hàng chuyên dụng"
            }
        ]
    },
    {
        "name": "Sam's House-Bách Hóa Hàn Quốc",
        "latitude": 10.84561,
        "longitude": 106.61503,
        "address": "Sam's House-Bách Hóa Hàn Quốc, Đường Hoàng Tăng Bí, Phường Trung Mỹ Tây, Quận 12, Hồ Chí Minh, Việt Nam",
        "country_code": "VNM",
        "country_name": "Việt Nam",
        "city": "Hồ Chí Minh",
        "district": "Quận 12",
        "ward": "Phường Trung Mỹ Tây",
        "street": "Đường Hoàng Tăng Bí",
        "postal_code": "71507",
        "categories": [
            {
                "name": "Cửa hàng bách hóa"
            }
        ]
    },
    {
        "name": "Aeon Mall Tân Phú Celadon",
        "latitude": 10.80209,
        "longitude": 106.61756,
        "address": "Aeon Mall Tân Phú Celadon, Đường N4, Phường Sơn Kỳ, Quận Tân Phú, Hồ Chí Minh, Việt Nam",
        "country_code": "VNM",
        "country_name": "Việt Nam",
        "city": "Hồ Chí Minh",
        "district": "Quận Tân Phú",
        "ward": "Phường Sơn Kỳ",
        "street": "Đường N4",
        "postal_code": "72010",
        "categories": [
            {
                "name": "Cửa hàng bách hóa"
            }
        ]
    },
    {
        "name": "Cửa Hàng Tạp Hóa Linh's",
        "latitude": 10.81038,
        "longitude": 106.60532,
        "address": "Cửa Hàng Tạp Hóa Linh's, 27 Hẻm 102 Đường Số 16, Phường Bình Hưng Hòa, Quận Bình Tân, Hồ Chí Minh, Việt Nam",
        "country_code": "VNM",
        "country_name": "Việt Nam",
        "city": "Hồ Chí Minh",
        "district": "Quận Bình Tân",
        "ward": "Phường Bình Hưng Hòa",
        "street": "Hẻm 102 Đường Số 16",
        "postal_code": "71913",
        "categories": [
            {
                "name": "Cửa hàng bách hóa"
            }
        ]
    },
    {
        "name": "Tạp Hóa Linh Chi",
        "latitude": 10.83762,
        "longitude": 106.64487,
        "address": "Tạp Hóa Linh Chi, 762 Đường Phạm Văn Bạch, Phường 12, Quận Gò Vấp, Hồ Chí Minh, Việt Nam",
        "country_code": "VNM",
        "country_name": "Việt Nam",
        "city": "Hồ Chí Minh",
        "district": "Quận Gò Vấp",
        "ward": "Phường 12",
        "street": "Đường Phạm Văn Bạch",
        "postal_code": "71420",
        "categories": [
            {
                "name": "Cửa hàng bách hóa"
            },
            {
                "name": "Cửa hàng tiện lợi"
            }
        ]
    },
    {
        "name": "Cửa Hàng Tạp Hóa Kim Hồng",
        "latitude": 10.82364,
        "longitude": 106.59995,
        "address": "Cửa Hàng Tạp Hóa Kim Hồng, 177 Hẻm 182/13 Đường Hồ Văn Long, Phường Bình Hưng Hòa B, Quận Bình Tân, Hồ Chí Minh, Việt Nam",
        "country_code": "VNM",
        "country_name": "Việt Nam",
        "city": "Hồ Chí Minh",
        "district": "Quận Bình Tân",
        "ward": "Phường Bình Hưng Hòa B",
        "street": "Hẻm 182/13 Đường Hồ Văn Long",
        "postal_code": "71914",
        "categories": [
            {
                "name": "Cửa hàng bách hóa"
            }
        ]
    },
    {
        "name": "Cửa Hàng Tạp Hóa Hoàng Chi",
        "latitude": 10.80193,
        "longitude": 106.63298,
        "address": "Cửa Hàng Tạp Hóa Hoàng Chi, Hẻm 84 Tân Sơn Nhì, Phường Tân Sơn Nhì, Quận Tân Phú, Hồ Chí Minh, Việt Nam",
        "country_code": "VNM",
        "country_name": "Việt Nam",
        "city": "Hồ Chí Minh",
        "district": "Quận Tân Phú",
        "ward": "Phường Tân Sơn Nhì",
        "street": "Hẻm 84 Tân Sơn Nhì",
        "postal_code": "72008",
        "categories": [
            {
                "name": "Cửa hàng bách hóa"
            }
        ]
    },
    {
        "name": "Shop Mỹ Phẩm Guardian",
        "latitude": 10.80319,
        "longitude": 106.63594,
        "address": "Shop Mỹ Phẩm Guardian, 605 Đường Trường Chinh, Phường Tân Sơn Nhì, Quận Tân Phú, Hồ Chí Minh, Việt Nam",
        "country_code": "VNM",
        "country_name": "Việt Nam",
        "city": "Hồ Chí Minh",
        "district": "Quận Tân Phú",
        "ward": "Phường Tân Sơn Nhì",
        "street": "Đường Trường Chinh",
        "postal_code": "72008",
        "categories": [
            {
                "name": "Cửa hàng bách hóa"
            }
        ]
    },
    {
        "name": "Thuần Quang",
        "latitude": 10.80229,
        "longitude": 106.63443,
        "address": "Thuần Quang, 62 Đường Tân Sơn Nhì, Phường Tân Sơn Nhì, Quận Tân Phú, Hồ Chí Minh, Việt Nam",
        "country_code": "VNM",
        "country_name": "Việt Nam",
        "city": "Hồ Chí Minh",
        "district": "Quận Tân Phú",
        "ward": "Phường Tân Sơn Nhì",
        "street": "Đường Tân Sơn Nhì",
        "postal_code": "72008",
        "categories": [
            {
                "name": "Cửa hàng bách hóa"
            }
        ]
    },
    {
        "name": "Giảng Võ",
        "latitude": 10.80293,
        "longitude": 106.63601,
        "address": "Giảng Võ, 4 Đường Tân Sơn Nhì, Phường Tân Sơn Nhì, Quận Tân Phú, Hồ Chí Minh, Việt Nam",
        "country_code": "VNM",
        "country_name": "Việt Nam",
        "city": "Hồ Chí Minh",
        "district": "Quận Tân Phú",
        "ward": "Phường Tân Sơn Nhì",
        "street": "Đường Tân Sơn Nhì",
        "postal_code": "72008",
        "categories": [
            {
                "name": "Cửa hàng bách hóa"
            }
        ]
    },
    {
        "name": "Sung Chang",
        "latitude": 10.84911,
        "longitude": 106.62537,
        "address": "Sung Chang, Quốc Lộ 1A, Phường Đông Hưng Thuận, Quận 12, Hồ Chí Minh, Việt Nam",
        "country_code": "VNM",
        "country_name": "Việt Nam",
        "city": "Hồ Chí Minh",
        "district": "Quận 12",
        "ward": "Phường Đông Hưng Thuận",
        "street": "Quốc Lộ 1A",
        "postal_code": "71508",
        "categories": [
            {
                "name": "Cửa hàng bách hóa"
            }
        ]
    },
    {
        "name": "Sĩ Phú",
        "latitude": 10.80295,
        "longitude": 106.6362,
        "address": "Sĩ Phú, 594 Hẻm 560 Trường Chinh, Phường 13, Quận Tân Bình, Hồ Chí Minh, Việt Nam",
        "country_code": "VNM",
        "country_name": "Việt Nam",
        "city": "Hồ Chí Minh",
        "district": "Quận Tân Bình",
        "ward": "Phường 13",
        "street": "Hẻm 560 Trường Chinh",
        "postal_code": "72110",
        "categories": [
            {
                "name": "Cửa hàng bách hóa"
            }
        ]
    },
    {
        "name": "Bách Hóa Hai Mẹ Con - Đồ Dùng Cho Mẹ Và Bé Nhập Khẩu",
        "latitude": 10.81791,
        "longitude": 106.60045,
        "address": "Bách Hóa Hai Mẹ Con - Đồ Dùng Cho Mẹ Và Bé Nhập Khẩu, Đường Hồ Văn Long, Phường Bình Hưng Hòa B, Quận Bình Tân, Hồ Chí Minh, Việt Nam",
        "country_code": "VNM",
        "country_name": "Việt Nam",
        "city": "Hồ Chí Minh",
        "district": "Quận Bình Tân",
        "ward": "Phường Bình Hưng Hòa B",
        "street": "Đường Hồ Văn Long",
        "postal_code": "71914",
        "categories": [
            {
                "name": "Cửa hàng bách hóa"
            }
        ]
    },
    {
        "name": "Cửa Hàng Tạp Hóa Minh Trâm",
        "latitude": 10.82205,
        "longitude": 106.59959,
        "address": "Cửa Hàng Tạp Hóa Minh Trâm, 135 Đường Hồ Văn Long, Phường Bình Hưng Hòa B, Quận Bình Tân, Hồ Chí Minh, Việt Nam",
        "country_code": "VNM",
        "country_name": "Việt Nam",
        "city": "Hồ Chí Minh",
        "district": "Quận Bình Tân",
        "ward": "Phường Bình Hưng Hòa B",
        "street": "Đường Hồ Văn Long",
        "postal_code": "71914",
        "categories": [
            {
                "name": "Cửa hàng bách hóa"
            }
        ]
    },
    {
        "name": "Vương Quốc Đồ Chơi Mykingdom",
        "latitude": 10.84383,
        "longitude": 106.64099,
        "address": "Vương Quốc Đồ Chơi Mykingdom, Đường Quang Trung, Phường 12, Quận Gò Vấp, Hồ Chí Minh, Việt Nam",
        "country_code": "VNM",
        "country_name": "Việt Nam",
        "city": "Hồ Chí Minh",
        "district": "Quận Gò Vấp",
        "ward": "Phường 12",
        "street": "Đường Quang Trung",
        "postal_code": "71420",
        "categories": [
            {
                "name": "Cửa hàng bách hóa"
            }
        ]
    },
    {
        "name": "Z'Store",
        "latitude": 10.80468,
        "longitude": 106.64015,
        "address": "Z'Store, 22 Đường Lê Tấn Quốc, Phường 13, Quận Tân Bình, Hồ Chí Minh, Việt Nam",
        "country_code": "VNM",
        "country_name": "Việt Nam",
        "city": "Hồ Chí Minh",
        "district": "Quận Tân Bình",
        "ward": "Phường 13",
        "street": "Đường Lê Tấn Quốc",
        "postal_code": "72110",
        "categories": [
            {
                "name": "Cửa hàng bách hóa"
            }
        ]
    },
    {
        "name": "Wipi Shops",
        "latitude": 10.81828,
        "longitude": 106.59952,
        "address": "Wipi Shops, Hẻm 37 Đường Hồ Văn Long, Phường Bình Hưng Hòa B, Quận Bình Tân, Hồ Chí Minh, Việt Nam",
        "country_code": "VNM",
        "country_name": "Việt Nam",
        "city": "Hồ Chí Minh",
        "district": "Quận Bình Tân",
        "ward": "Phường Bình Hưng Hòa B",
        "street": "Hẻm 37 Đường Hồ Văn Long",
        "postal_code": "71914",
        "categories": [
            {
                "name": "Quần áo & Phụ kiện"
            },
            {
                "name": "Cửa hàng bách hóa"
            }
        ]
    },
    {
        "name": "Cửa Hàng Tạp Hóa Thanh Thảo",
        "latitude": 10.84174,
        "longitude": 106.64408,
        "address": "Cửa Hàng Tạp Hóa Thanh Thảo, Đường Quang Trung, Phường 12, Quận Gò Vấp, Hồ Chí Minh, Việt Nam",
        "country_code": "VNM",
        "country_name": "Việt Nam",
        "city": "Hồ Chí Minh",
        "district": "Quận Gò Vấp",
        "ward": "Phường 12",
        "street": "Đường Quang Trung",
        "postal_code": "71420",
        "categories": [
            {
                "name": "Cửa hàng bách hóa"
            }
        ]
    },
    {
        "name": "Cửa Hàng Cặp-Túi Xách Miti",
        "latitude": 10.79943,
        "longitude": 106.63229,
        "address": "Cửa Hàng Cặp-Túi Xách Miti, 187 Đường Tân Sơn Nhì, Phường Tân Sơn Nhì, Quận Tân Phú, Hồ Chí Minh, Việt Nam",
        "country_code": "VNM",
        "country_name": "Việt Nam",
        "city": "Hồ Chí Minh",
        "district": "Quận Tân Phú",
        "ward": "Phường Tân Sơn Nhì",
        "street": "Đường Tân Sơn Nhì",
        "postal_code": "72008",
        "categories": [
            {
                "name": "Cửa hàng bách hóa"
            }
        ]
    },
    {
        "name": "Cửa Hàng Tạp Hóa Thanh Liêm",
        "latitude": 10.85091,
        "longitude": 106.62649,
        "address": "Cửa Hàng Tạp Hóa Thanh Liêm, Quốc Lộ 1A, Phường Trung Mỹ Tây, Quận 12, Hồ Chí Minh, Việt Nam",
        "country_code": "VNM",
        "country_name": "Việt Nam",
        "city": "Hồ Chí Minh",
        "district": "Quận 12",
        "ward": "Phường Trung Mỹ Tây",
        "street": "Quốc Lộ 1A",
        "postal_code": "71507",
        "categories": [
            {
                "name": "Cửa hàng bách hóa"
            }
        ]
    },
    {
        "name": "Cửa Hàng Tạp Hóa 38",
        "latitude": 10.80363,
        "longitude": 106.64092,
        "address": "Cửa Hàng Tạp Hóa 38, 38 Hẻm 51 Lê Văn Huân, Phường 13, Quận Tân Bình, Hồ Chí Minh, Việt Nam",
        "country_code": "VNM",
        "country_name": "Việt Nam",
        "city": "Hồ Chí Minh",
        "district": "Quận Tân Bình",
        "ward": "Phường 13",
        "street": "Hẻm 51 Lê Văn Huân",
        "postal_code": "72110",
        "categories": [
            {
                "name": "Cửa hàng bách hóa"
            }
        ]
    },
    {
        "name": "Tín Phát",
        "latitude": 10.81599,
        "longitude": 106.59893,
        "address": "Tín Phát, 57 Đường Nguyễn Thị Tú, Phường Bình Hưng Hòa B, Quận Bình Tân, Hồ Chí Minh, Việt Nam",
        "country_code": "VNM",
        "country_name": "Việt Nam",
        "city": "Hồ Chí Minh",
        "district": "Quận Bình Tân",
        "ward": "Phường Bình Hưng Hòa B",
        "street": "Đường Nguyễn Thị Tú",
        "postal_code": "71914",
        "categories": [
            {
                "name": "Cửa hàng bách hóa"
            }
        ]
    },
    {
        "name": "Bách Hoá Xanh",
        "latitude": 10.84747,
        "longitude": 106.61057,
        "address": "Bách Hoá Xanh, Hẻm 29 Đường Đông Lân-Hưng Lân, Xã Bà Điểm, Huyện Hóc Môn, Hồ Chí Minh, Việt Nam",
        "country_code": "VNM",
        "country_name": "Việt Nam",
        "city": "Hồ Chí Minh",
        "district": "Huyện Hóc Môn",
        "ward": "Xã Bà Điểm",
        "street": "Hẻm 29 Đường Đông Lân-Hưng Lân",
        "postal_code": "71714",
        "categories": [
            {
                "name": "Cửa hàng bách hóa"
            }
        ]
    },
    {
        "name": "Tạp Hoá Cô Đào",
        "latitude": 10.80774,
        "longitude": 106.64553,
        "address": "Tạp Hoá Cô Đào, 54 Đường Văn Chung, Phường 13, Quận Tân Bình, Hồ Chí Minh, Việt Nam",
        "country_code": "VNM",
        "country_name": "Việt Nam",
        "city": "Hồ Chí Minh",
        "district": "Quận Tân Bình",
        "ward": "Phường 13",
        "street": "Đường Văn Chung",
        "postal_code": "72110",
        "categories": [
            {
                "name": "Cửa hàng bách hóa"
            },
            {
                "name": "Cửa hàng tiện lợi"
            }
        ]
    },
    {
        "name": "Cửa Hàng Phúc Thảo",
        "latitude": 10.83872,
        "longitude": 106.60111,
        "address": "Cửa Hàng Phúc Thảo, Đường Tiền Lân 14G, Xã Bà Điểm, Huyện Hóc Môn, Hồ Chí Minh, Việt Nam",
        "country_code": "VNM",
        "country_name": "Việt Nam",
        "city": "Hồ Chí Minh",
        "district": "Huyện Hóc Môn",
        "ward": "Xã Bà Điểm",
        "street": "Đường Tiền Lân 14G",
        "postal_code": "71714",
        "categories": [
            {
                "name": "Cửa hàng bách hóa"
            },
            {
                "name": "Cửa hàng tiện lợi"
            },
            {
                "name": "Đặc sản & Đồ uống"
            },
            {
                "name": "Cửa hàng chuyên dụng"
            }
        ]
    },
    {
        "name": "Cửa Hàng Bách Hóa Tổng Hợp Phong Lan",
        "latitude": 10.84527,
        "longitude": 106.64241,
        "address": "Cửa Hàng Bách Hóa Tổng Hợp Phong Lan, Đường Phạm Văn Chiêu, Phường 8, Quận Gò Vấp, Hồ Chí Minh, Việt Nam",
        "country_code": "VNM",
        "country_name": "Việt Nam",
        "city": "Hồ Chí Minh",
        "district": "Quận Gò Vấp",
        "ward": "Phường 8",
        "street": "Đường Phạm Văn Chiêu",
        "postal_code": "71419",
        "categories": [
            {
                "name": "Cửa hàng bách hóa"
            }
        ]
    },
    {
        "name": "Cửa Hàng Tạp Hóa Minh Trí",
        "latitude": 10.79871,
        "longitude": 106.61572,
        "address": "Cửa Hàng Tạp Hóa Minh Trí, Đường Bờ Bao Tân Thắng, Phường Sơn Kỳ, Quận Tân Phú, Hồ Chí Minh, Việt Nam",
        "country_code": "VNM",
        "country_name": "Việt Nam",
        "city": "Hồ Chí Minh",
        "district": "Quận Tân Phú",
        "ward": "Phường Sơn Kỳ",
        "street": "Đường Bờ Bao Tân Thắng",
        "postal_code": "72010",
        "categories": [
            {
                "name": "Cửa hàng bách hóa"
            }
        ]
    },
    {
        "name": "Cửa Hàng Tạp Hóa Bích Phượng",
        "latitude": 10.85188,
        "longitude": 106.62657,
        "address": "Cửa Hàng Tạp Hóa Bích Phượng, Đường Tô Ký, Phường Trung Mỹ Tây, Quận 12, Hồ Chí Minh, Việt Nam",
        "country_code": "VNM",
        "country_name": "Việt Nam",
        "city": "Hồ Chí Minh",
        "district": "Quận 12",
        "ward": "Phường Trung Mỹ Tây",
        "street": "Đường Tô Ký",
        "postal_code": "71507",
        "categories": [
            {
                "name": "Cửa hàng bách hóa"
            }
        ]
    },
    {
        "name": "Công Ty TNHH Dịch Vụ Phát Triển Hoàng Hải Long 24H",
        "latitude": 10.79707,
        "longitude": 106.62546,
        "address": "Công Ty TNHH Dịch Vụ Phát Triển Hoàng Hải Long 24H, 165 Hẻm 147 Lê Đình Thám, Phường Tân Quý, Quận Tân Phú, Hồ Chí Minh, Việt Nam",
        "country_code": "VNM",
        "country_name": "Việt Nam",
        "city": "Hồ Chí Minh",
        "district": "Quận Tân Phú",
        "ward": "Phường Tân Quý",
        "street": "Hẻm 147 Lê Đình Thám",
        "postal_code": "72011",
        "categories": [
            {
                "name": "Cửa hàng bách hóa"
            },
            {
                "name": "Doanh nghiệp"
            }
        ]
    },
    {
        "name": "Vina",
        "latitude": 10.79797,
        "longitude": 106.63289,
        "address": "Vina, Đường Diệp Minh Châu, Phường Tân Sơn Nhì, Quận Tân Phú, Hồ Chí Minh, Việt Nam",
        "country_code": "VNM",
        "country_name": "Việt Nam",
        "city": "Hồ Chí Minh",
        "district": "Quận Tân Phú",
        "ward": "Phường Tân Sơn Nhì",
        "street": "Đường Diệp Minh Châu",
        "postal_code": "72008",
        "categories": [
            {
                "name": "Cửa hàng bách hóa"
            }
        ]
    },
    {
        "name": "Cửa Hàng Đồng Hồ - Mắt Kính Viễn Đông",
        "latitude": 10.79952,
        "longitude": 106.6373,
        "address": "Cửa Hàng Đồng Hồ - Mắt Kính Viễn Đông, 1026 Đường Âu Cơ, Phường 14, Quận Tân Bình, Hồ Chí Minh, Việt Nam",
        "country_code": "VNM",
        "country_name": "Việt Nam",
        "city": "Hồ Chí Minh",
        "district": "Quận Tân Bình",
        "ward": "Phường 14",
        "street": "Đường Âu Cơ",
        "postal_code": "72112",
        "categories": [
            {
                "name": "Cửa hàng bách hóa"
            }
        ]
    },
    {
        "name": "SX TMDV Hồng Minh",
        "latitude": 10.80868,
        "longitude": 106.64803,
        "address": "SX TMDV Hồng Minh, Đường Hoàng Hoa Thám, Phường 12, Quận Tân Bình, Hồ Chí Minh, Việt Nam",
        "country_code": "VNM",
        "country_name": "Việt Nam",
        "city": "Hồ Chí Minh",
        "district": "Quận Tân Bình",
        "ward": "Phường 12",
        "street": "Đường Hoàng Hoa Thám",
        "postal_code": "72111",
        "categories": [
            {
                "name": "Cửa hàng bách hóa"
            },
            {
                "name": "Cắt tóc & Tạo mẫu"
            }
        ]
    },
    {
        "name": "Cửa Hàng Tạp Hóa Lan Kiều",
        "latitude": 10.79715,
        "longitude": 106.61831,
        "address": "Cửa Hàng Tạp Hóa Lan Kiều, 39 Đường Đỗ Công Tường, Phường Tân Quý, Quận Tân Phú, Hồ Chí Minh, Việt Nam",
        "country_code": "VNM",
        "country_name": "Việt Nam",
        "city": "Hồ Chí Minh",
        "district": "Quận Tân Phú",
        "ward": "Phường Tân Quý",
        "street": "Đường Đỗ Công Tường",
        "postal_code": "72011",
        "categories": [
            {
                "name": "Cửa hàng bách hóa"
            }
        ]
    },
    {
        "name": "Shop Mỹ Hương",
        "latitude": 10.84597,
        "longitude": 106.64356,
        "address": "Shop Mỹ Hương, 56 Đường Phạm Văn Chiêu, Phường 8, Quận Gò Vấp, Hồ Chí Minh, Việt Nam",
        "country_code": "VNM",
        "country_name": "Việt Nam",
        "city": "Hồ Chí Minh",
        "district": "Quận Gò Vấp",
        "ward": "Phường 8",
        "street": "Đường Phạm Văn Chiêu",
        "postal_code": "71419",
        "categories": [
            {
                "name": "Cửa hàng bách hóa"
            },
            {
                "name": "Cắt tóc & Tạo mẫu"
            }
        ]
    },
    {
        "name": "Cửa Hàng Tạp Hóa Hưng Phát 2",
        "latitude": 10.79768,
        "longitude": 106.6153,
        "address": "Cửa Hàng Tạp Hóa Hưng Phát 2, 567A Đường Tân Kỳ Tân Quý, Phường Tân Quý, Quận Tân Phú, Hồ Chí Minh, Việt Nam",
        "country_code": "VNM",
        "country_name": "Việt Nam",
        "city": "Hồ Chí Minh",
        "district": "Quận Tân Phú",
        "ward": "Phường Tân Quý",
        "street": "Đường Tân Kỳ Tân Quý",
        "postal_code": "72011",
        "categories": [
            {
                "name": "Cửa hàng bách hóa"
            }
        ]
    },
    {
        "name": "Cửa Hàng Đức Thịnh",
        "latitude": 10.85045,
        "longitude": 106.63685,
        "address": "Cửa Hàng Đức Thịnh, Đường Nguyễn Văn Quá, Phường Đông Hưng Thuận, Quận 12, Hồ Chí Minh, Việt Nam",
        "country_code": "VNM",
        "country_name": "Việt Nam",
        "city": "Hồ Chí Minh",
        "district": "Quận 12",
        "ward": "Phường Đông Hưng Thuận",
        "street": "Đường Nguyễn Văn Quá",
        "postal_code": "71508",
        "categories": [
            {
                "name": "Cửa hàng bách hóa"
            }
        ]
    },
    {
        "name": "Cửa Hàng Tạp Hóa Mi",
        "latitude": 10.80623,
        "longitude": 106.60204,
        "address": "Cửa Hàng Tạp Hóa Mi, Đường Số 5, Phường Bình Hưng Hòa, Quận Bình Tân, Hồ Chí Minh, Việt Nam",
        "country_code": "VNM",
        "country_name": "Việt Nam",
        "city": "Hồ Chí Minh",
        "district": "Quận Bình Tân",
        "ward": "Phường Bình Hưng Hòa",
        "street": "Đường Số 5",
        "postal_code": "71913",
        "categories": [
            {
                "name": "Cửa hàng bách hóa"
            }
        ]
    },
    {
        "name": "Cửa Hàng Gas Huy Quang",
        "latitude": 10.79576,
        "longitude": 106.62634,
        "address": "Cửa Hàng Gas Huy Quang, 73A Đường Gò Dầu, Phường Tân Quý, Quận Tân Phú, Hồ Chí Minh, Việt Nam",
        "country_code": "VNM",
        "country_name": "Việt Nam",
        "city": "Hồ Chí Minh",
        "district": "Quận Tân Phú",
        "ward": "Phường Tân Quý",
        "street": "Đường Gò Dầu",
        "postal_code": "72011",
        "categories": [
            {
                "name": "Cửa hàng bách hóa"
            }
        ]
    },
    {
        "name": "Cửa Hàng Tạp Hóa 605",
        "latitude": 10.79693,
        "longitude": 106.6141,
        "address": "Cửa Hàng Tạp Hóa 605, 605 Đường Tân Kỳ Tân Quý, Phường Tân Quý, Quận Tân Phú, Hồ Chí Minh, Việt Nam",
        "country_code": "VNM",
        "country_name": "Việt Nam",
        "city": "Hồ Chí Minh",
        "district": "Quận Tân Phú",
        "ward": "Phường Tân Quý",
        "street": "Đường Tân Kỳ Tân Quý",
        "postal_code": "72011",
        "categories": [
            {
                "name": "Cửa hàng bách hóa"
            }
        ]
    },
    {
        "name": "Bách Hóa Hoàng Anh",
        "latitude": 10.84581,
        "longitude": 106.64563,
        "address": "Bách Hóa Hoàng Anh, Đường Nguyễn Văn Khối, Phường 8, Quận Gò Vấp, Hồ Chí Minh, Việt Nam",
        "country_code": "VNM",
        "country_name": "Việt Nam",
        "city": "Hồ Chí Minh",
        "district": "Quận Gò Vấp",
        "ward": "Phường 8",
        "street": "Đường Nguyễn Văn Khối",
        "postal_code": "71419",
        "categories": [
            {
                "name": "Cửa hàng bách hóa"
            }
        ]
    },
    {
        "name": "Shop Em Be Binh Tan",
        "latitude": 10.84028,
        "longitude": 106.65024,
        "address": "Shop Em Be Binh Tan, Đường Sô 21, Phường 8, Quận Gò Vấp, Hồ Chí Minh, Việt Nam",
        "country_code": "VNM",
        "country_name": "Việt Nam",
        "city": "Hồ Chí Minh",
        "district": "Quận Gò Vấp",
        "ward": "Phường 8",
        "street": "Đường Sô 21",
        "postal_code": "71419",
        "categories": [
            {
                "name": "Cửa hàng bách hóa"
            }
        ]
    },
    {
        "name": "Hàng Tiêu Dùng Thái Lan - HT'Marts",
        "latitude": 10.79482,
        "longitude": 106.62436,
        "address": "Hàng Tiêu Dùng Thái Lan - HT'Marts, 142 Đường Tây Sơn, Phường Tân Quý, Quận Tân Phú, Hồ Chí Minh, Việt Nam",
        "country_code": "VNM",
        "country_name": "Việt Nam",
        "city": "Hồ Chí Minh",
        "district": "Quận Tân Phú",
        "ward": "Phường Tân Quý",
        "street": "Đường Tây Sơn",
        "postal_code": "72011",
        "categories": [
            {
                "name": "Cửa hàng bán đồ gia dụng/Nội thất"
            },
            {
                "name": "Cửa hàng bách hóa"
            }
        ]
    },
    {
        "name": "Cửa Hàng Tạp Hóa Cô Phương",
        "latitude": 10.85235,
        "longitude": 106.61298,
        "address": "Cửa Hàng Tạp Hóa Cô Phương, Đường TMT 13, Phường Trung Mỹ Tây, Quận 12, Hồ Chí Minh, Việt Nam",
        "country_code": "VNM",
        "country_name": "Việt Nam",
        "city": "Hồ Chí Minh",
        "district": "Quận 12",
        "ward": "Phường Trung Mỹ Tây",
        "street": "Đường TMT 13",
        "postal_code": "71507",
        "categories": [
            {
                "name": "Cửa hàng bách hóa"
            }
        ]
    },
    {
        "name": "Tyco",
        "latitude": 10.80226,
        "longitude": 106.64484,
        "address": "Tyco, 364 Đường Cộng Hòa, Phường 13, Quận Tân Bình, Hồ Chí Minh, Việt Nam",
        "country_code": "VNM",
        "country_name": "Việt Nam",
        "city": "Hồ Chí Minh",
        "district": "Quận Tân Bình",
        "ward": "Phường 13",
        "street": "Đường Cộng Hòa",
        "postal_code": "72110",
        "categories": [
            {
                "name": "Cửa hàng bách hóa"
            }
        ]
    },
    {
        "name": "Ree Corporation",
        "latitude": 10.80226,
        "longitude": 106.64484,
        "address": "Ree Corporation, 364 Đường Cộng Hòa, Phường 13, Quận Tân Bình, Hồ Chí Minh, Việt Nam",
        "country_code": "VNM",
        "country_name": "Việt Nam",
        "city": "Hồ Chí Minh",
        "district": "Quận Tân Bình",
        "ward": "Phường 13",
        "street": "Đường Cộng Hòa",
        "postal_code": "72110",
        "categories": [
            {
                "name": "Cửa hàng bách hóa"
            },
            {
                "name": "Dịch vụ kinh doanh"
            }
        ]
    }
]
