[
    {
        "name": "Vựa Hải Sản Tươi Sống Bé Xinh",
        "latitude": 10.82626,
        "longitude": 106.62667,
        "address": "Vựa Hải Sản Tươi Sống Bé Xinh, Đường Trường Chinh, Phường Đông Hưng Thuận, Quận 12, Hồ Chí Minh, Việt Nam",
        "country_code": "VNM",
        "country_name": "Việt Nam",
        "city": "Hồ Chí Minh",
        "district": "Quận 12",
        "ward": "Phường Đông Hưng Thuận",
        "street": "Đường Trường Chinh",
        "postal_code": "71508",
        "categories": [
            {
                "name": "Siêu thị"
            },
            {
                "name": "Nhà hàng"
            },
            {
                "name": "Đặc sản & Đồ uống"
            }
        ]
    },
    {
        "name": "Hạo Kiệt",
        "latitude": 10.8272,
        "longitude": 106.62553,
        "address": "Hạo Kiệt, Đường Trường Chinh, Phường Tân Hưng Thuận, Quận 12, Hồ Chí Minh, Việt Nam",
        "country_code": "VNM",
        "country_name": "Việt Nam",
        "city": "Hồ Chí Minh",
        "district": "Quận 12",
        "ward": "Phường Tân Hưng Thuận",
        "street": "Đường Trường Chinh",
        "postal_code": "71509",
        "categories": [
            {
                "name": "Siêu thị"
            }
        ]
    },
    {
        "name": "Vissan",
        "latitude": 10.8267,
        "longitude": 106.62669,
        "address": "Vissan, 28 Hẻm 1 Đường Nguyễn Văn Quá, Phường Tân Hưng Thuận, Quận 12, Hồ Chí Minh, Việt Nam",
        "country_code": "VNM",
        "country_name": "Việt Nam",
        "city": "Hồ Chí Minh",
        "district": "Quận 12",
        "ward": "Phường Tân Hưng Thuận",
        "street": "Hẻm 1 Đường Nguyễn Văn Quá",
        "postal_code": "71509",
        "categories": [
            {
                "name": "Siêu thị"
            }
        ]
    },
    {
        "name": "Khang Minh",
        "latitude": 10.82773,
        "longitude": 106.62463,
        "address": "Khang Minh, 59 Đường Trường Chinh, Phường Tân Thới Nhất, Quận 12, Hồ Chí Minh, Việt Nam",
        "country_code": "VNM",
        "country_name": "Việt Nam",
        "city": "Hồ Chí Minh",
        "district": "Quận 12",
        "ward": "Phường Tân Thới Nhất",
        "street": "Đường Trường Chinh",
        "postal_code": "71510",
        "categories": [
            {
                "name": "Siêu thị"
            }
        ]
    },
    {
        "name": "Tạp Hóa Cát Tường",
        "latitude": 10.82185,
        "longitude": 106.62242,
        "address": "Tạp Hóa Cát Tường, Đường Tân Thới Nhất 21, Phường Tân Thới Nhất, Quận 12, Hồ Chí Minh, Việt Nam",
        "country_code": "VNM",
        "country_name": "Việt Nam",
        "city": "Hồ Chí Minh",
        "district": "Quận 12",
        "ward": "Phường Tân Thới Nhất",
        "street": "Đường Tân Thới Nhất 21",
        "postal_code": "71510",
        "categories": [
            {
                "name": "Siêu thị"
            }
        ]
    },
    {
        "name": "Nam Hiền",
        "latitude": 10.82782,
        "longitude": 106.62251,
        "address": "Nam Hiền, Đường Phan Văn Hớn, Phường Tân Thới Nhất, Quận 12, Hồ Chí Minh, Việt Nam",
        "country_code": "VNM",
        "country_name": "Việt Nam",
        "city": "Hồ Chí Minh",
        "district": "Quận 12",
        "ward": "Phường Tân Thới Nhất",
        "street": "Đường Phan Văn Hớn",
        "postal_code": "71510",
        "categories": [
            {
                "name": "Siêu thị"
            }
        ]
    },
    {
        "name": "Bách Hóa Xanh",
        "latitude": 10.82768,
        "longitude": 106.62679,
        "address": "Bách Hóa Xanh, Đường Nguyễn Văn Quá, Phường Tân Hưng Thuận, Quận 12, Hồ Chí Minh, Việt Nam",
        "country_code": "VNM",
        "country_name": "Việt Nam",
        "city": "Hồ Chí Minh",
        "district": "Quận 12",
        "ward": "Phường Tân Hưng Thuận",
        "street": "Đường Nguyễn Văn Quá",
        "postal_code": "71509",
        "categories": [
            {
                "name": "Siêu thị"
            }
        ]
    },
    {
        "name": "Nhà Phân Phối Ngọc Hùng",
        "latitude": 10.82787,
        "longitude": 106.62235,
        "address": "Nhà Phân Phối Ngọc Hùng, Đường Phan Văn Hớn, Phường Tân Thới Nhất, Quận 12, Hồ Chí Minh, Việt Nam",
        "country_code": "VNM",
        "country_name": "Việt Nam",
        "city": "Hồ Chí Minh",
        "district": "Quận 12",
        "ward": "Phường Tân Thới Nhất",
        "street": "Đường Phan Văn Hớn",
        "postal_code": "71510",
        "categories": [
            {
                "name": "Siêu thị"
            },
            {
                "name": "Rượu bia"
            },
            {
                "name": "Cửa hàng chuyên dụng"
            }
        ]
    },
    {
        "name": "Cửa Hàng Thực Phẩm Sạch Toàn Phương",
        "latitude": 10.8284,
        "longitude": 106.62577,
        "address": "Cửa Hàng Thực Phẩm Sạch Toàn Phương, Đường Song Hành Quốc Lộ 22, Phường Tân Hưng Thuận, Quận 12, Hồ Chí Minh, Việt Nam",
        "country_code": "VNM",
        "country_name": "Việt Nam",
        "city": "Hồ Chí Minh",
        "district": "Quận 12",
        "ward": "Phường Tân Hưng Thuận",
        "street": "Đường Song Hành Quốc Lộ 22",
        "postal_code": "71509",
        "categories": [
            {
                "name": "Siêu thị"
            },
            {
                "name": "Cửa hàng chuyên dụng"
            }
        ]
    },
    {
        "name": "Bách Hóa Xanh",
        "latitude": 10.82336,
        "longitude": 106.62017,
        "address": "Bách Hóa Xanh, Đường TTN 17, Phường Tân Thới Nhất, Quận 12, Hồ Chí Minh, Việt Nam",
        "country_code": "VNM",
        "country_name": "Việt Nam",
        "city": "Hồ Chí Minh",
        "district": "Quận 12",
        "ward": "Phường Tân Thới Nhất",
        "street": "Đường TTN 17",
        "postal_code": "71510",
        "categories": [
            {
                "name": "Siêu thị"
            }
        ]
    },
    {
        "name": "CP Kỹ Nghệ Thực Phẩm Việt Nam",
        "latitude": 10.82302,
        "longitude": 106.62922,
        "address": "CP Kỹ Nghệ Thực Phẩm Việt Nam, Cầu Tham Lương 1, Phường Tây Thạnh, Quận Tân Phú, Hồ Chí Minh, Việt Nam",
        "country_code": "VNM",
        "country_name": "Việt Nam",
        "city": "Hồ Chí Minh",
        "district": "Quận Tân Phú",
        "ward": "Phường Tây Thạnh",
        "street": "Cầu Tham Lương 1",
        "postal_code": "72009",
        "categories": [
            {
                "name": "Siêu thị"
            },
            {
                "name": "Đặc sản & Đồ uống"
            }
        ]
    },
    {
        "name": "Cửa Hàng Trái Cây Sạch",
        "latitude": 10.82907,
        "longitude": 106.62682,
        "address": "Cửa Hàng Trái Cây Sạch, 91 Đường Nguyễn Văn Quá, Phường Tân Hưng Thuận, Quận 12, Hồ Chí Minh, Việt Nam",
        "country_code": "VNM",
        "country_name": "Việt Nam",
        "city": "Hồ Chí Minh",
        "district": "Quận 12",
        "ward": "Phường Tân Hưng Thuận",
        "street": "Đường Nguyễn Văn Quá",
        "postal_code": "71509",
        "categories": [
            {
                "name": "Siêu thị"
            },
            {
                "name": "Đặc sản & Đồ uống"
            }
        ]
    },
    {
        "name": "TMDV Quảng Cáo Kim Phụng",
        "latitude": 10.8231,
        "longitude": 106.62967,
        "address": "TMDV Quảng Cáo Kim Phụng, Đường Trường Chinh, Phường 15, Quận Tân Bình, Hồ Chí Minh, Việt Nam",
        "country_code": "VNM",
        "country_name": "Việt Nam",
        "city": "Hồ Chí Minh",
        "district": "Quận Tân Bình",
        "ward": "Phường 15",
        "street": "Đường Trường Chinh",
        "postal_code": "72109",
        "categories": [
            {
                "name": "Siêu thị"
            },
            {
                "name": "Quán cà phê"
            }
        ]
    },
    {
        "name": "Nhà Máy Dầu Tường An",
        "latitude": 10.82403,
        "longitude": 106.62999,
        "address": "Nhà Máy Dầu Tường An, Đường Phan Huy Ích, Phường 15, Quận Tân Bình, Hồ Chí Minh, Việt Nam",
        "country_code": "VNM",
        "country_name": "Việt Nam",
        "city": "Hồ Chí Minh",
        "district": "Quận Tân Bình",
        "ward": "Phường 15",
        "street": "Đường Phan Huy Ích",
        "postal_code": "72109",
        "categories": [
            {
                "name": "Doanh nghiệp"
            },
            {
                "name": "Siêu thị"
            }
        ]
    },
    {
        "name": "Foodcomart",
        "latitude": 10.82957,
        "longitude": 106.62698,
        "address": "Foodcomart, Đường Nguyễn Văn Quá, Phường Tân Hưng Thuận, Quận 12, Hồ Chí Minh, Việt Nam",
        "country_code": "VNM",
        "country_name": "Việt Nam",
        "city": "Hồ Chí Minh",
        "district": "Quận 12",
        "ward": "Phường Tân Hưng Thuận",
        "street": "Đường Nguyễn Văn Quá",
        "postal_code": "71509",
        "categories": [
            {
                "name": "Siêu thị"
            }
        ]
    },
    {
        "name": "Cơ Sở Sản Xuất Kinh Doanh Muối Sunfat Đinh Thị Gọi",
        "latitude": 10.82817,
        "longitude": 106.62014,
        "address": "Cơ Sở Sản Xuất Kinh Doanh Muối Sunfat Đinh Thị Gọi, Đường Phan Văn Hớn, Phường Tân Thới Nhất, Quận 12, Hồ Chí Minh, Việt Nam",
        "country_code": "VNM",
        "country_name": "Việt Nam",
        "city": "Hồ Chí Minh",
        "district": "Quận 12",
        "ward": "Phường Tân Thới Nhất",
        "street": "Đường Phan Văn Hớn",
        "postal_code": "71510",
        "categories": [
            {
                "name": "Cửa hàng chuyên dụng"
            },
            {
                "name": "Siêu thị"
            }
        ]
    },
    {
        "name": "Foocomart",
        "latitude": 10.82964,
        "longitude": 106.62696,
        "address": "Foocomart, Đường Nguyễn Văn Quá, Phường Tân Hưng Thuận, Quận 12, Hồ Chí Minh, Việt Nam",
        "country_code": "VNM",
        "country_name": "Việt Nam",
        "city": "Hồ Chí Minh",
        "district": "Quận 12",
        "ward": "Phường Tân Hưng Thuận",
        "street": "Đường Nguyễn Văn Quá",
        "postal_code": "71509",
        "categories": [
            {
                "name": "Siêu thị"
            }
        ]
    },
    {
        "name": "Hải Sản Tươi Sách Phú Yên",
        "latitude": 10.82655,
        "longitude": 106.61906,
        "address": "Hải Sản Tươi Sách Phú Yên, 8 Hẻm 1/8 Đường Tân Thới Nhất 22, Phường Tân Thới Nhất, Quận 12, Hồ Chí Minh, Việt Nam",
        "country_code": "VNM",
        "country_name": "Việt Nam",
        "city": "Hồ Chí Minh",
        "district": "Quận 12",
        "ward": "Phường Tân Thới Nhất",
        "street": "Hẻm 1/8 Đường Tân Thới Nhất 22",
        "postal_code": "71510",
        "categories": [
            {
                "name": "Siêu thị"
            }
        ]
    },
    {
        "name": "Coopmart Phan Văn Hớn",
        "latitude": 10.82847,
        "longitude": 106.61999,
        "address": "Coopmart Phan Văn Hớn, Đường Phan Văn Hớn, Phường Tân Thới Nhất, Quận 12, Hồ Chí Minh, Việt Nam",
        "country_code": "VNM",
        "country_name": "Việt Nam",
        "city": "Hồ Chí Minh",
        "district": "Quận 12",
        "ward": "Phường Tân Thới Nhất",
        "street": "Đường Phan Văn Hớn",
        "postal_code": "71510",
        "categories": [
            {
                "name": "Siêu thị"
            }
        ]
    },
    {
        "name": "Aeon Citimart Phúc Yên",
        "latitude": 10.82523,
        "longitude": 106.63056,
        "address": "Aeon Citimart Phúc Yên, 33 Đường Phan Huy Ích, Phường 15, Quận Tân Bình, Hồ Chí Minh, Việt Nam",
        "country_code": "VNM",
        "country_name": "Việt Nam",
        "city": "Hồ Chí Minh",
        "district": "Quận Tân Bình",
        "ward": "Phường 15",
        "street": "Đường Phan Huy Ích",
        "postal_code": "72109",
        "categories": [
            {
                "name": "Siêu thị"
            }
        ]
    },
    {
        "name": "Đỉnh Cao",
        "latitude": 10.81795,
        "longitude": 106.62456,
        "address": "Đỉnh Cao, Đường CN 4, Phường Tây Thạnh, Quận Tân Phú, Hồ Chí Minh, Việt Nam",
        "country_code": "VNM",
        "country_name": "Việt Nam",
        "city": "Hồ Chí Minh",
        "district": "Quận Tân Phú",
        "ward": "Phường Tây Thạnh",
        "street": "Đường CN 4",
        "postal_code": "72009",
        "categories": [
            {
                "name": "Siêu thị"
            }
        ]
    },
    {
        "name": "Bách Hóa Xanh",
        "latitude": 10.82623,
        "longitude": 106.63118,
        "address": "Bách Hóa Xanh, Đường Phan Huy Ích, Phường 15, Quận Tân Bình, Hồ Chí Minh, Việt Nam",
        "country_code": "VNM",
        "country_name": "Việt Nam",
        "city": "Hồ Chí Minh",
        "district": "Quận Tân Bình",
        "ward": "Phường 15",
        "street": "Đường Phan Huy Ích",
        "postal_code": "72109",
        "categories": [
            {
                "name": "Siêu thị"
            }
        ]
    },
    {
        "name": "Tạp Hóa Xách Tay Nhật- Hàn",
        "latitude": 10.82433,
        "longitude": 106.63142,
        "address": "Tạp Hóa Xách Tay Nhật- Hàn, 23 Hẻm 45 Tân Trụ, Phường 15, Quận Tân Bình, Hồ Chí Minh, Việt Nam",
        "country_code": "VNM",
        "country_name": "Việt Nam",
        "city": "Hồ Chí Minh",
        "district": "Quận Tân Bình",
        "ward": "Phường 15",
        "street": "Hẻm 45 Tân Trụ",
        "postal_code": "72109",
        "categories": [
            {
                "name": "Siêu thị"
            },
            {
                "name": "Cắt tóc & Tạo mẫu"
            }
        ]
    },
    {
        "name": "Võ Phái Thiếu Lâm Tây Sơn-Tân Bình",
        "latitude": 10.82057,
        "longitude": 106.63037,
        "address": "Võ Phái Thiếu Lâm Tây Sơn-Tân Bình, 889 Đường Trường Chinh, Phường Tây Thạnh, Quận Tân Phú, Hồ Chí Minh, Việt Nam",
        "country_code": "VNM",
        "country_name": "Việt Nam",
        "city": "Hồ Chí Minh",
        "district": "Quận Tân Phú",
        "ward": "Phường Tây Thạnh",
        "street": "Đường Trường Chinh",
        "postal_code": "72009",
        "categories": [
            {
                "name": "Siêu thị"
            },
            {
                "name": "Cơ sở hoặc địa điểm thể thao"
            }
        ]
    },
    {
        "name": "Đại Lý Gạo 1 76",
        "latitude": 10.83118,
        "longitude": 106.62755,
        "address": "Đại Lý Gạo 1 76, Đường Nguyễn Văn Quá, Phường Đông Hưng Thuận, Quận 12, Hồ Chí Minh, Việt Nam",
        "country_code": "VNM",
        "country_name": "Việt Nam",
        "city": "Hồ Chí Minh",
        "district": "Quận 12",
        "ward": "Phường Đông Hưng Thuận",
        "street": "Đường Nguyễn Văn Quá",
        "postal_code": "71508",
        "categories": [
            {
                "name": "Siêu thị"
            }
        ]
    },
    {
        "name": "Vựa Gạo Công Lương",
        "latitude": 10.82707,
        "longitude": 106.6314,
        "address": "Vựa Gạo Công Lương, 55 Đường Phan Huy Ích, Phường 15, Quận Tân Bình, Hồ Chí Minh, Việt Nam",
        "country_code": "VNM",
        "country_name": "Việt Nam",
        "city": "Hồ Chí Minh",
        "district": "Quận Tân Bình",
        "ward": "Phường 15",
        "street": "Đường Phan Huy Ích",
        "postal_code": "72109",
        "categories": [
            {
                "name": "Siêu thị"
            },
            {
                "name": "Hàng tiêu dùng"
            },
            {
                "name": "Cửa hàng chuyên dụng"
            }
        ]
    },
    {
        "name": "Vàng Bạc Kim Mỹ Hiệp",
        "latitude": 10.83126,
        "longitude": 106.62751,
        "address": "Vàng Bạc Kim Mỹ Hiệp, Đường Nguyễn Văn Quá, Phường Đông Hưng Thuận, Quận 12, Hồ Chí Minh, Việt Nam",
        "country_code": "VNM",
        "country_name": "Việt Nam",
        "city": "Hồ Chí Minh",
        "district": "Quận 12",
        "ward": "Phường Đông Hưng Thuận",
        "street": "Đường Nguyễn Văn Quá",
        "postal_code": "71508",
        "categories": [
            {
                "name": "Siêu thị"
            }
        ]
    },
    {
        "name": "Tạp Hóa Trạng Nguyên",
        "latitude": 10.83101,
        "longitude": 106.62002,
        "address": "Tạp Hóa Trạng Nguyên, Đường Tân Thới Nhất 13C, Phường Tân Thới Nhất, Quận 12, Hồ Chí Minh, Việt Nam",
        "country_code": "VNM",
        "country_name": "Việt Nam",
        "city": "Hồ Chí Minh",
        "district": "Quận 12",
        "ward": "Phường Tân Thới Nhất",
        "street": "Đường Tân Thới Nhất 13C",
        "postal_code": "71510",
        "categories": [
            {
                "name": "Siêu thị"
            }
        ]
    },
    {
        "name": "FoocoMart",
        "latitude": 10.83171,
        "longitude": 106.62772,
        "address": "FoocoMart, 156 Hẻm 1 Đường Nguyễn Văn Quá, Phường Đông Hưng Thuận, Quận 12, Hồ Chí Minh, Việt Nam",
        "country_code": "VNM",
        "country_name": "Việt Nam",
        "city": "Hồ Chí Minh",
        "district": "Quận 12",
        "ward": "Phường Đông Hưng Thuận",
        "street": "Hẻm 1 Đường Nguyễn Văn Quá",
        "postal_code": "71508",
        "categories": [
            {
                "name": "Siêu thị"
            }
        ]
    },
    {
        "name": "Foodco Mart",
        "latitude": 10.83171,
        "longitude": 106.62772,
        "address": "Foodco Mart, 156 Hẻm 1 Đường Nguyễn Văn Quá, Phường Đông Hưng Thuận, Quận 12, Hồ Chí Minh, Việt Nam",
        "country_code": "VNM",
        "country_name": "Việt Nam",
        "city": "Hồ Chí Minh",
        "district": "Quận 12",
        "ward": "Phường Đông Hưng Thuận",
        "street": "Hẻm 1 Đường Nguyễn Văn Quá",
        "postal_code": "71508",
        "categories": [
            {
                "name": "Siêu thị"
            }
        ]
    },
    {
        "name": "Cửa Hàng Thực Phẩm Ăn Chay Và Ăn Kiêng Minh Tâm",
        "latitude": 10.82237,
        "longitude": 106.63244,
        "address": "Cửa Hàng Thực Phẩm Ăn Chay Và Ăn Kiêng Minh Tâm, Đường Nguyễn Phúc Chu, Phường 15, Quận Tân Bình, Hồ Chí Minh, Việt Nam",
        "country_code": "VNM",
        "country_name": "Việt Nam",
        "city": "Hồ Chí Minh",
        "district": "Quận Tân Bình",
        "ward": "Phường 15",
        "street": "Đường Nguyễn Phúc Chu",
        "postal_code": "72109",
        "categories": [
            {
                "name": "Nhà hàng"
            },
            {
                "name": "Siêu thị"
            }
        ]
    },
    {
        "name": "Co-Op",
        "latitude": 10.81804,
        "longitude": 106.61964,
        "address": "Co-Op, Đường CN1, Phường Tây Thạnh, Quận Tân Phú, Hồ Chí Minh, Việt Nam",
        "country_code": "VNM",
        "country_name": "Việt Nam",
        "city": "Hồ Chí Minh",
        "district": "Quận Tân Phú",
        "ward": "Phường Tây Thạnh",
        "street": "Đường CN1",
        "postal_code": "72009",
        "categories": [
            {
                "name": "Siêu thị"
            },
            {
                "name": "Cửa hàng tiện lợi"
            }
        ]
    },
    {
        "name": "Sữa Chua Trân Châu Hạ Long",
        "latitude": 10.8283,
        "longitude": 106.61703,
        "address": "Sữa Chua Trân Châu Hạ Long, Đường TTN 14, Phường Tân Thới Nhất, Quận 12, Hồ Chí Minh, Việt Nam",
        "country_code": "VNM",
        "country_name": "Việt Nam",
        "city": "Hồ Chí Minh",
        "district": "Quận 12",
        "ward": "Phường Tân Thới Nhất",
        "street": "Đường TTN 14",
        "postal_code": "71510",
        "categories": [
            {
                "name": "Siêu thị"
            },
            {
                "name": "Đặc sản & Đồ uống"
            }
        ]
    },
    {
        "name": "Hoàng Chánh",
        "latitude": 10.81976,
        "longitude": 106.63122,
        "address": "Hoàng Chánh, 2 Đường Trần Thái Tông, Phường 15, Quận Tân Bình, Hồ Chí Minh, Việt Nam",
        "country_code": "VNM",
        "country_name": "Việt Nam",
        "city": "Hồ Chí Minh",
        "district": "Quận Tân Bình",
        "ward": "Phường 15",
        "street": "Đường Trần Thái Tông",
        "postal_code": "72109",
        "categories": [
            {
                "name": "Siêu thị"
            }
        ]
    },
    {
        "name": "Tiệm Bánh Như Ý",
        "latitude": 10.82248,
        "longitude": 106.63256,
        "address": "Tiệm Bánh Như Ý, 61 Đường Nguyễn Phúc Chu, Phường 15, Quận Tân Bình, Hồ Chí Minh, Việt Nam",
        "country_code": "VNM",
        "country_name": "Việt Nam",
        "city": "Hồ Chí Minh",
        "district": "Quận Tân Bình",
        "ward": "Phường 15",
        "street": "Đường Nguyễn Phúc Chu",
        "postal_code": "72109",
        "categories": [
            {
                "name": "Siêu thị"
            },
            {
                "name": "Hiệu bánh"
            },
            {
                "name": "Cửa hàng chuyên dụng"
            }
        ]
    },
    {
        "name": "Đại Lý Gạo",
        "latitude": 10.81653,
        "longitude": 106.62593,
        "address": "Đại Lý Gạo, Đường Tây Thạnh, Phường Tây Thạnh, Quận Tân Phú, Hồ Chí Minh, Việt Nam",
        "country_code": "VNM",
        "country_name": "Việt Nam",
        "city": "Hồ Chí Minh",
        "district": "Quận Tân Phú",
        "ward": "Phường Tây Thạnh",
        "street": "Đường Tây Thạnh",
        "postal_code": "72009",
        "categories": [
            {
                "name": "Siêu thị"
            }
        ]
    },
    {
        "name": "Co.Op Food",
        "latitude": 10.82591,
        "longitude": 106.63281,
        "address": "Co.Op Food, Đường Cống Lở, Phường 15, Quận Tân Bình, Hồ Chí Minh, Việt Nam",
        "country_code": "VNM",
        "country_name": "Việt Nam",
        "city": "Hồ Chí Minh",
        "district": "Quận Tân Bình",
        "ward": "Phường 15",
        "street": "Đường Cống Lở",
        "postal_code": "72109",
        "categories": [
            {
                "name": "Siêu thị"
            },
            {
                "name": "Cửa hàng bách hóa"
            }
        ]
    },
    {
        "name": "Báng Hàng Tiêu Dùng Onl Cho Gia Đình",
        "latitude": 10.82231,
        "longitude": 106.63259,
        "address": "Báng Hàng Tiêu Dùng Onl Cho Gia Đình, 66 Đường Nguyễn Phúc Chu, Phường 15, Quận Tân Bình, Hồ Chí Minh, Việt Nam",
        "country_code": "VNM",
        "country_name": "Việt Nam",
        "city": "Hồ Chí Minh",
        "district": "Quận Tân Bình",
        "ward": "Phường 15",
        "street": "Đường Nguyễn Phúc Chu",
        "postal_code": "72109",
        "categories": [
            {
                "name": "Siêu thị"
            },
            {
                "name": "Hàng tiêu dùng"
            }
        ]
    },
    {
        "name": "Thân Thu",
        "latitude": 10.83244,
        "longitude": 106.62795,
        "address": "Thân Thu, Đường Nguyễn Văn Quá, Phường Đông Hưng Thuận, Quận 12, Hồ Chí Minh, Việt Nam",
        "country_code": "VNM",
        "country_name": "Việt Nam",
        "city": "Hồ Chí Minh",
        "district": "Quận 12",
        "ward": "Phường Đông Hưng Thuận",
        "street": "Đường Nguyễn Văn Quá",
        "postal_code": "71508",
        "categories": [
            {
                "name": "Siêu thị"
            }
        ]
    },
    {
        "name": "Mỹ Hoa",
        "latitude": 10.8196,
        "longitude": 106.63156,
        "address": "Mỹ Hoa, 23 Đường Trần Thái Tông, Phường 15, Quận Tân Bình, Hồ Chí Minh, Việt Nam",
        "country_code": "VNM",
        "country_name": "Việt Nam",
        "city": "Hồ Chí Minh",
        "district": "Quận Tân Bình",
        "ward": "Phường 15",
        "street": "Đường Trần Thái Tông",
        "postal_code": "72109",
        "categories": [
            {
                "name": "Siêu thị"
            },
            {
                "name": "Trường học"
            }
        ]
    },
    {
        "name": "Tạp Hóa Cảnh Hương",
        "latitude": 10.82229,
        "longitude": 106.63304,
        "address": "Tạp Hóa Cảnh Hương, 1 Hẻm 16 Đường Nguyễn Phúc Chu, Phường 15, Quận Tân Bình, Hồ Chí Minh, Việt Nam",
        "country_code": "VNM",
        "country_name": "Việt Nam",
        "city": "Hồ Chí Minh",
        "district": "Quận Tân Bình",
        "ward": "Phường 15",
        "street": "Hẻm 16 Đường Nguyễn Phúc Chu",
        "postal_code": "72109",
        "categories": [
            {
                "name": "Siêu thị"
            },
            {
                "name": "Cửa hàng tiện lợi"
            }
        ]
    },
    {
        "name": "Everyday Mart",
        "latitude": 10.83307,
        "longitude": 106.62179,
        "address": "Everyday Mart, Đường Trường Chinh, Phường Tân Hưng Thuận, Quận 12, Hồ Chí Minh, Việt Nam",
        "country_code": "VNM",
        "country_name": "Việt Nam",
        "city": "Hồ Chí Minh",
        "district": "Quận 12",
        "ward": "Phường Tân Hưng Thuận",
        "street": "Đường Trường Chinh",
        "postal_code": "71509",
        "categories": [
            {
                "name": "Siêu thị"
            }
        ]
    },
    {
        "name": "Cafe Hương Ngọc Lan",
        "latitude": 10.83281,
        "longitude": 106.62064,
        "address": "Cafe Hương Ngọc Lan, Hẻm 15 Đường Tân Thới Nhất 13, Phường Tân Thới Nhất, Quận 12, Hồ Chí Minh, Việt Nam",
        "country_code": "VNM",
        "country_name": "Việt Nam",
        "city": "Hồ Chí Minh",
        "district": "Quận 12",
        "ward": "Phường Tân Thới Nhất",
        "street": "Hẻm 15 Đường Tân Thới Nhất 13",
        "postal_code": "71510",
        "categories": [
            {
                "name": "Quán cà phê"
            },
            {
                "name": "Siêu thị"
            }
        ]
    },
    {
        "name": "Việt Tiến",
        "latitude": 10.81908,
        "longitude": 106.61724,
        "address": "Việt Tiến, Đường CN1, Phường Tây Thạnh, Quận Tân Phú, Hồ Chí Minh, Việt Nam",
        "country_code": "VNM",
        "country_name": "Việt Nam",
        "city": "Hồ Chí Minh",
        "district": "Quận Tân Phú",
        "ward": "Phường Tây Thạnh",
        "street": "Đường CN1",
        "postal_code": "72009",
        "categories": [
            {
                "name": "Siêu thị"
            }
        ]
    },
    {
        "name": "Co.Opmart Thắng Lợi",
        "latitude": 10.81793,
        "longitude": 106.63128,
        "address": "Co.Opmart Thắng Lợi, Đường Trường Chinh, Phường Tây Thạnh, Quận Tân Phú, Hồ Chí Minh, Việt Nam",
        "country_code": "VNM",
        "country_name": "Việt Nam",
        "city": "Hồ Chí Minh",
        "district": "Quận Tân Phú",
        "ward": "Phường Tây Thạnh",
        "street": "Đường Trường Chinh",
        "postal_code": "72009",
        "categories": [
            {
                "name": "Siêu thị"
            }
        ]
    },
    {
        "name": "Cửa Hàng Thực Phẩm Vissan",
        "latitude": 10.81821,
        "longitude": 106.63159,
        "address": "Cửa Hàng Thực Phẩm Vissan, 814 Đường Trường Chinh, Phường 15, Quận Tân Bình, Hồ Chí Minh, Việt Nam",
        "country_code": "VNM",
        "country_name": "Việt Nam",
        "city": "Hồ Chí Minh",
        "district": "Quận Tân Bình",
        "ward": "Phường 15",
        "street": "Đường Trường Chinh",
        "postal_code": "72109",
        "categories": [
            {
                "name": "Siêu thị"
            },
            {
                "name": "Cửa hàng chuyên dụng"
            }
        ]
    },
    {
        "name": "Vựa Hải Sản Lâm Hữu",
        "latitude": 10.83406,
        "longitude": 106.62301,
        "address": "Vựa Hải Sản Lâm Hữu, Đường Song Hành, Phường Tân Hưng Thuận, Quận 12, Hồ Chí Minh, Việt Nam",
        "country_code": "VNM",
        "country_name": "Việt Nam",
        "city": "Hồ Chí Minh",
        "district": "Quận 12",
        "ward": "Phường Tân Hưng Thuận",
        "street": "Đường Song Hành",
        "postal_code": "71509",
        "categories": [
            {
                "name": "Siêu thị"
            }
        ]
    },
    {
        "name": "Thực Phẩm Tươi Sống An Toàn Việt Nông",
        "latitude": 10.83386,
        "longitude": 106.62723,
        "address": "Thực Phẩm Tươi Sống An Toàn Việt Nông, Đường Đông Hưng Thuận 2, Phường Tân Hưng Thuận, Quận 12, Hồ Chí Minh, Việt Nam",
        "country_code": "VNM",
        "country_name": "Việt Nam",
        "city": "Hồ Chí Minh",
        "district": "Quận 12",
        "ward": "Phường Tân Hưng Thuận",
        "street": "Đường Đông Hưng Thuận 2",
        "postal_code": "71509",
        "categories": [
            {
                "name": "Cửa hàng chuyên dụng"
            },
            {
                "name": "Siêu thị"
            }
        ]
    },
    {
        "name": "Gd Food",
        "latitude": 10.83399,
        "longitude": 106.62143,
        "address": "Gd Food, Đường Đông Hưng Thuận 39, Phường Tân Hưng Thuận, Quận 12, Hồ Chí Minh, Việt Nam",
        "country_code": "VNM",
        "country_name": "Việt Nam",
        "city": "Hồ Chí Minh",
        "district": "Quận 12",
        "ward": "Phường Tân Hưng Thuận",
        "street": "Đường Đông Hưng Thuận 39",
        "postal_code": "71509",
        "categories": [
            {
                "name": "Siêu thị"
            }
        ]
    },
    {
        "name": "Bách Hóa Xanh",
        "latitude": 10.82257,
        "longitude": 106.63428,
        "address": "Bách Hóa Xanh, 91 Hẻm 87 Đường Nguyễn Phúc Chu, Phường 15, Quận Tân Bình, Hồ Chí Minh, Việt Nam",
        "country_code": "VNM",
        "country_name": "Việt Nam",
        "city": "Hồ Chí Minh",
        "district": "Quận Tân Bình",
        "ward": "Phường 15",
        "street": "Hẻm 87 Đường Nguyễn Phúc Chu",
        "postal_code": "72109",
        "categories": [
            {
                "name": "Siêu thị"
            }
        ]
    },
    {
        "name": "Bách hóa Xanh.com",
        "latitude": 10.82631,
        "longitude": 106.63452,
        "address": "Bách hóa Xanh.com, 55 Đường Cống Lở, Phường 15, Quận Tân Bình, Hồ Chí Minh, Việt Nam",
        "country_code": "VNM",
        "country_name": "Việt Nam",
        "city": "Hồ Chí Minh",
        "district": "Quận Tân Bình",
        "ward": "Phường 15",
        "street": "Đường Cống Lở",
        "postal_code": "72109",
        "categories": [
            {
                "name": "Siêu thị"
            }
        ]
    },
    {
        "name": "Tạp Hóa Oanh",
        "latitude": 10.83438,
        "longitude": 106.62167,
        "address": "Tạp Hóa Oanh, Đường Đông Hưng Thuận 3, Phường Tân Hưng Thuận, Quận 12, Hồ Chí Minh, Việt Nam",
        "country_code": "VNM",
        "country_name": "Việt Nam",
        "city": "Hồ Chí Minh",
        "district": "Quận 12",
        "ward": "Phường Tân Hưng Thuận",
        "street": "Đường Đông Hưng Thuận 3",
        "postal_code": "71509",
        "categories": [
            {
                "name": "Siêu thị"
            },
            {
                "name": "Cửa hàng tiện lợi"
            }
        ]
    },
    {
        "name": "Cửa Hàng Cà Phê-Trà Hoàng Phúc",
        "latitude": 10.83402,
        "longitude": 106.62057,
        "address": "Cửa Hàng Cà Phê-Trà Hoàng Phúc, 231 Đường Trường Chinh, Phường Tân Thới Nhất, Quận 12, Hồ Chí Minh, Việt Nam",
        "country_code": "VNM",
        "country_name": "Việt Nam",
        "city": "Hồ Chí Minh",
        "district": "Quận 12",
        "ward": "Phường Tân Thới Nhất",
        "street": "Đường Trường Chinh",
        "postal_code": "71510",
        "categories": [
            {
                "name": "Cửa hàng chuyên dụng"
            },
            {
                "name": "Siêu thị"
            }
        ]
    },
    {
        "name": "Bách Hóa Xanh",
        "latitude": 10.83443,
        "longitude": 106.62738,
        "address": "Bách Hóa Xanh, Đường Đông Hưng Thuận 2, Phường Tân Hưng Thuận, Quận 12, Hồ Chí Minh, Việt Nam",
        "country_code": "VNM",
        "country_name": "Việt Nam",
        "city": "Hồ Chí Minh",
        "district": "Quận 12",
        "ward": "Phường Tân Hưng Thuận",
        "street": "Đường Đông Hưng Thuận 2",
        "postal_code": "71509",
        "categories": [
            {
                "name": "Siêu thị"
            }
        ]
    },
    {
        "name": "Cửa Hàng Đảo Hải Sản",
        "latitude": 10.81807,
        "longitude": 106.63246,
        "address": "Cửa Hàng Đảo Hải Sản, Đường Nguyễn Sỹ Sách, Phường 15, Quận Tân Bình, Hồ Chí Minh, Việt Nam",
        "country_code": "VNM",
        "country_name": "Việt Nam",
        "city": "Hồ Chí Minh",
        "district": "Quận Tân Bình",
        "ward": "Phường 15",
        "street": "Đường Nguyễn Sỹ Sách",
        "postal_code": "72109",
        "categories": [
            {
                "name": "Siêu thị"
            },
            {
                "name": "Đặc sản & Đồ uống"
            },
            {
                "name": "Quầy hàng đặc sản"
            }
        ]
    },
    {
        "name": "Bách Hóa Xanh.com",
        "latitude": 10.82508,
        "longitude": 106.63498,
        "address": "Bách Hóa Xanh.com, 46 Đường Nguyễn Phúc Chu, Phường 15, Quận Tân Bình, Hồ Chí Minh, Việt Nam",
        "country_code": "VNM",
        "country_name": "Việt Nam",
        "city": "Hồ Chí Minh",
        "district": "Quận Tân Bình",
        "ward": "Phường 15",
        "street": "Đường Nguyễn Phúc Chu",
        "postal_code": "72109",
        "categories": [
            {
                "name": "Siêu thị"
            }
        ]
    },
    {
        "name": "Siêu Thị Thực Phẩm Tươi Sống",
        "latitude": 10.83491,
        "longitude": 106.62303,
        "address": "Siêu Thị Thực Phẩm Tươi Sống, Đường Đông Hưng Thuận 3, Phường Tân Hưng Thuận, Quận 12, Hồ Chí Minh, Việt Nam",
        "country_code": "VNM",
        "country_name": "Việt Nam",
        "city": "Hồ Chí Minh",
        "district": "Quận 12",
        "ward": "Phường Tân Hưng Thuận",
        "street": "Đường Đông Hưng Thuận 3",
        "postal_code": "71509",
        "categories": [
            {
                "name": "Siêu thị"
            }
        ]
    },
    {
        "name": "Trường An",
        "latitude": 10.83072,
        "longitude": 106.63321,
        "address": "Trường An, 48/5 Đường Phan Huy Ích, Phường 15, Quận Tân Bình, Hồ Chí Minh, Việt Nam",
        "country_code": "VNM",
        "country_name": "Việt Nam",
        "city": "Hồ Chí Minh",
        "district": "Quận Tân Bình",
        "ward": "Phường 15",
        "street": "Đường Phan Huy Ích",
        "postal_code": "72109",
        "categories": [
            {
                "name": "Siêu thị"
            },
            {
                "name": "Nhà hàng"
            },
            {
                "name": "Doanh nghiệp"
            }
        ]
    },
    {
        "name": "Chợ Lạc Quang",
        "latitude": 10.83429,
        "longitude": 106.62001,
        "address": "Chợ Lạc Quang, Đường Tân Thới Nhất 13, Phường Tân Thới Nhất, Quận 12, Hồ Chí Minh, Việt Nam",
        "country_code": "VNM",
        "country_name": "Việt Nam",
        "city": "Hồ Chí Minh",
        "district": "Quận 12",
        "ward": "Phường Tân Thới Nhất",
        "street": "Đường Tân Thới Nhất 13",
        "postal_code": "71510",
        "categories": [
            {
                "name": "Siêu thị"
            }
        ]
    },
    {
        "name": "Bách Hóa Xanh",
        "latitude": 10.83527,
        "longitude": 106.62255,
        "address": "Bách Hóa Xanh, Đường Nguyễn Văn Quá, Phường Tân Hưng Thuận, Quận 12, Hồ Chí Minh, Việt Nam",
        "country_code": "VNM",
        "country_name": "Việt Nam",
        "city": "Hồ Chí Minh",
        "district": "Quận 12",
        "ward": "Phường Tân Hưng Thuận",
        "street": "Đường Nguyễn Văn Quá",
        "postal_code": "71509",
        "categories": [
            {
                "name": "Siêu thị"
            }
        ]
    },
    {
        "name": "Bách Hóa Xanh",
        "latitude": 10.81904,
        "longitude": 106.63395,
        "address": "Bách Hóa Xanh, Đường Nguyễn Sỹ Sách, Phường 15, Quận Tân Bình, Hồ Chí Minh, Việt Nam",
        "country_code": "VNM",
        "country_name": "Việt Nam",
        "city": "Hồ Chí Minh",
        "district": "Quận Tân Bình",
        "ward": "Phường 15",
        "street": "Đường Nguyễn Sỹ Sách",
        "postal_code": "72109",
        "categories": [
            {
                "name": "Siêu thị"
            }
        ]
    },
    {
        "name": "Hạ Long",
        "latitude": 10.81752,
        "longitude": 106.61608,
        "address": "Hạ Long, Đường CN12, Phường Tây Thạnh, Quận Tân Phú, Hồ Chí Minh, Việt Nam",
        "country_code": "VNM",
        "country_name": "Việt Nam",
        "city": "Hồ Chí Minh",
        "district": "Quận Tân Phú",
        "ward": "Phường Tây Thạnh",
        "street": "Đường CN12",
        "postal_code": "72009",
        "categories": [
            {
                "name": "Siêu thị"
            }
        ]
    },
    {
        "name": "Chợ Lạc Quang",
        "latitude": 10.83472,
        "longitude": 106.62012,
        "address": "Chợ Lạc Quang, Đường Trường Chinh, Phường Tân Thới Nhất, Quận 12, Hồ Chí Minh, Việt Nam",
        "country_code": "VNM",
        "country_name": "Việt Nam",
        "city": "Hồ Chí Minh",
        "district": "Quận 12",
        "ward": "Phường Tân Thới Nhất",
        "street": "Đường Trường Chinh",
        "postal_code": "71510",
        "categories": [
            {
                "name": "Siêu thị"
            },
            {
                "name": "Cửa hàng điện tử gia dụng"
            },
            {
                "name": "Hàng tiêu dùng"
            }
        ]
    },
    {
        "name": "Bách Hóa XANH.com",
        "latitude": 10.81351,
        "longitude": 106.626,
        "address": "Bách Hóa XANH.com, Đường D9, Phường Tây Thạnh, Quận Tân Phú, Hồ Chí Minh, Việt Nam",
        "country_code": "VNM",
        "country_name": "Việt Nam",
        "city": "Hồ Chí Minh",
        "district": "Quận Tân Phú",
        "ward": "Phường Tây Thạnh",
        "street": "Đường D9",
        "postal_code": "72009",
        "categories": [
            {
                "name": "Siêu thị"
            }
        ]
    },
    {
        "name": "Chuyên Đồ Bắc",
        "latitude": 10.81954,
        "longitude": 106.63486,
        "address": "Chuyên Đồ Bắc, 51 Đường Nguyễn Sỹ Sách, Phường 15, Quận Tân Bình, Hồ Chí Minh, Việt Nam",
        "country_code": "VNM",
        "country_name": "Việt Nam",
        "city": "Hồ Chí Minh",
        "district": "Quận Tân Bình",
        "ward": "Phường 15",
        "street": "Đường Nguyễn Sỹ Sách",
        "postal_code": "72109",
        "categories": [
            {
                "name": "Cửa hàng chuyên dụng"
            },
            {
                "name": "Cửa hàng tiện lợi"
            },
            {
                "name": "Siêu thị"
            }
        ]
    },
    {
        "name": "Sạp Trái Cây Hoàng Anh",
        "latitude": 10.83026,
        "longitude": 106.61422,
        "address": "Sạp Trái Cây Hoàng Anh, Đường Phan Văn Hớn, Phường Tân Thới Nhất, Quận 12, Hồ Chí Minh, Việt Nam",
        "country_code": "VNM",
        "country_name": "Việt Nam",
        "city": "Hồ Chí Minh",
        "district": "Quận 12",
        "ward": "Phường Tân Thới Nhất",
        "street": "Đường Phan Văn Hớn",
        "postal_code": "71510",
        "categories": [
            {
                "name": "Siêu thị"
            }
        ]
    },
    {
        "name": "Vựa Hải Sản Chiến Thắng",
        "latitude": 10.83016,
        "longitude": 106.61383,
        "address": "Vựa Hải Sản Chiến Thắng, 225 Đường Phan Văn Hớn, Phường Tân Thới Nhất, Quận 12, Hồ Chí Minh, Việt Nam",
        "country_code": "VNM",
        "country_name": "Việt Nam",
        "city": "Hồ Chí Minh",
        "district": "Quận 12",
        "ward": "Phường Tân Thới Nhất",
        "street": "Đường Phan Văn Hớn",
        "postal_code": "71510",
        "categories": [
            {
                "name": "Siêu thị"
            }
        ]
    },
    {
        "name": "Hải Sản Tươi Sống Nha Trang An Khoa",
        "latitude": 10.83548,
        "longitude": 106.61949,
        "address": "Hải Sản Tươi Sống Nha Trang An Khoa, Đường Trường Chinh, Phường Tân Thới Nhất, Quận 12, Hồ Chí Minh, Việt Nam",
        "country_code": "VNM",
        "country_name": "Việt Nam",
        "city": "Hồ Chí Minh",
        "district": "Quận 12",
        "ward": "Phường Tân Thới Nhất",
        "street": "Đường Trường Chinh",
        "postal_code": "71510",
        "categories": [
            {
                "name": "Siêu thị"
            }
        ]
    },
    {
        "name": "Cửa Hàng Vàng Bạc",
        "latitude": 10.82981,
        "longitude": 106.63542,
        "address": "Cửa Hàng Vàng Bạc, Hẻm 118 Phan Huy Ích, Phường 15, Quận Tân Bình, Hồ Chí Minh, Việt Nam",
        "country_code": "VNM",
        "country_name": "Việt Nam",
        "city": "Hồ Chí Minh",
        "district": "Quận Tân Bình",
        "ward": "Phường 15",
        "street": "Hẻm 118 Phan Huy Ích",
        "postal_code": "72109",
        "categories": [
            {
                "name": "Siêu thị"
            }
        ]
    },
    {
        "name": "Vựa Gạo Miền Tây Hương Hải",
        "latitude": 10.81999,
        "longitude": 106.63567,
        "address": "Vựa Gạo Miền Tây Hương Hải, 79 Đường Nguyễn Sỹ Sách, Phường 15, Quận Tân Bình, Hồ Chí Minh, Việt Nam",
        "country_code": "VNM",
        "country_name": "Việt Nam",
        "city": "Hồ Chí Minh",
        "district": "Quận Tân Bình",
        "ward": "Phường 15",
        "street": "Đường Nguyễn Sỹ Sách",
        "postal_code": "72109",
        "categories": [
            {
                "name": "Siêu thị"
            },
            {
                "name": "Hàng tiêu dùng"
            }
        ]
    },
    {
        "name": "Bách Hóa Xanh",
        "latitude": 10.83387,
        "longitude": 106.61679,
        "address": "Bách Hóa Xanh, 265 Đường Trường Chinh, Phường Tân Thới Nhất, Quận 12, Hồ Chí Minh, Việt Nam",
        "country_code": "VNM",
        "country_name": "Việt Nam",
        "city": "Hồ Chí Minh",
        "district": "Quận 12",
        "ward": "Phường Tân Thới Nhất",
        "street": "Đường Trường Chinh",
        "postal_code": "71510",
        "categories": [
            {
                "name": "Siêu thị"
            }
        ]
    },
    {
        "name": "Hiệu Vàng Ngọc Trung",
        "latitude": 10.82929,
        "longitude": 106.6357,
        "address": "Hiệu Vàng Ngọc Trung, Hẻm 118/127B Đường Phan Huy Ích, Phường 15, Quận Tân Bình, Hồ Chí Minh, Việt Nam",
        "country_code": "VNM",
        "country_name": "Việt Nam",
        "city": "Hồ Chí Minh",
        "district": "Quận Tân Bình",
        "ward": "Phường 15",
        "street": "Hẻm 118/127B Đường Phan Huy Ích",
        "postal_code": "72109",
        "categories": [
            {
                "name": "Siêu thị"
            }
        ]
    },
    {
        "name": "Cửa Hàng Hải Sản Ngọc Chi",
        "latitude": 10.83557,
        "longitude": 106.61943,
        "address": "Cửa Hàng Hải Sản Ngọc Chi, Đường Trường Chinh, Phường Tân Thới Nhất, Quận 12, Hồ Chí Minh, Việt Nam",
        "country_code": "VNM",
        "country_name": "Việt Nam",
        "city": "Hồ Chí Minh",
        "district": "Quận 12",
        "ward": "Phường Tân Thới Nhất",
        "street": "Đường Trường Chinh",
        "postal_code": "71510",
        "categories": [
            {
                "name": "Siêu thị"
            }
        ]
    },
    {
        "name": "Châu",
        "latitude": 10.81263,
        "longitude": 106.62323,
        "address": "Châu, 171 Đường Nguyễn Hữu Tiến, Phường Tây Thạnh, Quận Tân Phú, Hồ Chí Minh, Việt Nam",
        "country_code": "VNM",
        "country_name": "Việt Nam",
        "city": "Hồ Chí Minh",
        "district": "Quận Tân Phú",
        "ward": "Phường Tây Thạnh",
        "street": "Đường Nguyễn Hữu Tiến",
        "postal_code": "72009",
        "categories": [
            {
                "name": "Siêu thị"
            }
        ]
    },
    {
        "name": "Chả Giò",
        "latitude": 10.8363,
        "longitude": 106.62056,
        "address": "Chả Giò, Đường Đông Hưng Thuận 40, Phường Tân Hưng Thuận, Quận 12, Hồ Chí Minh, Việt Nam",
        "country_code": "VNM",
        "country_name": "Việt Nam",
        "city": "Hồ Chí Minh",
        "district": "Quận 12",
        "ward": "Phường Tân Hưng Thuận",
        "street": "Đường Đông Hưng Thuận 40",
        "postal_code": "71509",
        "categories": [
            {
                "name": "Siêu thị"
            },
            {
                "name": "Đặc sản & Đồ uống"
            }
        ]
    },
    {
        "name": "KHU CHỢ BẢO NGỌC TỪ",
        "latitude": 10.82958,
        "longitude": 106.63597,
        "address": "KHU CHỢ BẢO NGỌC TỪ, 107/106/6 Đường Phan Huy Ích, Phường 15, Quận Tân Bình, Hồ Chí Minh, Việt Nam",
        "country_code": "VNM",
        "country_name": "Việt Nam",
        "city": "Hồ Chí Minh",
        "district": "Quận Tân Bình",
        "ward": "Phường 15",
        "street": "Đường Phan Huy Ích",
        "postal_code": "72109",
        "categories": [
            {
                "name": "Siêu thị"
            }
        ]
    },
    {
        "name": "Hoàng Vũ Tạp Hóa",
        "latitude": 10.8124,
        "longitude": 106.62626,
        "address": "Hoàng Vũ Tạp Hóa, 96 Đường Lưu Chí Hiếu, Phường Tây Thạnh, Quận Tân Phú, Hồ Chí Minh, Việt Nam",
        "country_code": "VNM",
        "country_name": "Việt Nam",
        "city": "Hồ Chí Minh",
        "district": "Quận Tân Phú",
        "ward": "Phường Tây Thạnh",
        "street": "Đường Lưu Chí Hiếu",
        "postal_code": "72009",
        "categories": [
            {
                "name": "Siêu thị"
            },
            {
                "name": "Cửa hàng tiện lợi"
            }
        ]
    },
    {
        "name": "Co.Op Food",
        "latitude": 10.83624,
        "longitude": 106.62891,
        "address": "Co.Op Food, Đường Nguyễn Văn Quá, Phường Đông Hưng Thuận, Quận 12, Hồ Chí Minh, Việt Nam",
        "country_code": "VNM",
        "country_name": "Việt Nam",
        "city": "Hồ Chí Minh",
        "district": "Quận 12",
        "ward": "Phường Đông Hưng Thuận",
        "street": "Đường Nguyễn Văn Quá",
        "postal_code": "71508",
        "categories": [
            {
                "name": "Siêu thị"
            },
            {
                "name": "Cửa hàng tiện lợi"
            }
        ]
    },
    {
        "name": "Bách Hóa Xanh",
        "latitude": 10.81348,
        "longitude": 106.61888,
        "address": "Bách Hóa Xanh, 216 Đường Kênh 19/5, Phường Tây Thạnh, Quận Tân Phú, Hồ Chí Minh, Việt Nam",
        "country_code": "VNM",
        "country_name": "Việt Nam",
        "city": "Hồ Chí Minh",
        "district": "Quận Tân Phú",
        "ward": "Phường Tây Thạnh",
        "street": "Đường Kênh 19/5",
        "postal_code": "72009",
        "categories": [
            {
                "name": "Siêu thị"
            }
        ]
    },
    {
        "name": "Bánh Canh Bột Gạo Bảo Khánh",
        "latitude": 10.82988,
        "longitude": 106.63601,
        "address": "Bánh Canh Bột Gạo Bảo Khánh, 52 Đường Huỳnh Văn Nghệ, Phường 15, Quận Tân Bình, Hồ Chí Minh, Việt Nam",
        "country_code": "VNM",
        "country_name": "Việt Nam",
        "city": "Hồ Chí Minh",
        "district": "Quận Tân Bình",
        "ward": "Phường 15",
        "street": "Đường Huỳnh Văn Nghệ",
        "postal_code": "72109",
        "categories": [
            {
                "name": "Siêu thị"
            },
            {
                "name": "Nhà hàng"
            }
        ]
    },
    {
        "name": "Đại Lý Gạo Mỹ Chi",
        "latitude": 10.83298,
        "longitude": 106.63417,
        "address": "Đại Lý Gạo Mỹ Chi, Đường Phan Huy Ích, Phường 14, Quận Gò Vấp, Hồ Chí Minh, Việt Nam",
        "country_code": "VNM",
        "country_name": "Việt Nam",
        "city": "Hồ Chí Minh",
        "district": "Quận Gò Vấp",
        "ward": "Phường 14",
        "street": "Đường Phan Huy Ích",
        "postal_code": "71418",
        "categories": [
            {
                "name": "Siêu thị"
            }
        ]
    },
    {
        "name": "Mỳ Quảng",
        "latitude": 10.83478,
        "longitude": 106.61656,
        "address": "Mỳ Quảng, Hẻm 84 Đường Tân Thới Nhất 1, Phường Tân Thới Nhất, Quận 12, Hồ Chí Minh, Việt Nam",
        "country_code": "VNM",
        "country_name": "Việt Nam",
        "city": "Hồ Chí Minh",
        "district": "Quận 12",
        "ward": "Phường Tân Thới Nhất",
        "street": "Hẻm 84 Đường Tân Thới Nhất 1",
        "postal_code": "71510",
        "categories": [
            {
                "name": "Siêu thị"
            },
            {
                "name": "Nhà hàng"
            }
        ]
    },
    {
        "name": "Đại Lý Gạo",
        "latitude": 10.81169,
        "longitude": 106.62431,
        "address": "Đại Lý Gạo, 115 Đường Nguyễn Hữu Tiến, Phường Tây Thạnh, Quận Tân Phú, Hồ Chí Minh, Việt Nam",
        "country_code": "VNM",
        "country_name": "Việt Nam",
        "city": "Hồ Chí Minh",
        "district": "Quận Tân Phú",
        "ward": "Phường Tây Thạnh",
        "street": "Đường Nguyễn Hữu Tiến",
        "postal_code": "72009",
        "categories": [
            {
                "name": "Siêu thị"
            },
            {
                "name": "Cửa hàng chuyên dụng"
            }
        ]
    },
    {
        "name": "Kiyone Shop",
        "latitude": 10.82111,
        "longitude": 106.63717,
        "address": "Kiyone Shop, Hẻm 147 Nguyễn Sỹ Sách, Phường 15, Quận Tân Bình, Hồ Chí Minh, Việt Nam",
        "country_code": "VNM",
        "country_name": "Việt Nam",
        "city": "Hồ Chí Minh",
        "district": "Quận Tân Bình",
        "ward": "Phường 15",
        "street": "Hẻm 147 Nguyễn Sỹ Sách",
        "postal_code": "72109",
        "categories": [
            {
                "name": "Siêu thị"
            }
        ]
    },
    {
        "name": "Co.Op Food",
        "latitude": 10.81196,
        "longitude": 106.6217,
        "address": "Co.Op Food, 257-259 Đường Tây Thạnh, Phường Tây Thạnh, Quận Tân Phú, Hồ Chí Minh, Việt Nam",
        "country_code": "VNM",
        "country_name": "Việt Nam",
        "city": "Hồ Chí Minh",
        "district": "Quận Tân Phú",
        "ward": "Phường Tây Thạnh",
        "street": "Đường Tây Thạnh",
        "postal_code": "72009",
        "categories": [
            {
                "name": "Siêu thị"
            },
            {
                "name": "Cửa hàng tiện lợi"
            }
        ]
    },
    {
        "name": "Bách Hóa XANH",
        "latitude": 10.81683,
        "longitude": 106.63527,
        "address": "Bách Hóa XANH, Đường Trần Thái Tông, Phường 15, Quận Tân Bình, Hồ Chí Minh, Việt Nam",
        "country_code": "VNM",
        "country_name": "Việt Nam",
        "city": "Hồ Chí Minh",
        "district": "Quận Tân Bình",
        "ward": "Phường 15",
        "street": "Đường Trần Thái Tông",
        "postal_code": "72109",
        "categories": [
            {
                "name": "Siêu thị"
            }
        ]
    },
    {
        "name": "Bách Hóa Xanh",
        "latitude": 10.83049,
        "longitude": 106.63698,
        "address": "Bách Hóa Xanh, 70 Đường Huỳnh Văn Nghệ, Phường 15, Quận Tân Bình, Hồ Chí Minh, Việt Nam",
        "country_code": "VNM",
        "country_name": "Việt Nam",
        "city": "Hồ Chí Minh",
        "district": "Quận Tân Bình",
        "ward": "Phường 15",
        "street": "Đường Huỳnh Văn Nghệ",
        "postal_code": "72109",
        "categories": [
            {
                "name": "Siêu thị"
            }
        ]
    },
    {
        "name": "Chợ Hải Sản",
        "latitude": 10.83794,
        "longitude": 106.62759,
        "address": "Chợ Hải Sản, Đường Đông Hưng Thuận 2, Phường Tân Hưng Thuận, Quận 12, Hồ Chí Minh, Việt Nam",
        "country_code": "VNM",
        "country_name": "Việt Nam",
        "city": "Hồ Chí Minh",
        "district": "Quận 12",
        "ward": "Phường Tân Hưng Thuận",
        "street": "Đường Đông Hưng Thuận 2",
        "postal_code": "71509",
        "categories": [
            {
                "name": "Siêu thị"
            }
        ]
    },
    {
        "name": "Công Ty Cổ Phần Thực Phẩm Gò Vấp",
        "latitude": 10.83511,
        "longitude": 106.63354,
        "address": "Công Ty Cổ Phần Thực Phẩm Gò Vấp, Đường Số 39, Phường 14, Quận Gò Vấp, Hồ Chí Minh, Việt Nam",
        "country_code": "VNM",
        "country_name": "Việt Nam",
        "city": "Hồ Chí Minh",
        "district": "Quận Gò Vấp",
        "ward": "Phường 14",
        "street": "Đường Số 39",
        "postal_code": "71418",
        "categories": [
            {
                "name": "Siêu thị"
            },
            {
                "name": "Doanh nghiệp"
            }
        ]
    },
    {
        "name": "Cửa Hàng Thanh Phượng",
        "latitude": 10.81133,
        "longitude": 106.62087,
        "address": "Cửa Hàng Thanh Phượng, 202 Đường Tây Thạnh, Phường Tây Thạnh, Quận Tân Phú, Hồ Chí Minh, Việt Nam",
        "country_code": "VNM",
        "country_name": "Việt Nam",
        "city": "Hồ Chí Minh",
        "district": "Quận Tân Phú",
        "ward": "Phường Tây Thạnh",
        "street": "Đường Tây Thạnh",
        "postal_code": "72009",
        "categories": [
            {
                "name": "Siêu thị"
            },
            {
                "name": "Cửa hàng tiện lợi"
            }
        ]
    },
    {
        "name": "Bách Hóa Xanh",
        "latitude": 10.83433,
        "longitude": 106.63457,
        "address": "Bách Hóa Xanh, Đường Nguyễn Tư Giản, Phường 12, Quận Gò Vấp, Hồ Chí Minh, Việt Nam",
        "country_code": "VNM",
        "country_name": "Việt Nam",
        "city": "Hồ Chí Minh",
        "district": "Quận Gò Vấp",
        "ward": "Phường 12",
        "street": "Đường Nguyễn Tư Giản",
        "postal_code": "71420",
        "categories": [
            {
                "name": "Siêu thị"
            }
        ]
    },
    {
        "name": "Vinmart+",
        "latitude": 10.83268,
        "longitude": 106.61274,
        "address": "Vinmart+, Đường Tân Thới Nhất 8, Phường Tân Thới Nhất, Quận 12, Hồ Chí Minh, Việt Nam",
        "country_code": "VNM",
        "country_name": "Việt Nam",
        "city": "Hồ Chí Minh",
        "district": "Quận 12",
        "ward": "Phường Tân Thới Nhất",
        "street": "Đường Tân Thới Nhất 8",
        "postal_code": "71510",
        "categories": [
            {
                "name": "Siêu thị"
            }
        ]
    },
    {
        "name": "Famima 0139-Payoo",
        "latitude": 10.83435,
        "longitude": 106.63495,
        "address": "Famima 0139-Payoo, 198 Đường Phan Huy Ích, Phường 12, Quận Gò Vấp, Hồ Chí Minh, Việt Nam",
        "country_code": "VNM",
        "country_name": "Việt Nam",
        "city": "Hồ Chí Minh",
        "district": "Quận Gò Vấp",
        "ward": "Phường 12",
        "street": "Đường Phan Huy Ích",
        "postal_code": "71420",
        "categories": [
            {
                "name": "Siêu thị"
            }
        ]
    },
    {
        "name": "Bách Hóa XANH",
        "latitude": 10.81984,
        "longitude": 106.6109,
        "address": "Bách Hóa XANH, Đường M12, Phường Bình Hưng Hòa, Quận Bình Tân, Hồ Chí Minh, Việt Nam",
        "country_code": "VNM",
        "country_name": "Việt Nam",
        "city": "Hồ Chí Minh",
        "district": "Quận Bình Tân",
        "ward": "Phường Bình Hưng Hòa",
        "street": "Đường M12",
        "postal_code": "71913",
        "categories": [
            {
                "name": "Siêu thị"
            }
        ]
    },
    {
        "name": "Tiệm Vàng Đại Tín",
        "latitude": 10.83621,
        "longitude": 106.63286,
        "address": "Tiệm Vàng Đại Tín, Hẻm 22 Phan Huy Ích, Phường 14, Quận Gò Vấp, Hồ Chí Minh, Việt Nam",
        "country_code": "VNM",
        "country_name": "Việt Nam",
        "city": "Hồ Chí Minh",
        "district": "Quận Gò Vấp",
        "ward": "Phường 14",
        "street": "Hẻm 22 Phan Huy Ích",
        "postal_code": "71418",
        "categories": [
            {
                "name": "Siêu thị"
            },
            {
                "name": "Hàng tiêu dùng"
            }
        ]
    }
]
