[
    {
        "name": "At Store",
        "latitude": 10.82358,
        "longitude": 106.62398,
        "address": "At Store, C18 Đường C1, Phường Tân Thới Nhất, Quận 12, Hồ Chí Minh, Việt Nam",
        "country_code": "VNM",
        "country_name": "Việt Nam",
        "city": "Hồ Chí Minh",
        "district": "Quận 12",
        "ward": "Phường Tân Thới Nhất",
        "street": "Đường C1",
        "postal_code": "71510",
        "categories": [
            {
                "name": "Hàng tiêu dùng"
            }
        ]
    },
    {
        "name": "H B Store",
        "latitude": 10.82638,
        "longitude": 106.62389,
        "address": "H B Store, Tổ 52 KP 4, Phường Tân Thới Nhất, Quận 12, Hồ Chí Minh, Việt Nam",
        "country_code": "VNM",
        "country_name": "Việt Nam",
        "city": "Hồ Chí Minh",
        "district": "Quận 12",
        "ward": "Phường Tân Thới Nhất",
        "street": "Tổ 52 KP 4",
        "postal_code": "71510",
        "categories": [
            {
                "name": "Hàng tiêu dùng"
            }
        ]
    },
    {
        "name": "Chao Ban Vn",
        "latitude": 10.8265,
        "longitude": 106.624,
        "address": "Chao Ban Vn, Đường Tân Thới Nhất 20, Phường Tân Thới Nhất, Quận 12, Hồ Chí Minh, Việt Nam",
        "country_code": "VNM",
        "country_name": "Việt Nam",
        "city": "Hồ Chí Minh",
        "district": "Quận 12",
        "ward": "Phường Tân Thới Nhất",
        "street": "Đường Tân Thới Nhất 20",
        "postal_code": "71510",
        "categories": [
            {
                "name": "Hàng tiêu dùng"
            }
        ]
    },
    {
        "name": "Bolobala Shop",
        "latitude": 10.82599,
        "longitude": 106.62608,
        "address": "Bolobala Shop, Đường Trường Chinh, Phường Tân Thới Nhất, Quận 12, Hồ Chí Minh, Việt Nam",
        "country_code": "VNM",
        "country_name": "Việt Nam",
        "city": "Hồ Chí Minh",
        "district": "Quận 12",
        "ward": "Phường Tân Thới Nhất",
        "street": "Đường Trường Chinh",
        "postal_code": "71510",
        "categories": [
            {
                "name": "Hàng tiêu dùng"
            }
        ]
    },
    {
        "name": "Applemono",
        "latitude": 10.82705,
        "longitude": 106.62511,
        "address": "Applemono, 41-43 Đường Trường Chinh, Phường Tân Thới Nhất, Quận 12, Hồ Chí Minh, Việt Nam",
        "country_code": "VNM",
        "country_name": "Việt Nam",
        "city": "Hồ Chí Minh",
        "district": "Quận 12",
        "ward": "Phường Tân Thới Nhất",
        "street": "Đường Trường Chinh",
        "postal_code": "71510",
        "categories": [
            {
                "name": "Hàng tiêu dùng"
            }
        ]
    },
    {
        "name": "Nhà Bếp Diệu Kỳ",
        "latitude": 10.82715,
        "longitude": 106.62492,
        "address": "Nhà Bếp Diệu Kỳ, Đường Phan Văn Hớn, Phường Tân Thới Nhất, Quận 12, Hồ Chí Minh, Việt Nam",
        "country_code": "VNM",
        "country_name": "Việt Nam",
        "city": "Hồ Chí Minh",
        "district": "Quận 12",
        "ward": "Phường Tân Thới Nhất",
        "street": "Đường Phan Văn Hớn",
        "postal_code": "71510",
        "categories": [
            {
                "name": "Hàng tiêu dùng"
            }
        ]
    },
    {
        "name": "Hội Các Mẹ Bỉm Sữa Thích Làm Đẹp",
        "latitude": 10.82714,
        "longitude": 106.625,
        "address": "Hội Các Mẹ Bỉm Sữa Thích Làm Đẹp, Đường Trường Chinh, Phường Tân Thới Nhất, Quận 12, Hồ Chí Minh, Việt Nam",
        "country_code": "VNM",
        "country_name": "Việt Nam",
        "city": "Hồ Chí Minh",
        "district": "Quận 12",
        "ward": "Phường Tân Thới Nhất",
        "street": "Đường Trường Chinh",
        "postal_code": "71510",
        "categories": [
            {
                "name": "Hàng tiêu dùng"
            }
        ]
    },
    {
        "name": "Cửa Hàng Kính Thế Tài",
        "latitude": 10.82611,
        "longitude": 106.62664,
        "address": "Cửa Hàng Kính Thế Tài, 2/41 Đường Trường Chinh, Phường Đông Hưng Thuận, Quận 12, Hồ Chí Minh, Việt Nam",
        "country_code": "VNM",
        "country_name": "Việt Nam",
        "city": "Hồ Chí Minh",
        "district": "Quận 12",
        "ward": "Phường Đông Hưng Thuận",
        "street": "Đường Trường Chinh",
        "postal_code": "71508",
        "categories": [
            {
                "name": "Hàng tiêu dùng"
            }
        ]
    },
    {
        "name": "Đại Lý Phân Phối Kệ Trang Trí",
        "latitude": 10.82721,
        "longitude": 106.62473,
        "address": "Đại Lý Phân Phối Kệ Trang Trí, 7 Đường Phan Văn Hớn, Phường Tân Thới Nhất, Quận 12, Hồ Chí Minh, Việt Nam",
        "country_code": "VNM",
        "country_name": "Việt Nam",
        "city": "Hồ Chí Minh",
        "district": "Quận 12",
        "ward": "Phường Tân Thới Nhất",
        "street": "Đường Phan Văn Hớn",
        "postal_code": "71510",
        "categories": [
            {
                "name": "Hàng tiêu dùng"
            },
            {
                "name": "Cửa hàng làm móng"
            }
        ]
    },
    {
        "name": "Cơ Sở Điện Lạnh Thiên Phát",
        "latitude": 10.82742,
        "longitude": 106.62451,
        "address": "Cơ Sở Điện Lạnh Thiên Phát, Đường Phan Văn Hớn, Phường Tân Thới Nhất, Quận 12, Hồ Chí Minh, Việt Nam",
        "country_code": "VNM",
        "country_name": "Việt Nam",
        "city": "Hồ Chí Minh",
        "district": "Quận 12",
        "ward": "Phường Tân Thới Nhất",
        "street": "Đường Phan Văn Hớn",
        "postal_code": "71510",
        "categories": [
            {
                "name": "Hàng tiêu dùng"
            }
        ]
    },
    {
        "name": "Dụng Cụ Cầm Tay",
        "latitude": 10.82746,
        "longitude": 106.62431,
        "address": "Dụng Cụ Cầm Tay, 14 Hẻm 16 Đường Phan Văn Hớn, Phường Tân Thới Nhất, Quận 12, Hồ Chí Minh, Việt Nam",
        "country_code": "VNM",
        "country_name": "Việt Nam",
        "city": "Hồ Chí Minh",
        "district": "Quận 12",
        "ward": "Phường Tân Thới Nhất",
        "street": "Hẻm 16 Đường Phan Văn Hớn",
        "postal_code": "71510",
        "categories": [
            {
                "name": "Hàng tiêu dùng"
            }
        ]
    },
    {
        "name": "Cà Rem Store",
        "latitude": 10.82747,
        "longitude": 106.62418,
        "address": "Cà Rem Store, Đường Phan Văn Hớn, Phường Tân Thới Nhất, Quận 12, Hồ Chí Minh, Việt Nam",
        "country_code": "VNM",
        "country_name": "Việt Nam",
        "city": "Hồ Chí Minh",
        "district": "Quận 12",
        "ward": "Phường Tân Thới Nhất",
        "street": "Đường Phan Văn Hớn",
        "postal_code": "71510",
        "categories": [
            {
                "name": "Hàng tiêu dùng"
            }
        ]
    },
    {
        "name": "Mặt Trời Bách Khoa - Cty CP Đầu Tư & Phát Triển Nă",
        "latitude": 10.82313,
        "longitude": 106.62184,
        "address": "Mặt Trời Bách Khoa - Cty CP Đầu Tư & Phát Triển Nă, 11 Đường Tân Thới Nhất 17, Phường Tân Thới Nhất, Quận 12, Hồ Chí Minh, Việt Nam",
        "country_code": "VNM",
        "country_name": "Việt Nam",
        "city": "Hồ Chí Minh",
        "district": "Quận 12",
        "ward": "Phường Tân Thới Nhất",
        "street": "Đường Tân Thới Nhất 17",
        "postal_code": "71510",
        "categories": [
            {
                "name": "Hàng tiêu dùng"
            }
        ]
    },
    {
        "name": "Đại Lý Nón Ngọc Hường",
        "latitude": 10.82699,
        "longitude": 106.62662,
        "address": "Đại Lý Nón Ngọc Hường, Đường Nguyễn Văn Quá, Phường Tân Hưng Thuận, Quận 12, Hồ Chí Minh, Việt Nam",
        "country_code": "VNM",
        "country_name": "Việt Nam",
        "city": "Hồ Chí Minh",
        "district": "Quận 12",
        "ward": "Phường Tân Hưng Thuận",
        "street": "Đường Nguyễn Văn Quá",
        "postal_code": "71509",
        "categories": [
            {
                "name": "Hàng tiêu dùng"
            }
        ]
    },
    {
        "name": "Chợ Máy Laser CNC - Thiết Bị Quảng Cáo",
        "latitude": 10.82593,
        "longitude": 106.62114,
        "address": "Chợ Máy Laser CNC - Thiết Bị Quảng Cáo, Đường Tân Thới Nhất 17, Phường Tân Thới Nhất, Quận 12, Hồ Chí Minh, Việt Nam",
        "country_code": "VNM",
        "country_name": "Việt Nam",
        "city": "Hồ Chí Minh",
        "district": "Quận 12",
        "ward": "Phường Tân Thới Nhất",
        "street": "Đường Tân Thới Nhất 17",
        "postal_code": "71510",
        "categories": [
            {
                "name": "Hàng tiêu dùng"
            }
        ]
    },
    {
        "name": "Joggerstore.Vn",
        "latitude": 10.82777,
        "longitude": 106.62201,
        "address": "Joggerstore.Vn, 45 Đường Phan Văn Hớn, Phường Tân Thới Nhất, Quận 12, Hồ Chí Minh, Việt Nam",
        "country_code": "VNM",
        "country_name": "Việt Nam",
        "city": "Hồ Chí Minh",
        "district": "Quận 12",
        "ward": "Phường Tân Thới Nhất",
        "street": "Đường Phan Văn Hớn",
        "postal_code": "71510",
        "categories": [
            {
                "name": "Hàng tiêu dùng"
            }
        ]
    },
    {
        "name": "Ezmua",
        "latitude": 10.82762,
        "longitude": 106.62752,
        "address": "Ezmua, Đường Nguyễn Văn Quá, Phường Đông Hưng Thuận, Quận 12, Hồ Chí Minh, Việt Nam",
        "country_code": "VNM",
        "country_name": "Việt Nam",
        "city": "Hồ Chí Minh",
        "district": "Quận 12",
        "ward": "Phường Đông Hưng Thuận",
        "street": "Đường Nguyễn Văn Quá",
        "postal_code": "71508",
        "categories": [
            {
                "name": "Hàng tiêu dùng"
            }
        ]
    },
    {
        "name": "Loa Kéo Đại Phong",
        "latitude": 10.82784,
        "longitude": 106.6217,
        "address": "Loa Kéo Đại Phong, Đường Phan Văn Hớn, Phường Tân Thới Nhất, Quận 12, Hồ Chí Minh, Việt Nam",
        "country_code": "VNM",
        "country_name": "Việt Nam",
        "city": "Hồ Chí Minh",
        "district": "Quận 12",
        "ward": "Phường Tân Thới Nhất",
        "street": "Đường Phan Văn Hớn",
        "postal_code": "71510",
        "categories": [
            {
                "name": "Hàng tiêu dùng"
            }
        ]
    },
    {
        "name": "Ôtô HYUNDAI An Sương",
        "latitude": 10.82908,
        "longitude": 106.62391,
        "address": "Ôtô HYUNDAI An Sương, 113 Đường Trường Chinh, Phường Tân Thới Nhất, Quận 12, Hồ Chí Minh, Việt Nam",
        "country_code": "VNM",
        "country_name": "Việt Nam",
        "city": "Hồ Chí Minh",
        "district": "Quận 12",
        "ward": "Phường Tân Thới Nhất",
        "street": "Đường Trường Chinh",
        "postal_code": "71510",
        "categories": [
            {
                "name": "Hàng tiêu dùng"
            }
        ]
    },
    {
        "name": "Ttdm Quoc An",
        "latitude": 10.82931,
        "longitude": 106.62376,
        "address": "Ttdm Quoc An, 117 Đường Trường Chinh, Phường Tân Thới Nhất, Quận 12, Hồ Chí Minh, Việt Nam",
        "country_code": "VNM",
        "country_name": "Việt Nam",
        "city": "Hồ Chí Minh",
        "district": "Quận 12",
        "ward": "Phường Tân Thới Nhất",
        "street": "Đường Trường Chinh",
        "postal_code": "71510",
        "categories": [
            {
                "name": "Hàng tiêu dùng"
            }
        ]
    },
    {
        "name": "Future Vision Q7",
        "latitude": 10.82234,
        "longitude": 106.61961,
        "address": "Future Vision Q7, Đường F, Phường Tân Thới Nhất, Quận 12, Hồ Chí Minh, Việt Nam",
        "country_code": "VNM",
        "country_name": "Việt Nam",
        "city": "Hồ Chí Minh",
        "district": "Quận 12",
        "ward": "Phường Tân Thới Nhất",
        "street": "Đường F",
        "postal_code": "71510",
        "categories": [
            {
                "name": "Hàng tiêu dùng"
            }
        ]
    },
    {
        "name": "Tạp Hóa Kiều Ngân",
        "latitude": 10.82936,
        "longitude": 106.62698,
        "address": "Tạp Hóa Kiều Ngân, 72A Đường Nguyễn Văn Quá, Phường Tân Hưng Thuận, Quận 12, Hồ Chí Minh, Việt Nam",
        "country_code": "VNM",
        "country_name": "Việt Nam",
        "city": "Hồ Chí Minh",
        "district": "Quận 12",
        "ward": "Phường Tân Hưng Thuận",
        "street": "Đường Nguyễn Văn Quá",
        "postal_code": "71509",
        "categories": [
            {
                "name": "Hàng tiêu dùng"
            }
        ]
    },
    {
        "name": "Cơ Sở Điện Cơ, Khoang Giếng Vạn Thành",
        "latitude": 10.82374,
        "longitude": 106.62984,
        "address": "Cơ Sở Điện Cơ, Khoang Giếng Vạn Thành, 2/8 Đường Phan Huy Ích, Phường 15, Quận Tân Bình, Hồ Chí Minh, Việt Nam",
        "country_code": "VNM",
        "country_name": "Việt Nam",
        "city": "Hồ Chí Minh",
        "district": "Quận Tân Bình",
        "ward": "Phường 15",
        "street": "Đường Phan Huy Ích",
        "postal_code": "72109",
        "categories": [
            {
                "name": "Hàng tiêu dùng"
            }
        ]
    },
    {
        "name": "Yen Hong Vo",
        "latitude": 10.82977,
        "longitude": 106.62611,
        "address": "Yen Hong Vo, Hẻm 18 Đường Nguyễn Văn Quá, Phường Tân Hưng Thuận, Quận 12, Hồ Chí Minh, Việt Nam",
        "country_code": "VNM",
        "country_name": "Việt Nam",
        "city": "Hồ Chí Minh",
        "district": "Quận 12",
        "ward": "Phường Tân Hưng Thuận",
        "street": "Hẻm 18 Đường Nguyễn Văn Quá",
        "postal_code": "71509",
        "categories": [
            {
                "name": "Hàng tiêu dùng"
            }
        ]
    },
    {
        "name": "Nhi S Store",
        "latitude": 10.82977,
        "longitude": 106.62611,
        "address": "Nhi S Store, Hẻm 18 Đường Nguyễn Văn Quá, Phường Tân Hưng Thuận, Quận 12, Hồ Chí Minh, Việt Nam",
        "country_code": "VNM",
        "country_name": "Việt Nam",
        "city": "Hồ Chí Minh",
        "district": "Quận 12",
        "ward": "Phường Tân Hưng Thuận",
        "street": "Hẻm 18 Đường Nguyễn Văn Quá",
        "postal_code": "71509",
        "categories": [
            {
                "name": "Hàng tiêu dùng"
            }
        ]
    },
    {
        "name": "Túi Xốp Hơi Bóng Khí Đông Á",
        "latitude": 10.82278,
        "longitude": 106.61933,
        "address": "Túi Xốp Hơi Bóng Khí Đông Á, Đường Số 13, Phường Tân Thới Nhất, Quận 12, Hồ Chí Minh, Việt Nam",
        "country_code": "VNM",
        "country_name": "Việt Nam",
        "city": "Hồ Chí Minh",
        "district": "Quận 12",
        "ward": "Phường Tân Thới Nhất",
        "street": "Đường Số 13",
        "postal_code": "71510",
        "categories": [
            {
                "name": "Hàng tiêu dùng"
            }
        ]
    },
    {
        "name": "Trường Sơn Mobile",
        "latitude": 10.82393,
        "longitude": 106.62995,
        "address": "Trường Sơn Mobile, 7 Đường Phan Huy Ích, Phường 15, Quận Tân Bình, Hồ Chí Minh, Việt Nam",
        "country_code": "VNM",
        "country_name": "Việt Nam",
        "city": "Hồ Chí Minh",
        "district": "Quận Tân Bình",
        "ward": "Phường 15",
        "street": "Đường Phan Huy Ích",
        "postal_code": "72109",
        "categories": [
            {
                "name": "Hàng tiêu dùng"
            }
        ]
    },
    {
        "name": "Shop Nón Tường Trung",
        "latitude": 10.82946,
        "longitude": 106.627,
        "address": "Shop Nón Tường Trung, Đường Nguyễn Văn Quá, Phường Tân Hưng Thuận, Quận 12, Hồ Chí Minh, Việt Nam",
        "country_code": "VNM",
        "country_name": "Việt Nam",
        "city": "Hồ Chí Minh",
        "district": "Quận 12",
        "ward": "Phường Tân Hưng Thuận",
        "street": "Đường Nguyễn Văn Quá",
        "postal_code": "71509",
        "categories": [
            {
                "name": "Hàng tiêu dùng"
            }
        ]
    },
    {
        "name": "Đại Lý Dầu Tường An Thanh Thảo",
        "latitude": 10.82574,
        "longitude": 106.62994,
        "address": "Đại Lý Dầu Tường An Thanh Thảo, Hẻm 31 Phan Huy Ích, Phường 15, Quận Tân Bình, Hồ Chí Minh, Việt Nam",
        "country_code": "VNM",
        "country_name": "Việt Nam",
        "city": "Hồ Chí Minh",
        "district": "Quận Tân Bình",
        "ward": "Phường 15",
        "street": "Hẻm 31 Phan Huy Ích",
        "postal_code": "72109",
        "categories": [
            {
                "name": "Hàng tiêu dùng"
            }
        ]
    },
    {
        "name": "Cửa Hàng Nhôm Thành Đạt",
        "latitude": 10.82461,
        "longitude": 106.63011,
        "address": "Cửa Hàng Nhôm Thành Đạt, Đường Phan Huy Ích, Phường 15, Quận Tân Bình, Hồ Chí Minh, Việt Nam",
        "country_code": "VNM",
        "country_name": "Việt Nam",
        "city": "Hồ Chí Minh",
        "district": "Quận Tân Bình",
        "ward": "Phường 15",
        "street": "Đường Phan Huy Ích",
        "postal_code": "72109",
        "categories": [
            {
                "name": "Hàng tiêu dùng"
            }
        ]
    },
    {
        "name": "Hàng Xuất Khẩu Xịn - Tú Tú",
        "latitude": 10.82519,
        "longitude": 106.63053,
        "address": "Hàng Xuất Khẩu Xịn - Tú Tú, 31 Đường Phan Huy Ích, Phường 15, Quận Tân Bình, Hồ Chí Minh, Việt Nam",
        "country_code": "VNM",
        "country_name": "Việt Nam",
        "city": "Hồ Chí Minh",
        "district": "Quận Tân Bình",
        "ward": "Phường 15",
        "street": "Đường Phan Huy Ích",
        "postal_code": "72109",
        "categories": [
            {
                "name": "Hàng tiêu dùng"
            }
        ]
    },
    {
        "name": "Sữa Sinh Học Nhập Khẩu",
        "latitude": 10.82519,
        "longitude": 106.63053,
        "address": "Sữa Sinh Học Nhập Khẩu, 31 Đường Phan Huy Ích, Phường 15, Quận Tân Bình, Hồ Chí Minh, Việt Nam",
        "country_code": "VNM",
        "country_name": "Việt Nam",
        "city": "Hồ Chí Minh",
        "district": "Quận Tân Bình",
        "ward": "Phường 15",
        "street": "Đường Phan Huy Ích",
        "postal_code": "72109",
        "categories": [
            {
                "name": "Hàng tiêu dùng"
            }
        ]
    },
    {
        "name": "Tom Nguyen Shop",
        "latitude": 10.82829,
        "longitude": 106.61964,
        "address": "Tom Nguyen Shop, 103 Đường Phan Văn Hớn, Phường Tân Thới Nhất, Quận 12, Hồ Chí Minh, Việt Nam",
        "country_code": "VNM",
        "country_name": "Việt Nam",
        "city": "Hồ Chí Minh",
        "district": "Quận 12",
        "ward": "Phường Tân Thới Nhất",
        "street": "Đường Phan Văn Hớn",
        "postal_code": "71510",
        "categories": [
            {
                "name": "Quần áo trẻ em"
            },
            {
                "name": "Hàng tiêu dùng"
            }
        ]
    },
    {
        "name": "Đại Lý Vé Số Minh Châu",
        "latitude": 10.82182,
        "longitude": 106.63004,
        "address": "Đại Lý Vé Số Minh Châu, Đường Trường Chinh, Phường Tây Thạnh, Quận Tân Phú, Hồ Chí Minh, Việt Nam",
        "country_code": "VNM",
        "country_name": "Việt Nam",
        "city": "Hồ Chí Minh",
        "district": "Quận Tân Phú",
        "ward": "Phường Tây Thạnh",
        "street": "Đường Trường Chinh",
        "postal_code": "72009",
        "categories": [
            {
                "name": "Hàng tiêu dùng"
            }
        ]
    },
    {
        "name": "Vati.Vn",
        "latitude": 10.82359,
        "longitude": 106.61827,
        "address": "Vati.Vn, Đường D, Phường Tân Thới Nhất, Quận 12, Hồ Chí Minh, Việt Nam",
        "country_code": "VNM",
        "country_name": "Việt Nam",
        "city": "Hồ Chí Minh",
        "district": "Quận 12",
        "ward": "Phường Tân Thới Nhất",
        "street": "Đường D",
        "postal_code": "71510",
        "categories": [
            {
                "name": "Thợ kim hoàn"
            },
            {
                "name": "Cửa hàng bán đồ gia dụng/Nội thất"
            },
            {
                "name": "Hàng tiêu dùng"
            }
        ]
    },
    {
        "name": "Nâu Store",
        "latitude": 10.8253,
        "longitude": 106.63077,
        "address": "Nâu Store, Đường Phan Huy Ích, Phường 15, Quận Tân Bình, Hồ Chí Minh, Việt Nam",
        "country_code": "VNM",
        "country_name": "Việt Nam",
        "city": "Hồ Chí Minh",
        "district": "Quận Tân Bình",
        "ward": "Phường 15",
        "street": "Đường Phan Huy Ích",
        "postal_code": "72109",
        "categories": [
            {
                "name": "Hàng tiêu dùng"
            }
        ]
    },
    {
        "name": "Cửa Hàng Trang Trí Nội Thất Kim Hồng",
        "latitude": 10.83027,
        "longitude": 106.62729,
        "address": "Cửa Hàng Trang Trí Nội Thất Kim Hồng, 104 Đường Nguyễn Văn Quá, Phường Đông Hưng Thuận, Quận 12, Hồ Chí Minh, Việt Nam",
        "country_code": "VNM",
        "country_name": "Việt Nam",
        "city": "Hồ Chí Minh",
        "district": "Quận 12",
        "ward": "Phường Đông Hưng Thuận",
        "street": "Đường Nguyễn Văn Quá",
        "postal_code": "71508",
        "categories": [
            {
                "name": "Hàng tiêu dùng"
            },
            {
                "name": "Cửa hàng tiện lợi"
            },
            {
                "name": "Siêu thị"
            }
        ]
    },
    {
        "name": "Tiêu Hạt, Tiêu Xay Thành Nhơn - True Taste For Fancy Meals",
        "latitude": 10.82481,
        "longitude": 106.63105,
        "address": "Tiêu Hạt, Tiêu Xay Thành Nhơn - True Taste For Fancy Meals, 11 Đường Tân Trụ, Phường 15, Quận Tân Bình, Hồ Chí Minh, Việt Nam",
        "country_code": "VNM",
        "country_name": "Việt Nam",
        "city": "Hồ Chí Minh",
        "district": "Quận Tân Bình",
        "ward": "Phường 15",
        "street": "Đường Tân Trụ",
        "postal_code": "72109",
        "categories": [
            {
                "name": "Hàng tiêu dùng"
            },
            {
                "name": "Quầy hàng đặc sản"
            }
        ]
    },
    {
        "name": "Shop Ruby",
        "latitude": 10.82777,
        "longitude": 106.61861,
        "address": "Shop Ruby, Hẻm 123 Đường Phan Văn Hớn, Phường Tân Thới Nhất, Quận 12, Hồ Chí Minh, Việt Nam",
        "country_code": "VNM",
        "country_name": "Việt Nam",
        "city": "Hồ Chí Minh",
        "district": "Quận 12",
        "ward": "Phường Tân Thới Nhất",
        "street": "Hẻm 123 Đường Phan Văn Hớn",
        "postal_code": "71510",
        "categories": [
            {
                "name": "Hàng tiêu dùng"
            }
        ]
    },
    {
        "name": "Dien May Sieu Mem",
        "latitude": 10.8313,
        "longitude": 106.62441,
        "address": "Dien May Sieu Mem, Đường Song Hành, Phường Tân Hưng Thuận, Quận 12, Hồ Chí Minh, Việt Nam",
        "country_code": "VNM",
        "country_name": "Việt Nam",
        "city": "Hồ Chí Minh",
        "district": "Quận 12",
        "ward": "Phường Tân Hưng Thuận",
        "street": "Đường Song Hành",
        "postal_code": "71509",
        "categories": [
            {
                "name": "Hàng tiêu dùng"
            }
        ]
    },
    {
        "name": "Cao Ayofa- All For Your Family",
        "latitude": 10.82425,
        "longitude": 106.63129,
        "address": "Cao Ayofa- All For Your Family, 12 Hẻm 45 Tân Trụ, Phường 15, Quận Tân Bình, Hồ Chí Minh, Việt Nam",
        "country_code": "VNM",
        "country_name": "Việt Nam",
        "city": "Hồ Chí Minh",
        "district": "Quận Tân Bình",
        "ward": "Phường 15",
        "street": "Hẻm 45 Tân Trụ",
        "postal_code": "72109",
        "categories": [
            {
                "name": "Hàng tiêu dùng"
            }
        ]
    },
    {
        "name": "Zun Shop",
        "latitude": 10.8241,
        "longitude": 106.6313,
        "address": "Zun Shop, 4 Đường Tân Trụ, Phường 15, Quận Tân Bình, Hồ Chí Minh, Việt Nam",
        "country_code": "VNM",
        "country_name": "Việt Nam",
        "city": "Hồ Chí Minh",
        "district": "Quận Tân Bình",
        "ward": "Phường 15",
        "street": "Đường Tân Trụ",
        "postal_code": "72109",
        "categories": [
            {
                "name": "Hàng tiêu dùng"
            },
            {
                "name": "Dịch vụ kinh doanh"
            }
        ]
    },
    {
        "name": "Sunny Kid's",
        "latitude": 10.82623,
        "longitude": 106.63118,
        "address": "Sunny Kid's, Đường Phan Huy Ích, Phường 15, Quận Tân Bình, Hồ Chí Minh, Việt Nam",
        "country_code": "VNM",
        "country_name": "Việt Nam",
        "city": "Hồ Chí Minh",
        "district": "Quận Tân Bình",
        "ward": "Phường 15",
        "street": "Đường Phan Huy Ích",
        "postal_code": "72109",
        "categories": [
            {
                "name": "Quần áo trẻ em"
            },
            {
                "name": "Hàng tiêu dùng"
            }
        ]
    },
    {
        "name": "Nguyenha House",
        "latitude": 10.82437,
        "longitude": 106.63138,
        "address": "Nguyenha House, 21 Hẻm 45 Tân Trụ, Phường 15, Quận Tân Bình, Hồ Chí Minh, Việt Nam",
        "country_code": "VNM",
        "country_name": "Việt Nam",
        "city": "Hồ Chí Minh",
        "district": "Quận Tân Bình",
        "ward": "Phường 15",
        "street": "Hẻm 45 Tân Trụ",
        "postal_code": "72109",
        "categories": [
            {
                "name": "Hàng tiêu dùng"
            }
        ]
    },
    {
        "name": "Dien May S2",
        "latitude": 10.81944,
        "longitude": 106.62893,
        "address": "Dien May S2, Đường Tây Thạnh, Phường Tây Thạnh, Quận Tân Phú, Hồ Chí Minh, Việt Nam",
        "country_code": "VNM",
        "country_name": "Việt Nam",
        "city": "Hồ Chí Minh",
        "district": "Quận Tân Phú",
        "ward": "Phường Tây Thạnh",
        "street": "Đường Tây Thạnh",
        "postal_code": "72009",
        "categories": [
            {
                "name": "Hàng tiêu dùng"
            }
        ]
    },
    {
        "name": "Thời Trang Evada.VN",
        "latitude": 10.824,
        "longitude": 106.6314,
        "address": "Thời Trang Evada.VN, Đường Tân Trụ, Phường 15, Quận Tân Bình, Hồ Chí Minh, Việt Nam",
        "country_code": "VNM",
        "country_name": "Việt Nam",
        "city": "Hồ Chí Minh",
        "district": "Quận Tân Bình",
        "ward": "Phường 15",
        "street": "Đường Tân Trụ",
        "postal_code": "72109",
        "categories": [
            {
                "name": "Quần áo & Phụ kiện"
            },
            {
                "name": "Hàng tiêu dùng"
            }
        ]
    },
    {
        "name": "Siêu Thị Hàng Nhập Ngoại",
        "latitude": 10.81908,
        "longitude": 106.62853,
        "address": "Siêu Thị Hàng Nhập Ngoại, Đường Tây Thạnh, Phường Tây Thạnh, Quận Tân Phú, Hồ Chí Minh, Việt Nam",
        "country_code": "VNM",
        "country_name": "Việt Nam",
        "city": "Hồ Chí Minh",
        "district": "Quận Tân Phú",
        "ward": "Phường Tây Thạnh",
        "street": "Đường Tây Thạnh",
        "postal_code": "72009",
        "categories": [
            {
                "name": "Hàng tiêu dùng"
            }
        ]
    },
    {
        "name": "Lucy House",
        "latitude": 10.81908,
        "longitude": 106.62853,
        "address": "Lucy House, Đường Tây Thạnh, Phường Tây Thạnh, Quận Tân Phú, Hồ Chí Minh, Việt Nam",
        "country_code": "VNM",
        "country_name": "Việt Nam",
        "city": "Hồ Chí Minh",
        "district": "Quận Tân Phú",
        "ward": "Phường Tây Thạnh",
        "street": "Đường Tây Thạnh",
        "postal_code": "72009",
        "categories": [
            {
                "name": "Hàng tiêu dùng"
            }
        ]
    },
    {
        "name": "Máy Tập Gym Giá Tốt- Phụ Kiện Chất Lượng Livepro",
        "latitude": 10.81908,
        "longitude": 106.62853,
        "address": "Máy Tập Gym Giá Tốt- Phụ Kiện Chất Lượng Livepro, Đường Tây Thạnh, Phường Tây Thạnh, Quận Tân Phú, Hồ Chí Minh, Việt Nam",
        "country_code": "VNM",
        "country_name": "Việt Nam",
        "city": "Hồ Chí Minh",
        "district": "Quận Tân Phú",
        "ward": "Phường Tây Thạnh",
        "street": "Đường Tây Thạnh",
        "postal_code": "72009",
        "categories": [
            {
                "name": "Hàng tiêu dùng"
            }
        ]
    },
    {
        "name": "Trung Tâm Sửa Chữa Máy Tính Miền Nam",
        "latitude": 10.82726,
        "longitude": 106.63095,
        "address": "Trung Tâm Sửa Chữa Máy Tính Miền Nam, Hẻm 51 Phan Huy Ích, Phường 15, Quận Tân Bình, Hồ Chí Minh, Việt Nam",
        "country_code": "VNM",
        "country_name": "Việt Nam",
        "city": "Hồ Chí Minh",
        "district": "Quận Tân Bình",
        "ward": "Phường 15",
        "street": "Hẻm 51 Phan Huy Ích",
        "postal_code": "72109",
        "categories": [
            {
                "name": "Hàng tiêu dùng"
            }
        ]
    },
    {
        "name": "Tam Thuyen Co. Ltd",
        "latitude": 10.81962,
        "longitude": 106.62932,
        "address": "Tam Thuyen Co. Ltd, Đường Tây Thạnh, Phường Tây Thạnh, Quận Tân Phú, Hồ Chí Minh, Việt Nam",
        "country_code": "VNM",
        "country_name": "Việt Nam",
        "city": "Hồ Chí Minh",
        "district": "Quận Tân Phú",
        "ward": "Phường Tây Thạnh",
        "street": "Đường Tây Thạnh",
        "postal_code": "72009",
        "categories": [
            {
                "name": "Hàng tiêu dùng"
            }
        ]
    },
    {
        "name": "Buy Now Việt Nam",
        "latitude": 10.82645,
        "longitude": 106.63127,
        "address": "Buy Now Việt Nam, 48 Đường Phan Huy Ích, Phường 15, Quận Tân Bình, Hồ Chí Minh, Việt Nam",
        "country_code": "VNM",
        "country_name": "Việt Nam",
        "city": "Hồ Chí Minh",
        "district": "Quận Tân Bình",
        "ward": "Phường 15",
        "street": "Đường Phan Huy Ích",
        "postal_code": "72109",
        "categories": [
            {
                "name": "Hàng tiêu dùng"
            },
            {
                "name": "Quảng cáo, tiếp thị, PR và nghiên cứu thị trường"
            }
        ]
    },
    {
        "name": "Aikibi Info",
        "latitude": 10.83128,
        "longitude": 106.62249,
        "address": "Aikibi Info, 151 Đường Trường Chinh, Phường Tân Thới Nhất, Quận 12, Hồ Chí Minh, Việt Nam",
        "country_code": "VNM",
        "country_name": "Việt Nam",
        "city": "Hồ Chí Minh",
        "district": "Quận 12",
        "ward": "Phường Tân Thới Nhất",
        "street": "Đường Trường Chinh",
        "postal_code": "71510",
        "categories": [
            {
                "name": "Hàng tiêu dùng"
            }
        ]
    },
    {
        "name": "Cửa Hàng Gas Thuận Phương",
        "latitude": 10.82124,
        "longitude": 106.63066,
        "address": "Cửa Hàng Gas Thuận Phương, Đường Trường Chinh, Phường 15, Quận Tân Bình, Hồ Chí Minh, Việt Nam",
        "country_code": "VNM",
        "country_name": "Việt Nam",
        "city": "Hồ Chí Minh",
        "district": "Quận Tân Bình",
        "ward": "Phường 15",
        "street": "Đường Trường Chinh",
        "postal_code": "72109",
        "categories": [
            {
                "name": "Hàng tiêu dùng"
            }
        ]
    },
    {
        "name": "Đại Lý Vé Số Gia Phát",
        "latitude": 10.82847,
        "longitude": 106.61857,
        "address": "Đại Lý Vé Số Gia Phát, Đường Phan Văn Hớn, Phường Tân Thới Nhất, Quận 12, Hồ Chí Minh, Việt Nam",
        "country_code": "VNM",
        "country_name": "Việt Nam",
        "city": "Hồ Chí Minh",
        "district": "Quận 12",
        "ward": "Phường Tân Thới Nhất",
        "street": "Đường Phan Văn Hớn",
        "postal_code": "71510",
        "categories": [
            {
                "name": "Hàng tiêu dùng"
            }
        ]
    },
    {
        "name": "Cửa Hàng Nông Sản Ngocchau Huynh",
        "latitude": 10.82225,
        "longitude": 106.63116,
        "address": "Cửa Hàng Nông Sản Ngocchau Huynh, Hẻm 17 Nguyễn Phúc Chu, Phường 15, Quận Tân Bình, Hồ Chí Minh, Việt Nam",
        "country_code": "VNM",
        "country_name": "Việt Nam",
        "city": "Hồ Chí Minh",
        "district": "Quận Tân Bình",
        "ward": "Phường 15",
        "street": "Hẻm 17 Nguyễn Phúc Chu",
        "postal_code": "72109",
        "categories": [
            {
                "name": "Hàng tiêu dùng"
            }
        ]
    },
    {
        "name": "Thiết Bị Miền Nam",
        "latitude": 10.82225,
        "longitude": 106.63116,
        "address": "Thiết Bị Miền Nam, Hẻm 17 Nguyễn Phúc Chu, Phường 15, Quận Tân Bình, Hồ Chí Minh, Việt Nam",
        "country_code": "VNM",
        "country_name": "Việt Nam",
        "city": "Hồ Chí Minh",
        "district": "Quận Tân Bình",
        "ward": "Phường 15",
        "street": "Hẻm 17 Nguyễn Phúc Chu",
        "postal_code": "72109",
        "categories": [
            {
                "name": "Hàng tiêu dùng"
            }
        ]
    },
    {
        "name": "Anh Túc Viskin",
        "latitude": 10.82757,
        "longitude": 106.63093,
        "address": "Anh Túc Viskin, Hẻm 51/12 Phan Huy Ích, Phường 15, Quận Tân Bình, Hồ Chí Minh, Việt Nam",
        "country_code": "VNM",
        "country_name": "Việt Nam",
        "city": "Hồ Chí Minh",
        "district": "Quận Tân Bình",
        "ward": "Phường 15",
        "street": "Hẻm 51/12 Phan Huy Ích",
        "postal_code": "72109",
        "categories": [
            {
                "name": "Hàng tiêu dùng"
            }
        ]
    },
    {
        "name": "Tay Son Joint Stock Co",
        "latitude": 10.81959,
        "longitude": 106.62957,
        "address": "Tay Son Joint Stock Co, Đường Tây Thạnh, Phường Tây Thạnh, Quận Tân Phú, Hồ Chí Minh, Việt Nam",
        "country_code": "VNM",
        "country_name": "Việt Nam",
        "city": "Hồ Chí Minh",
        "district": "Quận Tân Phú",
        "ward": "Phường Tây Thạnh",
        "street": "Đường Tây Thạnh",
        "postal_code": "72009",
        "categories": [
            {
                "name": "Hàng tiêu dùng"
            }
        ]
    },
    {
        "name": "Tuti Shop- Mỹ Phẩm Cao Cấp Nellyp",
        "latitude": 10.82398,
        "longitude": 106.63171,
        "address": "Tuti Shop- Mỹ Phẩm Cao Cấp Nellyp, 12 Đường Tân Trụ, Phường 15, Quận Tân Bình, Hồ Chí Minh, Việt Nam",
        "country_code": "VNM",
        "country_name": "Việt Nam",
        "city": "Hồ Chí Minh",
        "district": "Quận Tân Bình",
        "ward": "Phường 15",
        "street": "Đường Tân Trụ",
        "postal_code": "72109",
        "categories": [
            {
                "name": "Hàng tiêu dùng"
            }
        ]
    },
    {
        "name": "Nhà Sách Việt Trung",
        "latitude": 10.83119,
        "longitude": 106.62745,
        "address": "Nhà Sách Việt Trung, 167 Đường Nguyễn Văn Quá, Phường Đông Hưng Thuận, Quận 12, Hồ Chí Minh, Việt Nam",
        "country_code": "VNM",
        "country_name": "Việt Nam",
        "city": "Hồ Chí Minh",
        "district": "Quận 12",
        "ward": "Phường Đông Hưng Thuận",
        "street": "Đường Nguyễn Văn Quá",
        "postal_code": "71508",
        "categories": [
            {
                "name": "Hàng tiêu dùng"
            }
        ]
    },
    {
        "name": "Yams Store",
        "latitude": 10.8272,
        "longitude": 106.63162,
        "address": "Yams Store, 72B Đường Phan Huy Ích, Phường 15, Quận Tân Bình, Hồ Chí Minh, Việt Nam",
        "country_code": "VNM",
        "country_name": "Việt Nam",
        "city": "Hồ Chí Minh",
        "district": "Quận Tân Bình",
        "ward": "Phường 15",
        "street": "Đường Phan Huy Ích",
        "postal_code": "72109",
        "categories": [
            {
                "name": "Hàng tiêu dùng"
            }
        ]
    },
    {
        "name": "Đại Lý Bia Nước Ngọt Minh Chánh",
        "latitude": 10.82226,
        "longitude": 106.6317,
        "address": "Đại Lý Bia Nước Ngọt Minh Chánh, 42 Hẻm 17 Nguyễn Phúc Chu, Phường 15, Quận Tân Bình, Hồ Chí Minh, Việt Nam",
        "country_code": "VNM",
        "country_name": "Việt Nam",
        "city": "Hồ Chí Minh",
        "district": "Quận Tân Bình",
        "ward": "Phường 15",
        "street": "Hẻm 17 Nguyễn Phúc Chu",
        "postal_code": "72109",
        "categories": [
            {
                "name": "Hàng tiêu dùng"
            }
        ]
    },
    {
        "name": "Hyeri Shop",
        "latitude": 10.82481,
        "longitude": 106.63213,
        "address": "Hyeri Shop, Hẻm Sở 10 Cống Lở, Phường 15, Quận Tân Bình, Hồ Chí Minh, Việt Nam",
        "country_code": "VNM",
        "country_name": "Việt Nam",
        "city": "Hồ Chí Minh",
        "district": "Quận Tân Bình",
        "ward": "Phường 15",
        "street": "Hẻm Sở 10 Cống Lở",
        "postal_code": "72109",
        "categories": [
            {
                "name": "Hàng tiêu dùng"
            }
        ]
    },
    {
        "name": "Tết An Nhiên",
        "latitude": 10.8286,
        "longitude": 106.618,
        "address": "Tết An Nhiên, Đường Phan Văn Hớn, Phường Tân Thới Nhất, Quận 12, Hồ Chí Minh, Việt Nam",
        "country_code": "VNM",
        "country_name": "Việt Nam",
        "city": "Hồ Chí Minh",
        "district": "Quận 12",
        "ward": "Phường Tân Thới Nhất",
        "street": "Đường Phan Văn Hớn",
        "postal_code": "71510",
        "categories": [
            {
                "name": "Hàng tiêu dùng"
            }
        ]
    },
    {
        "name": "Dmx Tam Quan Bac",
        "latitude": 10.82045,
        "longitude": 106.63086,
        "address": "Dmx Tam Quan Bac, Đường Trường Chinh, Phường 15, Quận Tân Bình, Hồ Chí Minh, Việt Nam",
        "country_code": "VNM",
        "country_name": "Việt Nam",
        "city": "Hồ Chí Minh",
        "district": "Quận Tân Bình",
        "ward": "Phường 15",
        "street": "Đường Trường Chinh",
        "postal_code": "72109",
        "categories": [
            {
                "name": "Hàng tiêu dùng"
            }
        ]
    },
    {
        "name": "Minh Computer",
        "latitude": 10.83167,
        "longitude": 106.62759,
        "address": "Minh Computer, 200 Hẻm 1 Đường Nguyễn Văn Quá, Phường Đông Hưng Thuận, Quận 12, Hồ Chí Minh, Việt Nam",
        "country_code": "VNM",
        "country_name": "Việt Nam",
        "city": "Hồ Chí Minh",
        "district": "Quận 12",
        "ward": "Phường Đông Hưng Thuận",
        "street": "Hẻm 1 Đường Nguyễn Văn Quá",
        "postal_code": "71508",
        "categories": [
            {
                "name": "Hàng tiêu dùng"
            }
        ]
    },
    {
        "name": "Chợ Bàu Nai",
        "latitude": 10.8321,
        "longitude": 106.62225,
        "address": "Chợ Bàu Nai, Đường Trường Chinh, Phường Tân Hưng Thuận, Quận 12, Hồ Chí Minh, Việt Nam",
        "country_code": "VNM",
        "country_name": "Việt Nam",
        "city": "Hồ Chí Minh",
        "district": "Quận 12",
        "ward": "Phường Tân Hưng Thuận",
        "street": "Đường Trường Chinh",
        "postal_code": "71509",
        "categories": [
            {
                "name": "Hàng tiêu dùng"
            }
        ]
    },
    {
        "name": "Nhụy Hoa Nghệ Tây - Saffron Sức Khỏe Và Sắc Đẹp",
        "latitude": 10.8269,
        "longitude": 106.61682,
        "address": "Nhụy Hoa Nghệ Tây - Saffron Sức Khỏe Và Sắc Đẹp, Đường TTN 14, Phường Tân Thới Nhất, Quận 12, Hồ Chí Minh, Việt Nam",
        "country_code": "VNM",
        "country_name": "Việt Nam",
        "city": "Hồ Chí Minh",
        "district": "Quận 12",
        "ward": "Phường Tân Thới Nhất",
        "street": "Đường TTN 14",
        "postal_code": "71510",
        "categories": [
            {
                "name": "Hàng tiêu dùng"
            }
        ]
    },
    {
        "name": "Tủ Bếp Hiện Đại - Tủ Bếp Gia Đình",
        "latitude": 10.81949,
        "longitude": 106.63064,
        "address": "Tủ Bếp Hiện Đại - Tủ Bếp Gia Đình, 873 Đường Trường Chinh, Phường Tây Thạnh, Quận Tân Phú, Hồ Chí Minh, Việt Nam",
        "country_code": "VNM",
        "country_name": "Việt Nam",
        "city": "Hồ Chí Minh",
        "district": "Quận Tân Phú",
        "ward": "Phường Tây Thạnh",
        "street": "Đường Trường Chinh",
        "postal_code": "72009",
        "categories": [
            {
                "name": "Hàng tiêu dùng"
            },
            {
                "name": "Phụ kiện nội thất và gia đình"
            }
        ]
    },
    {
        "name": "Múp Store",
        "latitude": 10.82103,
        "longitude": 106.63171,
        "address": "Múp Store, 15 Hẻm 30 Đường Tống Văn Hên, Phường 15, Quận Tân Bình, Hồ Chí Minh, Việt Nam",
        "country_code": "VNM",
        "country_name": "Việt Nam",
        "city": "Hồ Chí Minh",
        "district": "Quận Tân Bình",
        "ward": "Phường 15",
        "street": "Hẻm 30 Đường Tống Văn Hên",
        "postal_code": "72109",
        "categories": [
            {
                "name": "Hàng tiêu dùng"
            }
        ]
    },
    {
        "name": "Shop Gấu Bông Đẹp Giá Rẻ.",
        "latitude": 10.82338,
        "longitude": 106.63259,
        "address": "Shop Gấu Bông Đẹp Giá Rẻ., Đường Tân Trụ, Phường 15, Quận Tân Bình, Hồ Chí Minh, Việt Nam",
        "country_code": "VNM",
        "country_name": "Việt Nam",
        "city": "Hồ Chí Minh",
        "district": "Quận Tân Bình",
        "ward": "Phường 15",
        "street": "Đường Tân Trụ",
        "postal_code": "72109",
        "categories": [
            {
                "name": "Hàng tiêu dùng"
            }
        ]
    },
    {
        "name": "Trung Tâm Nội Thất Thế Kỷ 21",
        "latitude": 10.81928,
        "longitude": 106.63072,
        "address": "Trung Tâm Nội Thất Thế Kỷ 21, 865 Đường Trường Chinh, Phường Tây Thạnh, Quận Tân Phú, Hồ Chí Minh, Việt Nam",
        "country_code": "VNM",
        "country_name": "Việt Nam",
        "city": "Hồ Chí Minh",
        "district": "Quận Tân Phú",
        "ward": "Phường Tây Thạnh",
        "street": "Đường Trường Chinh",
        "postal_code": "72009",
        "categories": [
            {
                "name": "Hàng tiêu dùng"
            }
        ]
    },
    {
        "name": "Chả Cá Sạch Ngon Chín Tân - Chả Cá Bình Thuận",
        "latitude": 10.82066,
        "longitude": 106.63181,
        "address": "Chả Cá Sạch Ngon Chín Tân - Chả Cá Bình Thuận, 22 Đường Tống Văn Hên, Phường 15, Quận Tân Bình, Hồ Chí Minh, Việt Nam",
        "country_code": "VNM",
        "country_name": "Việt Nam",
        "city": "Hồ Chí Minh",
        "district": "Quận Tân Bình",
        "ward": "Phường 15",
        "street": "Đường Tống Văn Hên",
        "postal_code": "72109",
        "categories": [
            {
                "name": "Hàng tiêu dùng"
            }
        ]
    },
    {
        "name": "Ah New Fashion",
        "latitude": 10.81629,
        "longitude": 106.62567,
        "address": "Ah New Fashion, Đường Tây Thạnh, Phường Tây Thạnh, Quận Tân Phú, Hồ Chí Minh, Việt Nam",
        "country_code": "VNM",
        "country_name": "Việt Nam",
        "city": "Hồ Chí Minh",
        "district": "Quận Tân Phú",
        "ward": "Phường Tây Thạnh",
        "street": "Đường Tây Thạnh",
        "postal_code": "72009",
        "categories": [
            {
                "name": "Hàng tiêu dùng"
            }
        ]
    },
    {
        "name": "Quạt Việt Nam",
        "latitude": 10.8194,
        "longitude": 106.63129,
        "address": "Quạt Việt Nam, 844 Đường Trường Chinh, Phường 15, Quận Tân Bình, Hồ Chí Minh, Việt Nam",
        "country_code": "VNM",
        "country_name": "Việt Nam",
        "city": "Hồ Chí Minh",
        "district": "Quận Tân Bình",
        "ward": "Phường 15",
        "street": "Đường Trường Chinh",
        "postal_code": "72109",
        "categories": [
            {
                "name": "Hàng tiêu dùng"
            }
        ]
    },
    {
        "name": "Hà Minh Cường",
        "latitude": 10.83255,
        "longitude": 106.62799,
        "address": "Hà Minh Cường, 221A Hẻm 1 Đường Nguyễn Văn Quá, Phường Đông Hưng Thuận, Quận 12, Hồ Chí Minh, Việt Nam",
        "country_code": "VNM",
        "country_name": "Việt Nam",
        "city": "Hồ Chí Minh",
        "district": "Quận 12",
        "ward": "Phường Đông Hưng Thuận",
        "street": "Hẻm 1 Đường Nguyễn Văn Quá",
        "postal_code": "71508",
        "categories": [
            {
                "name": "Hàng tiêu dùng"
            }
        ]
    },
    {
        "name": "Vựa Trái Cây Thành Hương",
        "latitude": 10.81902,
        "longitude": 106.63138,
        "address": "Vựa Trái Cây Thành Hương, 832 Đường Trường Chinh, Phường 15, Quận Tân Bình, Hồ Chí Minh, Việt Nam",
        "country_code": "VNM",
        "country_name": "Việt Nam",
        "city": "Hồ Chí Minh",
        "district": "Quận Tân Bình",
        "ward": "Phường 15",
        "street": "Đường Trường Chinh",
        "postal_code": "72109",
        "categories": [
            {
                "name": "Hàng tiêu dùng"
            },
            {
                "name": "Đặc sản & Đồ uống"
            }
        ]
    },
    {
        "name": "Shop Nón Thiên Phú",
        "latitude": 10.83193,
        "longitude": 106.62993,
        "address": "Shop Nón Thiên Phú, Đường ĐHT 10B, Phường Đông Hưng Thuận, Quận 12, Hồ Chí Minh, Việt Nam",
        "country_code": "VNM",
        "country_name": "Việt Nam",
        "city": "Hồ Chí Minh",
        "district": "Quận 12",
        "ward": "Phường Đông Hưng Thuận",
        "street": "Đường ĐHT 10B",
        "postal_code": "71508",
        "categories": [
            {
                "name": "Hàng tiêu dùng"
            }
        ]
    },
    {
        "name": "Ba By Boon Shop",
        "latitude": 10.83298,
        "longitude": 106.62813,
        "address": "Ba By Boon Shop, 260A Hẻm 1 Đường Nguyễn Văn Quá, Phường Đông Hưng Thuận, Quận 12, Hồ Chí Minh, Việt Nam",
        "country_code": "VNM",
        "country_name": "Việt Nam",
        "city": "Hồ Chí Minh",
        "district": "Quận 12",
        "ward": "Phường Đông Hưng Thuận",
        "street": "Hẻm 1 Đường Nguyễn Văn Quá",
        "postal_code": "71508",
        "categories": [
            {
                "name": "Hàng tiêu dùng"
            }
        ]
    },
    {
        "name": "Cửa Hàng Tranh Ngọc Ánh",
        "latitude": 10.82951,
        "longitude": 106.63254,
        "address": "Cửa Hàng Tranh Ngọc Ánh, 131 Đường Phan Huy Ích, Phường 15, Quận Tân Bình, Hồ Chí Minh, Việt Nam",
        "country_code": "VNM",
        "country_name": "Việt Nam",
        "city": "Hồ Chí Minh",
        "district": "Quận Tân Bình",
        "ward": "Phường 15",
        "street": "Đường Phan Huy Ích",
        "postal_code": "72109",
        "categories": [
            {
                "name": "Hàng tiêu dùng"
            }
        ]
    },
    {
        "name": "Công Nghiệp SX TM Inox Sài Gòn",
        "latitude": 10.82961,
        "longitude": 106.63259,
        "address": "Công Nghiệp SX TM Inox Sài Gòn, 135 Đường Phan Huy Ích, Phường 15, Quận Tân Bình, Hồ Chí Minh, Việt Nam",
        "country_code": "VNM",
        "country_name": "Việt Nam",
        "city": "Hồ Chí Minh",
        "district": "Quận Tân Bình",
        "ward": "Phường 15",
        "street": "Đường Phan Huy Ích",
        "postal_code": "72109",
        "categories": [
            {
                "name": "Hàng tiêu dùng"
            }
        ]
    },
    {
        "name": "Cửa Hàng Dinh Dưỡng Cô Mai",
        "latitude": 10.82236,
        "longitude": 106.63385,
        "address": "Cửa Hàng Dinh Dưỡng Cô Mai, Đường Nguyễn Phúc Chu, Phường 15, Quận Tân Bình, Hồ Chí Minh, Việt Nam",
        "country_code": "VNM",
        "country_name": "Việt Nam",
        "city": "Hồ Chí Minh",
        "district": "Quận Tân Bình",
        "ward": "Phường 15",
        "street": "Đường Nguyễn Phúc Chu",
        "postal_code": "72109",
        "categories": [
            {
                "name": "Hàng tiêu dùng"
            }
        ]
    },
    {
        "name": "May Đồng Phục VP",
        "latitude": 10.81814,
        "longitude": 106.63161,
        "address": "May Đồng Phục VP, 812 Đường Trường Chinh, Phường 15, Quận Tân Bình, Hồ Chí Minh, Việt Nam",
        "country_code": "VNM",
        "country_name": "Việt Nam",
        "city": "Hồ Chí Minh",
        "district": "Quận Tân Bình",
        "ward": "Phường 15",
        "street": "Đường Trường Chinh",
        "postal_code": "72109",
        "categories": [
            {
                "name": "Hàng tiêu dùng"
            }
        ]
    },
    {
        "name": "Nguyenkim",
        "latitude": 10.82926,
        "longitude": 106.61596,
        "address": "Nguyenkim, Đường Phan Văn Hớn, Phường Tân Thới Nhất, Quận 12, Hồ Chí Minh, Việt Nam",
        "country_code": "VNM",
        "country_name": "Việt Nam",
        "city": "Hồ Chí Minh",
        "district": "Quận 12",
        "ward": "Phường Tân Thới Nhất",
        "street": "Đường Phan Văn Hớn",
        "postal_code": "71510",
        "categories": [
            {
                "name": "Hàng tiêu dùng"
            }
        ]
    },
    {
        "name": "Đồ Đá Banh Sỉ Và Lẻ - Nhật Sport",
        "latitude": 10.82926,
        "longitude": 106.61596,
        "address": "Đồ Đá Banh Sỉ Và Lẻ - Nhật Sport, Đường Phan Văn Hớn, Phường Tân Thới Nhất, Quận 12, Hồ Chí Minh, Việt Nam",
        "country_code": "VNM",
        "country_name": "Việt Nam",
        "city": "Hồ Chí Minh",
        "district": "Quận 12",
        "ward": "Phường Tân Thới Nhất",
        "street": "Đường Phan Văn Hớn",
        "postal_code": "71510",
        "categories": [
            {
                "name": "Quần áo & Phụ kiện"
            },
            {
                "name": "Giải trí về đêm"
            },
            {
                "name": "Hàng tiêu dùng"
            }
        ]
    },
    {
        "name": "Hnis Shop",
        "latitude": 10.81533,
        "longitude": 106.62686,
        "address": "Hnis Shop, 10 Đường D15, Phường Tây Thạnh, Quận Tân Phú, Hồ Chí Minh, Việt Nam",
        "country_code": "VNM",
        "country_name": "Việt Nam",
        "city": "Hồ Chí Minh",
        "district": "Quận Tân Phú",
        "ward": "Phường Tây Thạnh",
        "street": "Đường D15",
        "postal_code": "72009",
        "categories": [
            {
                "name": "Hàng tiêu dùng"
            }
        ]
    },
    {
        "name": "Mua Bán Nhà Đất - TP HCM",
        "latitude": 10.83357,
        "longitude": 106.62085,
        "address": "Mua Bán Nhà Đất - TP HCM, 209 Đường Trường Chinh, Phường Tân Thới Nhất, Quận 12, Hồ Chí Minh, Việt Nam",
        "country_code": "VNM",
        "country_name": "Việt Nam",
        "city": "Hồ Chí Minh",
        "district": "Quận 12",
        "ward": "Phường Tân Thới Nhất",
        "street": "Đường Trường Chinh",
        "postal_code": "71510",
        "categories": [
            {
                "name": "Hàng tiêu dùng"
            },
            {
                "name": "Hãng môi giới bất động sản"
            }
        ]
    },
    {
        "name": "Giặt Ủi Cao Cấp Cô Sáu",
        "latitude": 10.82226,
        "longitude": 106.63401,
        "address": "Giặt Ủi Cao Cấp Cô Sáu, 98 Đường Nguyễn Phúc Chu, Phường 15, Quận Tân Bình, Hồ Chí Minh, Việt Nam",
        "country_code": "VNM",
        "country_name": "Việt Nam",
        "city": "Hồ Chí Minh",
        "district": "Quận Tân Bình",
        "ward": "Phường 15",
        "street": "Đường Nguyễn Phúc Chu",
        "postal_code": "72109",
        "categories": [
            {
                "name": "Hàng tiêu dùng"
            }
        ]
    },
    {
        "name": "Dtdd Manh Tuong",
        "latitude": 10.83334,
        "longitude": 106.62008,
        "address": "Dtdd Manh Tuong, Hẻm 3 Khu Phố 2, Phường Tân Thới Nhất, Quận 12, Hồ Chí Minh, Việt Nam",
        "country_code": "VNM",
        "country_name": "Việt Nam",
        "city": "Hồ Chí Minh",
        "district": "Quận 12",
        "ward": "Phường Tân Thới Nhất",
        "street": "Hẻm 3 Khu Phố 2",
        "postal_code": "71510",
        "categories": [
            {
                "name": "Hàng tiêu dùng"
            }
        ]
    },
    {
        "name": "Humnile-Mặt Nạ Thảo Dược",
        "latitude": 10.81484,
        "longitude": 106.62397,
        "address": "Humnile-Mặt Nạ Thảo Dược, Đường Tây Thạnh, Phường Tây Thạnh, Quận Tân Phú, Hồ Chí Minh, Việt Nam",
        "country_code": "VNM",
        "country_name": "Việt Nam",
        "city": "Hồ Chí Minh",
        "district": "Quận Tân Phú",
        "ward": "Phường Tây Thạnh",
        "street": "Đường Tây Thạnh",
        "postal_code": "72009",
        "categories": [
            {
                "name": "Hàng tiêu dùng"
            }
        ]
    },
    {
        "name": "Rubik Mobile",
        "latitude": 10.8339,
        "longitude": 106.6212,
        "address": "Rubik Mobile, 59 Đường Trường Chinh, Phường Tân Hưng Thuận, Quận 12, Hồ Chí Minh, Việt Nam",
        "country_code": "VNM",
        "country_name": "Việt Nam",
        "city": "Hồ Chí Minh",
        "district": "Quận 12",
        "ward": "Phường Tân Hưng Thuận",
        "street": "Đường Trường Chinh",
        "postal_code": "71509",
        "categories": [
            {
                "name": "Hàng tiêu dùng"
            }
        ]
    },
    {
        "name": "Siêu Thị Đà Lạt Trần Mao Tại TPHCM",
        "latitude": 10.82559,
        "longitude": 106.63446,
        "address": "Siêu Thị Đà Lạt Trần Mao Tại TPHCM, Đường Hoàng Bật Đạt, Phường 15, Quận Tân Bình, Hồ Chí Minh, Việt Nam",
        "country_code": "VNM",
        "country_name": "Việt Nam",
        "city": "Hồ Chí Minh",
        "district": "Quận Tân Bình",
        "ward": "Phường 15",
        "street": "Đường Hoàng Bật Đạt",
        "postal_code": "72109",
        "categories": [
            {
                "name": "Hàng tiêu dùng"
            }
        ]
    },
    {
        "name": "Gốm Store",
        "latitude": 10.82431,
        "longitude": 106.6346,
        "address": "Gốm Store, Hẻm 39 Hoàng Bật Đạt, Phường 15, Quận Tân Bình, Hồ Chí Minh, Việt Nam",
        "country_code": "VNM",
        "country_name": "Việt Nam",
        "city": "Hồ Chí Minh",
        "district": "Quận Tân Bình",
        "ward": "Phường 15",
        "street": "Hẻm 39 Hoàng Bật Đạt",
        "postal_code": "72109",
        "categories": [
            {
                "name": "Hàng tiêu dùng"
            }
        ]
    },
    {
        "name": "Phương Shoes",
        "latitude": 10.81465,
        "longitude": 106.62337,
        "address": "Phương Shoes, Hẻm 72 Đường Tây Thạnh, Phường Tây Thạnh, Quận Tân Phú, Hồ Chí Minh, Việt Nam",
        "country_code": "VNM",
        "country_name": "Việt Nam",
        "city": "Hồ Chí Minh",
        "district": "Quận Tân Phú",
        "ward": "Phường Tây Thạnh",
        "street": "Hẻm 72 Đường Tây Thạnh",
        "postal_code": "72009",
        "categories": [
            {
                "name": "Hàng tiêu dùng"
            },
            {
                "name": "Giày dép"
            }
        ]
    },
    {
        "name": "Xưởng May Quần Áo Trẻ Em An Khang",
        "latitude": 10.81795,
        "longitude": 106.63214,
        "address": "Xưởng May Quần Áo Trẻ Em An Khang, Đường Nguyễn Sỹ Sách, Phường 15, Quận Tân Bình, Hồ Chí Minh, Việt Nam",
        "country_code": "VNM",
        "country_name": "Việt Nam",
        "city": "Hồ Chí Minh",
        "district": "Quận Tân Bình",
        "ward": "Phường 15",
        "street": "Đường Nguyễn Sỹ Sách",
        "postal_code": "72109",
        "categories": [
            {
                "name": "Quần áo trẻ em"
            },
            {
                "name": "Cửa hàng chuyên một loại quần áo"
            },
            {
                "name": "Hàng tiêu dùng"
            }
        ]
    },
    {
        "name": "Laptop K&H",
        "latitude": 10.82429,
        "longitude": 106.63475,
        "address": "Laptop K&H, Đường Hoàng Bật Đạt, Phường 15, Quận Tân Bình, Hồ Chí Minh, Việt Nam",
        "country_code": "VNM",
        "country_name": "Việt Nam",
        "city": "Hồ Chí Minh",
        "district": "Quận Tân Bình",
        "ward": "Phường 15",
        "street": "Đường Hoàng Bật Đạt",
        "postal_code": "72109",
        "categories": [
            {
                "name": "Hàng tiêu dùng"
            },
            {
                "name": "Phần mềm và phần cứng máy tính"
            }
        ]
    },
    {
        "name": "Shop Lộc Độc Và Lạ",
        "latitude": 10.81454,
        "longitude": 106.62593,
        "address": "Shop Lộc Độc Và Lạ, 43 Đường D11, Phường Tây Thạnh, Quận Tân Phú, Hồ Chí Minh, Việt Nam",
        "country_code": "VNM",
        "country_name": "Việt Nam",
        "city": "Hồ Chí Minh",
        "district": "Quận Tân Phú",
        "ward": "Phường Tây Thạnh",
        "street": "Đường D11",
        "postal_code": "72009",
        "categories": [
            {
                "name": "Hàng tiêu dùng"
            }
        ]
    }
]
