[
    {
        "name": "Công Ty Cổ Phần Sài Gòn Sân Bay-Chi Nhánh Quận 12",
        "latitude": 10.82483,
        "longitude": 106.62457,
        "address": "Công Ty Cổ Phần Sài Gòn Sân Bay-Chi Nhánh Quận 12, Đường TTN 17, Phường Tân Thới Nhất, Quận 12, Hồ Chí Minh, Việt Nam",
        "country_code": "VNM",
        "country_name": "Việt Nam",
        "city": "Hồ Chí Minh",
        "district": "Quận 12",
        "ward": "Phường Tân Thới Nhất",
        "street": "Đường TTN 17",
        "postal_code": "71510",
        "categories": [
            {
                "name": "Doanh nghiệp"
            }
        ]
    },
    {
        "name": "Nhà Máy Bê Tông Lê Phan Tham Lương",
        "latitude": 10.82467,
        "longitude": 106.62427,
        "address": "Nhà Máy Bê Tông Lê Phan Tham Lương, Đường Tân Thới Nhất 17, Phường Tân Thới Nhất, Quận 12, Hồ Chí Minh, Việt Nam",
        "country_code": "VNM",
        "country_name": "Việt Nam",
        "city": "Hồ Chí Minh",
        "district": "Quận 12",
        "ward": "Phường Tân Thới Nhất",
        "street": "Đường Tân Thới Nhất 17",
        "postal_code": "71510",
        "categories": [
            {
                "name": "Doanh nghiệp"
            }
        ]
    },
    {
        "name": "Lục Giác",
        "latitude": 10.82465,
        "longitude": 106.62424,
        "address": "Lục Giác, Đường Tân Thới Nhất 17, Phường Tân Thới Nhất, Quận 12, Hồ Chí Minh, Việt Nam",
        "country_code": "VNM",
        "country_name": "Việt Nam",
        "city": "Hồ Chí Minh",
        "district": "Quận 12",
        "ward": "Phường Tân Thới Nhất",
        "street": "Đường Tân Thới Nhất 17",
        "postal_code": "71510",
        "categories": [
            {
                "name": "Doanh nghiệp"
            }
        ]
    },
    {
        "name": "Công Ty Solarbk",
        "latitude": 10.82462,
        "longitude": 106.6238,
        "address": "Công Ty Solarbk, Đường Tân Thới Nhất 17, Phường Tân Thới Nhất, Quận 12, Hồ Chí Minh, Việt Nam",
        "country_code": "VNM",
        "country_name": "Việt Nam",
        "city": "Hồ Chí Minh",
        "district": "Quận 12",
        "ward": "Phường Tân Thới Nhất",
        "street": "Đường Tân Thới Nhất 17",
        "postal_code": "71510",
        "categories": [
            {
                "name": "Doanh nghiệp"
            }
        ]
    },
    {
        "name": "Nhà Máy Bê Tông Lê Phan Tham Lương",
        "latitude": 10.82489,
        "longitude": 106.62518,
        "address": "Nhà Máy Bê Tông Lê Phan Tham Lương, Đường TTN 17, Phường Tân Thới Nhất, Quận 12, Hồ Chí Minh, Việt Nam",
        "country_code": "VNM",
        "country_name": "Việt Nam",
        "city": "Hồ Chí Minh",
        "district": "Quận 12",
        "ward": "Phường Tân Thới Nhất",
        "street": "Đường TTN 17",
        "postal_code": "71510",
        "categories": [
            {
                "name": "Doanh nghiệp"
            }
        ]
    },
    {
        "name": "Công Ty TNHH Chung Trang Linh Biotech",
        "latitude": 10.82381,
        "longitude": 106.62449,
        "address": "Công Ty TNHH Chung Trang Linh Biotech, Dương Thị Giang, Phường Tân Thới Nhất, Quận 12, Hồ Chí Minh, Việt Nam",
        "country_code": "VNM",
        "country_name": "Việt Nam",
        "city": "Hồ Chí Minh",
        "district": "Quận 12",
        "ward": "Phường Tân Thới Nhất",
        "street": "Dương Thị Giang",
        "postal_code": "71510",
        "categories": [
            {
                "name": "Doanh nghiệp"
            }
        ]
    },
    {
        "name": "Cty TNHH SX TM May Việt Tiến Phú",
        "latitude": 10.82436,
        "longitude": 106.62367,
        "address": "Cty TNHH SX TM May Việt Tiến Phú, Đường Tân Thới Nhất 17, Phường Tân Thới Nhất, Quận 12, Hồ Chí Minh, Việt Nam",
        "country_code": "VNM",
        "country_name": "Việt Nam",
        "city": "Hồ Chí Minh",
        "district": "Quận 12",
        "ward": "Phường Tân Thới Nhất",
        "street": "Đường Tân Thới Nhất 17",
        "postal_code": "71510",
        "categories": [
            {
                "name": "Doanh nghiệp"
            }
        ]
    },
    {
        "name": "Công Ty TNHH Hana Việt Nam",
        "latitude": 10.82449,
        "longitude": 106.62348,
        "address": "Công Ty TNHH Hana Việt Nam, Đường Tân Thới Nhất 17, Phường Tân Thới Nhất, Quận 12, Hồ Chí Minh, Việt Nam",
        "country_code": "VNM",
        "country_name": "Việt Nam",
        "city": "Hồ Chí Minh",
        "district": "Quận 12",
        "ward": "Phường Tân Thới Nhất",
        "street": "Đường Tân Thới Nhất 17",
        "postal_code": "71510",
        "categories": [
            {
                "name": "Doanh nghiệp"
            }
        ]
    },
    {
        "name": "Cty TNHH TM & DV Gỗ Nguyễn Phan",
        "latitude": 10.82403,
        "longitude": 106.62337,
        "address": "Cty TNHH TM & DV Gỗ Nguyễn Phan, Đường D1, Phường Tân Thới Nhất, Quận 12, Hồ Chí Minh, Việt Nam",
        "country_code": "VNM",
        "country_name": "Việt Nam",
        "city": "Hồ Chí Minh",
        "district": "Quận 12",
        "ward": "Phường Tân Thới Nhất",
        "street": "Đường D1",
        "postal_code": "71510",
        "categories": [
            {
                "name": "Doanh nghiệp"
            }
        ]
    },
    {
        "name": "Công Ty CP Tập Đoàn Bảo Vệ Yuki Sepre 24",
        "latitude": 10.82358,
        "longitude": 106.62356,
        "address": "Công Ty CP Tập Đoàn Bảo Vệ Yuki Sepre 24, 58 Đường C1, Phường Tân Thới Nhất, Quận 12, Hồ Chí Minh, Việt Nam",
        "country_code": "VNM",
        "country_name": "Việt Nam",
        "city": "Hồ Chí Minh",
        "district": "Quận 12",
        "ward": "Phường Tân Thới Nhất",
        "street": "Đường C1",
        "postal_code": "71510",
        "categories": [
            {
                "name": "Doanh nghiệp"
            }
        ]
    },
    {
        "name": "Nhà Máy Đá Granite",
        "latitude": 10.82503,
        "longitude": 106.62585,
        "address": "Nhà Máy Đá Granite, Đường Tân Thới Nhất 17, Phường Tân Thới Nhất, Quận 12, Hồ Chí Minh, Việt Nam",
        "country_code": "VNM",
        "country_name": "Việt Nam",
        "city": "Hồ Chí Minh",
        "district": "Quận 12",
        "ward": "Phường Tân Thới Nhất",
        "street": "Đường Tân Thới Nhất 17",
        "postal_code": "71510",
        "categories": [
            {
                "name": "Doanh nghiệp"
            }
        ]
    },
    {
        "name": "Cty TNHH Đầu Tư SX TM TND",
        "latitude": 10.82383,
        "longitude": 106.62325,
        "address": "Cty TNHH Đầu Tư SX TM TND, Đường D1, Phường Tân Thới Nhất, Quận 12, Hồ Chí Minh, Việt Nam",
        "country_code": "VNM",
        "country_name": "Việt Nam",
        "city": "Hồ Chí Minh",
        "district": "Quận 12",
        "ward": "Phường Tân Thới Nhất",
        "street": "Đường D1",
        "postal_code": "71510",
        "categories": [
            {
                "name": "Doanh nghiệp"
            }
        ]
    },
    {
        "name": "Công Ty TNHH MTV Hàn Hùng",
        "latitude": 10.82377,
        "longitude": 106.62327,
        "address": "Công Ty TNHH MTV Hàn Hùng, Đường D1, Phường Tân Thới Nhất, Quận 12, Hồ Chí Minh, Việt Nam",
        "country_code": "VNM",
        "country_name": "Việt Nam",
        "city": "Hồ Chí Minh",
        "district": "Quận 12",
        "ward": "Phường Tân Thới Nhất",
        "street": "Đường D1",
        "postal_code": "71510",
        "categories": [
            {
                "name": "Doanh nghiệp"
            }
        ]
    },
    {
        "name": "Công Ty TNHH May Mặc Kiều Khanh",
        "latitude": 10.82315,
        "longitude": 106.62495,
        "address": "Công Ty TNHH May Mặc Kiều Khanh, Dương Thị Giang, Phường Tân Thới Nhất, Quận 12, Hồ Chí Minh, Việt Nam",
        "country_code": "VNM",
        "country_name": "Việt Nam",
        "city": "Hồ Chí Minh",
        "district": "Quận 12",
        "ward": "Phường Tân Thới Nhất",
        "street": "Dương Thị Giang",
        "postal_code": "71510",
        "categories": [
            {
                "name": "Doanh nghiệp"
            }
        ]
    },
    {
        "name": "Cty Cổ Phần SX TP Ánh Kim",
        "latitude": 10.82407,
        "longitude": 106.62294,
        "address": "Cty Cổ Phần SX TP Ánh Kim, Đường Tân Thới Nhất 17, Phường Tân Thới Nhất, Quận 12, Hồ Chí Minh, Việt Nam",
        "country_code": "VNM",
        "country_name": "Việt Nam",
        "city": "Hồ Chí Minh",
        "district": "Quận 12",
        "ward": "Phường Tân Thới Nhất",
        "street": "Đường Tân Thới Nhất 17",
        "postal_code": "71510",
        "categories": [
            {
                "name": "Doanh nghiệp"
            }
        ]
    },
    {
        "name": "MTV Lan Cách Tân",
        "latitude": 10.82331,
        "longitude": 106.62333,
        "address": "MTV Lan Cách Tân, Đường C2, Phường Tân Thới Nhất, Quận 12, Hồ Chí Minh, Việt Nam",
        "country_code": "VNM",
        "country_name": "Việt Nam",
        "city": "Hồ Chí Minh",
        "district": "Quận 12",
        "ward": "Phường Tân Thới Nhất",
        "street": "Đường C2",
        "postal_code": "71510",
        "categories": [
            {
                "name": "Doanh nghiệp"
            }
        ]
    },
    {
        "name": "Tole",
        "latitude": 10.82638,
        "longitude": 106.62403,
        "address": "Tole, Tổ 52 KP 4, Phường Tân Thới Nhất, Quận 12, Hồ Chí Minh, Việt Nam",
        "country_code": "VNM",
        "country_name": "Việt Nam",
        "city": "Hồ Chí Minh",
        "district": "Quận 12",
        "ward": "Phường Tân Thới Nhất",
        "street": "Tổ 52 KP 4",
        "postal_code": "71510",
        "categories": [
            {
                "name": "Doanh nghiệp"
            }
        ]
    },
    {
        "name": "Công Ty TNHH XD TM DV Tô Gia Phát",
        "latitude": 10.82367,
        "longitude": 106.62291,
        "address": "Công Ty TNHH XD TM DV Tô Gia Phát, Đường D1, Phường Tân Thới Nhất, Quận 12, Hồ Chí Minh, Việt Nam",
        "country_code": "VNM",
        "country_name": "Việt Nam",
        "city": "Hồ Chí Minh",
        "district": "Quận 12",
        "ward": "Phường Tân Thới Nhất",
        "street": "Đường D1",
        "postal_code": "71510",
        "categories": [
            {
                "name": "Doanh nghiệp"
            }
        ]
    },
    {
        "name": "Cty TNHH MTV XD Đầu Tư Kiên Định",
        "latitude": 10.82337,
        "longitude": 106.62312,
        "address": "Cty TNHH MTV XD Đầu Tư Kiên Định, Đường C1, Phường Tân Thới Nhất, Quận 12, Hồ Chí Minh, Việt Nam",
        "country_code": "VNM",
        "country_name": "Việt Nam",
        "city": "Hồ Chí Minh",
        "district": "Quận 12",
        "ward": "Phường Tân Thới Nhất",
        "street": "Đường C1",
        "postal_code": "71510",
        "categories": [
            {
                "name": "Doanh nghiệp"
            }
        ]
    },
    {
        "name": "Cty TNHH MTV TM DV Cơ Khí Đạt Anh",
        "latitude": 10.82397,
        "longitude": 106.62258,
        "address": "Cty TNHH MTV TM DV Cơ Khí Đạt Anh, Đường Tân Thới Nhất 17, Phường Tân Thới Nhất, Quận 12, Hồ Chí Minh, Việt Nam",
        "country_code": "VNM",
        "country_name": "Việt Nam",
        "city": "Hồ Chí Minh",
        "district": "Quận 12",
        "ward": "Phường Tân Thới Nhất",
        "street": "Đường Tân Thới Nhất 17",
        "postal_code": "71510",
        "categories": [
            {
                "name": "Doanh nghiệp"
            }
        ]
    },
    {
        "name": "Công Ty TNHH TM DV Bảo Minh Trinh",
        "latitude": 10.82602,
        "longitude": 106.62596,
        "address": "Công Ty TNHH TM DV Bảo Minh Trinh, Đường Trường Chinh, Phường Tân Thới Nhất, Quận 12, Hồ Chí Minh, Việt Nam",
        "country_code": "VNM",
        "country_name": "Việt Nam",
        "city": "Hồ Chí Minh",
        "district": "Quận 12",
        "ward": "Phường Tân Thới Nhất",
        "street": "Đường Trường Chinh",
        "postal_code": "71510",
        "categories": [
            {
                "name": "Doanh nghiệp"
            }
        ]
    },
    {
        "name": "Công Ty TNHH Công Nghệ Laser Việt",
        "latitude": 10.82602,
        "longitude": 106.62605,
        "address": "Công Ty TNHH Công Nghệ Laser Việt, 19B Đường Trường Chinh, Phường Tân Thới Nhất, Quận 12, Hồ Chí Minh, Việt Nam",
        "country_code": "VNM",
        "country_name": "Việt Nam",
        "city": "Hồ Chí Minh",
        "district": "Quận 12",
        "ward": "Phường Tân Thới Nhất",
        "street": "Đường Trường Chinh",
        "postal_code": "71510",
        "categories": [
            {
                "name": "Doanh nghiệp"
            }
        ]
    },
    {
        "name": "TMDV Nhật Trung",
        "latitude": 10.82624,
        "longitude": 106.6259,
        "address": "TMDV Nhật Trung, Đường Trường Chinh, Phường Tân Thới Nhất, Quận 12, Hồ Chí Minh, Việt Nam",
        "country_code": "VNM",
        "country_name": "Việt Nam",
        "city": "Hồ Chí Minh",
        "district": "Quận 12",
        "ward": "Phường Tân Thới Nhất",
        "street": "Đường Trường Chinh",
        "postal_code": "71510",
        "categories": [
            {
                "name": "Doanh nghiệp"
            }
        ]
    },
    {
        "name": "Chi Nhánh Công Ty CP TM-Điện Tử-CN Phú Hoàng",
        "latitude": 10.82617,
        "longitude": 106.62295,
        "address": "Chi Nhánh Công Ty CP TM-Điện Tử-CN Phú Hoàng, Đường Phan Văn Hớn, Phường Tân Thới Nhất, Quận 12, Hồ Chí Minh, Việt Nam",
        "country_code": "VNM",
        "country_name": "Việt Nam",
        "city": "Hồ Chí Minh",
        "district": "Quận 12",
        "ward": "Phường Tân Thới Nhất",
        "street": "Đường Phan Văn Hớn",
        "postal_code": "71510",
        "categories": [
            {
                "name": "Doanh nghiệp"
            }
        ]
    },
    {
        "name": "Công Ty Cổ Phần Phân Phối Công Nghệ Châu Sa",
        "latitude": 10.82674,
        "longitude": 106.62501,
        "address": "Công Ty Cổ Phần Phân Phối Công Nghệ Châu Sa, Đường Trường Chinh, Phường Tân Thới Nhất, Quận 12, Hồ Chí Minh, Việt Nam",
        "country_code": "VNM",
        "country_name": "Việt Nam",
        "city": "Hồ Chí Minh",
        "district": "Quận 12",
        "ward": "Phường Tân Thới Nhất",
        "street": "Đường Trường Chinh",
        "postal_code": "71510",
        "categories": [
            {
                "name": "Doanh nghiệp"
            }
        ]
    },
    {
        "name": "Bảo Bi Tóc Nam",
        "latitude": 10.82668,
        "longitude": 106.62527,
        "address": "Bảo Bi Tóc Nam, 29 Đường Trường Chinh, Phường Tân Thới Nhất, Quận 12, Hồ Chí Minh, Việt Nam",
        "country_code": "VNM",
        "country_name": "Việt Nam",
        "city": "Hồ Chí Minh",
        "district": "Quận 12",
        "ward": "Phường Tân Thới Nhất",
        "street": "Đường Trường Chinh",
        "postal_code": "71510",
        "categories": [
            {
                "name": "Doanh nghiệp"
            },
            {
                "name": "Hiệu bánh"
            },
            {
                "name": "Cửa hàng chuyên dụng"
            },
            {
                "name": "Cắt tóc & Tạo mẫu"
            }
        ]
    },
    {
        "name": "Cty TNHH TM DV Thiên Thành Đạt",
        "latitude": 10.82655,
        "longitude": 106.62559,
        "address": "Cty TNHH TM DV Thiên Thành Đạt, Đường Trường Chinh, Phường Tân Thới Nhất, Quận 12, Hồ Chí Minh, Việt Nam",
        "country_code": "VNM",
        "country_name": "Việt Nam",
        "city": "Hồ Chí Minh",
        "district": "Quận 12",
        "ward": "Phường Tân Thới Nhất",
        "street": "Đường Trường Chinh",
        "postal_code": "71510",
        "categories": [
            {
                "name": "Doanh nghiệp"
            }
        ]
    },
    {
        "name": "Công Ty TNHH TB VT XD Khang Gia",
        "latitude": 10.82658,
        "longitude": 106.62321,
        "address": "Công Ty TNHH TB VT XD Khang Gia, 36 Hẻm 33 Phan Văn Hớn, Phường Tân Thới Nhất, Quận 12, Hồ Chí Minh, Việt Nam",
        "country_code": "VNM",
        "country_name": "Việt Nam",
        "city": "Hồ Chí Minh",
        "district": "Quận 12",
        "ward": "Phường Tân Thới Nhất",
        "street": "Hẻm 33 Phan Văn Hớn",
        "postal_code": "71510",
        "categories": [
            {
                "name": "Doanh nghiệp"
            }
        ]
    },
    {
        "name": "Công Ty Trách Nhiệm Hữu Hạn Kim Mai Long",
        "latitude": 10.82694,
        "longitude": 106.6252,
        "address": "Công Ty Trách Nhiệm Hữu Hạn Kim Mai Long, 33 Đường Trường Chinh, Phường Tân Thới Nhất, Quận 12, Hồ Chí Minh, Việt Nam",
        "country_code": "VNM",
        "country_name": "Việt Nam",
        "city": "Hồ Chí Minh",
        "district": "Quận 12",
        "ward": "Phường Tân Thới Nhất",
        "street": "Đường Trường Chinh",
        "postal_code": "71510",
        "categories": [
            {
                "name": "Doanh nghiệp"
            },
            {
                "name": "Cửa hàng phần cứng hoặc trung tâm DIY"
            },
            {
                "name": "Dịch vụ kinh doanh"
            }
        ]
    },
    {
        "name": "Việt Ý",
        "latitude": 10.826,
        "longitude": 106.62654,
        "address": "Việt Ý, Cầu Tham Lương 2, Phường Đông Hưng Thuận, Quận 12, Hồ Chí Minh, Việt Nam",
        "country_code": "VNM",
        "country_name": "Việt Nam",
        "city": "Hồ Chí Minh",
        "district": "Quận 12",
        "ward": "Phường Đông Hưng Thuận",
        "street": "Cầu Tham Lương 2",
        "postal_code": "71508",
        "categories": [
            {
                "name": "Doanh nghiệp"
            }
        ]
    },
    {
        "name": "TMDV SX Nguyễn Cao",
        "latitude": 10.826,
        "longitude": 106.62654,
        "address": "TMDV SX Nguyễn Cao, Cầu Tham Lương 2, Phường Đông Hưng Thuận, Quận 12, Hồ Chí Minh, Việt Nam",
        "country_code": "VNM",
        "country_name": "Việt Nam",
        "city": "Hồ Chí Minh",
        "district": "Quận 12",
        "ward": "Phường Đông Hưng Thuận",
        "street": "Cầu Tham Lương 2",
        "postal_code": "71508",
        "categories": [
            {
                "name": "Doanh nghiệp"
            }
        ]
    },
    {
        "name": "Công Ty TNHH Sản Xuất Thương Mại Việt Khoa",
        "latitude": 10.82494,
        "longitude": 106.62697,
        "address": "Công Ty TNHH Sản Xuất Thương Mại Việt Khoa, Đường Trường Chinh, Phường Tân Thới Nhất, Quận 12, Hồ Chí Minh, Việt Nam",
        "country_code": "VNM",
        "country_name": "Việt Nam",
        "city": "Hồ Chí Minh",
        "district": "Quận 12",
        "ward": "Phường Tân Thới Nhất",
        "street": "Đường Trường Chinh",
        "postal_code": "71510",
        "categories": [
            {
                "name": "Doanh nghiệp"
            }
        ]
    },
    {
        "name": "Công Ty Trách Nhiệm Hữu Hạn Kính An Toàn Thế Tài",
        "latitude": 10.826,
        "longitude": 106.62668,
        "address": "Công Ty Trách Nhiệm Hữu Hạn Kính An Toàn Thế Tài, Đường Trường Chinh, Phường Đông Hưng Thuận, Quận 12, Hồ Chí Minh, Việt Nam",
        "country_code": "VNM",
        "country_name": "Việt Nam",
        "city": "Hồ Chí Minh",
        "district": "Quận 12",
        "ward": "Phường Đông Hưng Thuận",
        "street": "Đường Trường Chinh",
        "postal_code": "71508",
        "categories": [
            {
                "name": "Doanh nghiệp"
            }
        ]
    },
    {
        "name": "Công Ty Cổ Phần Zoza Việt Nam",
        "latitude": 10.82712,
        "longitude": 106.62515,
        "address": "Công Ty Cổ Phần Zoza Việt Nam, Đường Trường Chinh, Phường Tân Thới Nhất, Quận 12, Hồ Chí Minh, Việt Nam",
        "country_code": "VNM",
        "country_name": "Việt Nam",
        "city": "Hồ Chí Minh",
        "district": "Quận 12",
        "ward": "Phường Tân Thới Nhất",
        "street": "Đường Trường Chinh",
        "postal_code": "71510",
        "categories": [
            {
                "name": "Doanh nghiệp"
            }
        ]
    },
    {
        "name": "CH Máy Móc Tbị XD Tiến Hưng",
        "latitude": 10.82611,
        "longitude": 106.62664,
        "address": "CH Máy Móc Tbị XD Tiến Hưng, Đường Trường Chinh, Phường Đông Hưng Thuận, Quận 12, Hồ Chí Minh, Việt Nam",
        "country_code": "VNM",
        "country_name": "Việt Nam",
        "city": "Hồ Chí Minh",
        "district": "Quận 12",
        "ward": "Phường Đông Hưng Thuận",
        "street": "Đường Trường Chinh",
        "postal_code": "71508",
        "categories": [
            {
                "name": "Doanh nghiệp"
            }
        ]
    },
    {
        "name": "Công Ty Bất Động Sản Gia Phúc",
        "latitude": 10.8254,
        "longitude": 106.62702,
        "address": "Công Ty Bất Động Sản Gia Phúc, Đường Trường Chinh, Phường Tân Thới Nhất, Quận 12, Hồ Chí Minh, Việt Nam",
        "country_code": "VNM",
        "country_name": "Việt Nam",
        "city": "Hồ Chí Minh",
        "district": "Quận 12",
        "ward": "Phường Tân Thới Nhất",
        "street": "Đường Trường Chinh",
        "postal_code": "71510",
        "categories": [
            {
                "name": "Doanh nghiệp"
            }
        ]
    },
    {
        "name": "Quân Anh",
        "latitude": 10.82722,
        "longitude": 106.62485,
        "address": "Quân Anh, 3 Đường Phan Văn Hớn, Phường Tân Thới Nhất, Quận 12, Hồ Chí Minh, Việt Nam",
        "country_code": "VNM",
        "country_name": "Việt Nam",
        "city": "Hồ Chí Minh",
        "district": "Quận 12",
        "ward": "Phường Tân Thới Nhất",
        "street": "Đường Phan Văn Hớn",
        "postal_code": "71510",
        "categories": [
            {
                "name": "Doanh nghiệp"
            }
        ]
    },
    {
        "name": "Công Ty TNHH May Mặc Minh Phú",
        "latitude": 10.82245,
        "longitude": 106.6229,
        "address": "Công Ty TNHH May Mặc Minh Phú, D18 Đường C3, Phường Tân Thới Nhất, Quận 12, Hồ Chí Minh, Việt Nam",
        "country_code": "VNM",
        "country_name": "Việt Nam",
        "city": "Hồ Chí Minh",
        "district": "Quận 12",
        "ward": "Phường Tân Thới Nhất",
        "street": "Đường C3",
        "postal_code": "71510",
        "categories": [
            {
                "name": "Doanh nghiệp"
            },
            {
                "name": "Dịch vụ B2B"
            }
        ]
    },
    {
        "name": "Phan Văn Đức VI Tính Laptop Camera Máy In",
        "latitude": 10.82732,
        "longitude": 106.62426,
        "address": "Phan Văn Đức VI Tính Laptop Camera Máy In, Đường Phan Văn Hớn, Phường Tân Thới Nhất, Quận 12, Hồ Chí Minh, Việt Nam",
        "country_code": "VNM",
        "country_name": "Việt Nam",
        "city": "Hồ Chí Minh",
        "district": "Quận 12",
        "ward": "Phường Tân Thới Nhất",
        "street": "Đường Phan Văn Hớn",
        "postal_code": "71510",
        "categories": [
            {
                "name": "Doanh nghiệp"
            },
            {
                "name": "Hàng tiêu dùng"
            },
            {
                "name": "Cửa hàng chuyên dụng"
            }
        ]
    },
    {
        "name": "Công Ty Cổ Phần Đầu Tư Và Phát Triển Đất Xanh Tây Bắc",
        "latitude": 10.8271,
        "longitude": 106.6256,
        "address": "Công Ty Cổ Phần Đầu Tư Và Phát Triển Đất Xanh Tây Bắc, 70 Đường Trường Chinh, Phường Tân Hưng Thuận, Quận 12, Hồ Chí Minh, Việt Nam",
        "country_code": "VNM",
        "country_name": "Việt Nam",
        "city": "Hồ Chí Minh",
        "district": "Quận 12",
        "ward": "Phường Tân Hưng Thuận",
        "street": "Đường Trường Chinh",
        "postal_code": "71509",
        "categories": [
            {
                "name": "Doanh nghiệp"
            }
        ]
    },
    {
        "name": "Công Ty Cổ Phần Đầu Tư Viet Home",
        "latitude": 10.8271,
        "longitude": 106.6256,
        "address": "Công Ty Cổ Phần Đầu Tư Viet Home, 70 Đường Trường Chinh, Phường Tân Hưng Thuận, Quận 12, Hồ Chí Minh, Việt Nam",
        "country_code": "VNM",
        "country_name": "Việt Nam",
        "city": "Hồ Chí Minh",
        "district": "Quận 12",
        "ward": "Phường Tân Hưng Thuận",
        "street": "Đường Trường Chinh",
        "postal_code": "71509",
        "categories": [
            {
                "name": "Doanh nghiệp"
            }
        ]
    },
    {
        "name": "Công Ty Cổ Phần Thương Mại Dịch Vụ Bảo Vệ Đại Lâm Sơn",
        "latitude": 10.8271,
        "longitude": 106.6256,
        "address": "Công Ty Cổ Phần Thương Mại Dịch Vụ Bảo Vệ Đại Lâm Sơn, 70 Đường Trường Chinh, Phường Tân Hưng Thuận, Quận 12, Hồ Chí Minh, Việt Nam",
        "country_code": "VNM",
        "country_name": "Việt Nam",
        "city": "Hồ Chí Minh",
        "district": "Quận 12",
        "ward": "Phường Tân Hưng Thuận",
        "street": "Đường Trường Chinh",
        "postal_code": "71509",
        "categories": [
            {
                "name": "Doanh nghiệp"
            },
            {
                "name": "Văn phòng chính phủ"
            }
        ]
    },
    {
        "name": "Công Ty Cổ Phần Đầu Tư Và Xây Dựng Nhân Hòa Phát",
        "latitude": 10.82642,
        "longitude": 106.62657,
        "address": "Công Ty Cổ Phần Đầu Tư Và Xây Dựng Nhân Hòa Phát, 1 Hẻm 1 Đường Nguyễn Văn Quá, Phường Tân Hưng Thuận, Quận 12, Hồ Chí Minh, Việt Nam",
        "country_code": "VNM",
        "country_name": "Việt Nam",
        "city": "Hồ Chí Minh",
        "district": "Quận 12",
        "ward": "Phường Tân Hưng Thuận",
        "street": "Hẻm 1 Đường Nguyễn Văn Quá",
        "postal_code": "71509",
        "categories": [
            {
                "name": "Doanh nghiệp"
            },
            {
                "name": "Cửa hàng phần cứng hoặc trung tâm DIY"
            },
            {
                "name": "Dịch vụ kinh doanh"
            },
            {
                "name": "Dịch vụ chụp ảnh"
            }
        ]
    },
    {
        "name": "DN Tư Nhân Máy & Tbị Á Châu",
        "latitude": 10.82642,
        "longitude": 106.62657,
        "address": "DN Tư Nhân Máy & Tbị Á Châu, 1 Hẻm 1 Đường Nguyễn Văn Quá, Phường Tân Hưng Thuận, Quận 12, Hồ Chí Minh, Việt Nam",
        "country_code": "VNM",
        "country_name": "Việt Nam",
        "city": "Hồ Chí Minh",
        "district": "Quận 12",
        "ward": "Phường Tân Hưng Thuận",
        "street": "Hẻm 1 Đường Nguyễn Văn Quá",
        "postal_code": "71509",
        "categories": [
            {
                "name": "Doanh nghiệp"
            },
            {
                "name": "Cửa hàng bán đồ gia dụng/Nội thất"
            },
            {
                "name": "Dụng cụ văn phòng và dịch vụ"
            },
            {
                "name": "Dịch vụ kinh doanh"
            },
            {
                "name": "Dịch vụ sửa chữa"
            }
        ]
    },
    {
        "name": "Bảo Bi",
        "latitude": 10.82738,
        "longitude": 106.62465,
        "address": "Bảo Bi, Đường Phan Văn Hớn, Phường Tân Thới Nhất, Quận 12, Hồ Chí Minh, Việt Nam",
        "country_code": "VNM",
        "country_name": "Việt Nam",
        "city": "Hồ Chí Minh",
        "district": "Quận 12",
        "ward": "Phường Tân Thới Nhất",
        "street": "Đường Phan Văn Hớn",
        "postal_code": "71510",
        "categories": [
            {
                "name": "Doanh nghiệp"
            },
            {
                "name": "Cắt tóc & Tạo mẫu"
            }
        ]
    },
    {
        "name": "Công Ty TNHH Dệt May Mai Bình Trân",
        "latitude": 10.82496,
        "longitude": 106.62729,
        "address": "Công Ty TNHH Dệt May Mai Bình Trân, Cầu Tham Lương 1, Phường Tân Thới Nhất, Quận 12, Hồ Chí Minh, Việt Nam",
        "country_code": "VNM",
        "country_name": "Việt Nam",
        "city": "Hồ Chí Minh",
        "district": "Quận 12",
        "ward": "Phường Tân Thới Nhất",
        "street": "Cầu Tham Lương 1",
        "postal_code": "71510",
        "categories": [
            {
                "name": "Doanh nghiệp"
            }
        ]
    },
    {
        "name": "Công Ty TNHH KB Việt Nam",
        "latitude": 10.8264,
        "longitude": 106.62666,
        "address": "Công Ty TNHH KB Việt Nam, Đường Nguyễn Văn Quá, Phường Tân Hưng Thuận, Quận 12, Hồ Chí Minh, Việt Nam",
        "country_code": "VNM",
        "country_name": "Việt Nam",
        "city": "Hồ Chí Minh",
        "district": "Quận 12",
        "ward": "Phường Tân Hưng Thuận",
        "street": "Đường Nguyễn Văn Quá",
        "postal_code": "71509",
        "categories": [
            {
                "name": "Doanh nghiệp"
            },
            {
                "name": "Dịch vụ kinh doanh"
            }
        ]
    },
    {
        "name": "Công Ty TNHH MTV Phan Văn Đức",
        "latitude": 10.82743,
        "longitude": 106.62436,
        "address": "Công Ty TNHH MTV Phan Văn Đức, 16 Đường Phan Văn Hớn, Phường Tân Thới Nhất, Quận 12, Hồ Chí Minh, Việt Nam",
        "country_code": "VNM",
        "country_name": "Việt Nam",
        "city": "Hồ Chí Minh",
        "district": "Quận 12",
        "ward": "Phường Tân Thới Nhất",
        "street": "Đường Phan Văn Hớn",
        "postal_code": "71510",
        "categories": [
            {
                "name": "Doanh nghiệp"
            },
            {
                "name": "Cửa hàng điện tử gia dụng"
            }
        ]
    },
    {
        "name": "Công Ty TNHH Everywhere Fitness",
        "latitude": 10.82738,
        "longitude": 106.62389,
        "address": "Công Ty TNHH Everywhere Fitness, 21 Đường Phan Văn Hớn, Phường Tân Thới Nhất, Quận 12, Hồ Chí Minh, Việt Nam",
        "country_code": "VNM",
        "country_name": "Việt Nam",
        "city": "Hồ Chí Minh",
        "district": "Quận 12",
        "ward": "Phường Tân Thới Nhất",
        "street": "Đường Phan Văn Hớn",
        "postal_code": "71510",
        "categories": [
            {
                "name": "Doanh nghiệp"
            }
        ]
    },
    {
        "name": "Công Ty TNHH Tư Vấn Xây Dựng Nhất Nguyên",
        "latitude": 10.82745,
        "longitude": 106.62433,
        "address": "Công Ty TNHH Tư Vấn Xây Dựng Nhất Nguyên, Đường Phan Văn Hớn, Phường Tân Thới Nhất, Quận 12, Hồ Chí Minh, Việt Nam",
        "country_code": "VNM",
        "country_name": "Việt Nam",
        "city": "Hồ Chí Minh",
        "district": "Quận 12",
        "ward": "Phường Tân Thới Nhất",
        "street": "Đường Phan Văn Hớn",
        "postal_code": "71510",
        "categories": [
            {
                "name": "Doanh nghiệp"
            }
        ]
    },
    {
        "name": "Cty TNHH TM XNK Ngũ Cốc Long Vân KS",
        "latitude": 10.82259,
        "longitude": 106.6225,
        "address": "Cty TNHH TM XNK Ngũ Cốc Long Vân KS, Đường Tân Thới Nhất 21, Phường Tân Thới Nhất, Quận 12, Hồ Chí Minh, Việt Nam",
        "country_code": "VNM",
        "country_name": "Việt Nam",
        "city": "Hồ Chí Minh",
        "district": "Quận 12",
        "ward": "Phường Tân Thới Nhất",
        "street": "Đường Tân Thới Nhất 21",
        "postal_code": "71510",
        "categories": [
            {
                "name": "Doanh nghiệp"
            }
        ]
    },
    {
        "name": "Công Ty TNHH May Cẩm Hưng",
        "latitude": 10.8274,
        "longitude": 106.62379,
        "address": "Công Ty TNHH May Cẩm Hưng, Đường Phan Văn Hớn, Phường Tân Thới Nhất, Quận 12, Hồ Chí Minh, Việt Nam",
        "country_code": "VNM",
        "country_name": "Việt Nam",
        "city": "Hồ Chí Minh",
        "district": "Quận 12",
        "ward": "Phường Tân Thới Nhất",
        "street": "Đường Phan Văn Hớn",
        "postal_code": "71510",
        "categories": [
            {
                "name": "Doanh nghiệp"
            }
        ]
    },
    {
        "name": "Tùng Lâm",
        "latitude": 10.82749,
        "longitude": 106.62407,
        "address": "Tùng Lâm, Đường Phan Văn Hớn, Phường Tân Thới Nhất, Quận 12, Hồ Chí Minh, Việt Nam",
        "country_code": "VNM",
        "country_name": "Việt Nam",
        "city": "Hồ Chí Minh",
        "district": "Quận 12",
        "ward": "Phường Tân Thới Nhất",
        "street": "Đường Phan Văn Hớn",
        "postal_code": "71510",
        "categories": [
            {
                "name": "Đồ dùng cho vật nuôi"
            },
            {
                "name": "Doanh nghiệp"
            }
        ]
    },
    {
        "name": "DNTN Hưng Phát",
        "latitude": 10.82659,
        "longitude": 106.62668,
        "address": "DNTN Hưng Phát, Đường Nguyễn Văn Quá, Phường Tân Hưng Thuận, Quận 12, Hồ Chí Minh, Việt Nam",
        "country_code": "VNM",
        "country_name": "Việt Nam",
        "city": "Hồ Chí Minh",
        "district": "Quận 12",
        "ward": "Phường Tân Hưng Thuận",
        "street": "Đường Nguyễn Văn Quá",
        "postal_code": "71509",
        "categories": [
            {
                "name": "Doanh nghiệp"
            }
        ]
    },
    {
        "name": "Cty TNHH XD DV DL Hoàn Lộc",
        "latitude": 10.82743,
        "longitude": 106.62363,
        "address": "Cty TNHH XD DV DL Hoàn Lộc, Đường Phan Văn Hớn, Phường Tân Thới Nhất, Quận 12, Hồ Chí Minh, Việt Nam",
        "country_code": "VNM",
        "country_name": "Việt Nam",
        "city": "Hồ Chí Minh",
        "district": "Quận 12",
        "ward": "Phường Tân Thới Nhất",
        "street": "Đường Phan Văn Hớn",
        "postal_code": "71510",
        "categories": [
            {
                "name": "Doanh nghiệp"
            }
        ]
    },
    {
        "name": "Cty TNHH ĐTPT Hưng Gia Phúc",
        "latitude": 10.82663,
        "longitude": 106.62667,
        "address": "Cty TNHH ĐTPT Hưng Gia Phúc, 50 Hẻm 1 Đường Nguyễn Văn Quá, Phường Tân Hưng Thuận, Quận 12, Hồ Chí Minh, Việt Nam",
        "country_code": "VNM",
        "country_name": "Việt Nam",
        "city": "Hồ Chí Minh",
        "district": "Quận 12",
        "ward": "Phường Tân Hưng Thuận",
        "street": "Hẻm 1 Đường Nguyễn Văn Quá",
        "postal_code": "71509",
        "categories": [
            {
                "name": "Doanh nghiệp"
            },
            {
                "name": "Cửa hàng chuyên dụng"
            },
            {
                "name": "Xây dựng"
            },
            {
                "name": "Cố vấn pháp luật"
            }
        ]
    },
    {
        "name": "Công Ty TNHH Thương Mại Kỹ Thuật Điện Đại Hòa Phú",
        "latitude": 10.82742,
        "longitude": 106.62544,
        "address": "Công Ty TNHH Thương Mại Kỹ Thuật Điện Đại Hòa Phú, Đường Trường Chinh, Phường Tân Hưng Thuận, Quận 12, Hồ Chí Minh, Việt Nam",
        "country_code": "VNM",
        "country_name": "Việt Nam",
        "city": "Hồ Chí Minh",
        "district": "Quận 12",
        "ward": "Phường Tân Hưng Thuận",
        "street": "Đường Trường Chinh",
        "postal_code": "71509",
        "categories": [
            {
                "name": "Doanh nghiệp"
            },
            {
                "name": "Cửa hàng điện tử gia dụng"
            }
        ]
    },
    {
        "name": "Công Ty TNHH An Việt Thịnh",
        "latitude": 10.82742,
        "longitude": 106.62544,
        "address": "Công Ty TNHH An Việt Thịnh, Đường Trường Chinh, Phường Tân Hưng Thuận, Quận 12, Hồ Chí Minh, Việt Nam",
        "country_code": "VNM",
        "country_name": "Việt Nam",
        "city": "Hồ Chí Minh",
        "district": "Quận 12",
        "ward": "Phường Tân Hưng Thuận",
        "street": "Đường Trường Chinh",
        "postal_code": "71509",
        "categories": [
            {
                "name": "Doanh nghiệp"
            },
            {
                "name": "Cửa hàng điện tử gia dụng"
            }
        ]
    },
    {
        "name": "Công Ty TNHH Quản Lý Đầu Tư Emotion",
        "latitude": 10.82655,
        "longitude": 106.62677,
        "address": "Công Ty TNHH Quản Lý Đầu Tư Emotion, Đường Nguyễn Văn Quá, Phường Tân Hưng Thuận, Quận 12, Hồ Chí Minh, Việt Nam",
        "country_code": "VNM",
        "country_name": "Việt Nam",
        "city": "Hồ Chí Minh",
        "district": "Quận 12",
        "ward": "Phường Tân Hưng Thuận",
        "street": "Đường Nguyễn Văn Quá",
        "postal_code": "71509",
        "categories": [
            {
                "name": "Doanh nghiệp"
            }
        ]
    },
    {
        "name": "Cơ Sở XI Mạ Chánh Hùng",
        "latitude": 10.82477,
        "longitude": 106.62749,
        "address": "Cơ Sở XI Mạ Chánh Hùng, Cầu Tham Lương 2, Phường Tân Thới Nhất, Quận 12, Hồ Chí Minh, Việt Nam",
        "country_code": "VNM",
        "country_name": "Việt Nam",
        "city": "Hồ Chí Minh",
        "district": "Quận 12",
        "ward": "Phường Tân Thới Nhất",
        "street": "Cầu Tham Lương 2",
        "postal_code": "71510",
        "categories": [
            {
                "name": "Doanh nghiệp"
            }
        ]
    },
    {
        "name": "Công Ty TNHH Pruner-Trường Sơn",
        "latitude": 10.82744,
        "longitude": 106.62356,
        "address": "Công Ty TNHH Pruner-Trường Sơn, Đường Phan Văn Hớn, Phường Tân Thới Nhất, Quận 12, Hồ Chí Minh, Việt Nam",
        "country_code": "VNM",
        "country_name": "Việt Nam",
        "city": "Hồ Chí Minh",
        "district": "Quận 12",
        "ward": "Phường Tân Thới Nhất",
        "street": "Đường Phan Văn Hớn",
        "postal_code": "71510",
        "categories": [
            {
                "name": "Doanh nghiệp"
            }
        ]
    },
    {
        "name": "Công Ty TNHH Hoa Nam Pharma",
        "latitude": 10.82244,
        "longitude": 106.6224,
        "address": "Công Ty TNHH Hoa Nam Pharma, Đường Tân Thới Nhất 21, Phường Tân Thới Nhất, Quận 12, Hồ Chí Minh, Việt Nam",
        "country_code": "VNM",
        "country_name": "Việt Nam",
        "city": "Hồ Chí Minh",
        "district": "Quận 12",
        "ward": "Phường Tân Thới Nhất",
        "street": "Đường Tân Thới Nhất 21",
        "postal_code": "71510",
        "categories": [
            {
                "name": "Doanh nghiệp"
            }
        ]
    },
    {
        "name": "Công Ty TNHH Thương Mại Và Dịch Vụ Tân Thành Phong",
        "latitude": 10.82765,
        "longitude": 106.62468,
        "address": "Công Ty TNHH Thương Mại Và Dịch Vụ Tân Thành Phong, Đường Trường Chinh, Phường Tân Thới Nhất, Quận 12, Hồ Chí Minh, Việt Nam",
        "country_code": "VNM",
        "country_name": "Việt Nam",
        "city": "Hồ Chí Minh",
        "district": "Quận 12",
        "ward": "Phường Tân Thới Nhất",
        "street": "Đường Trường Chinh",
        "postal_code": "71510",
        "categories": [
            {
                "name": "Doanh nghiệp"
            },
            {
                "name": "Cửa hàng điện tử gia dụng"
            }
        ]
    },
    {
        "name": "Áo Cưới Cao Cấp Hoàng Vy",
        "latitude": 10.82757,
        "longitude": 106.62537,
        "address": "Áo Cưới Cao Cấp Hoàng Vy, Đường Trường Chinh, Phường Tân Hưng Thuận, Quận 12, Hồ Chí Minh, Việt Nam",
        "country_code": "VNM",
        "country_name": "Việt Nam",
        "city": "Hồ Chí Minh",
        "district": "Quận 12",
        "ward": "Phường Tân Hưng Thuận",
        "street": "Đường Trường Chinh",
        "postal_code": "71509",
        "categories": [
            {
                "name": "Doanh nghiệp"
            }
        ]
    },
    {
        "name": "Chi Nhánh Công Ty Truyền Hình Cáp Sài Gòn Tourist Trung Tâm Quận 12",
        "latitude": 10.8268,
        "longitude": 106.62672,
        "address": "Chi Nhánh Công Ty Truyền Hình Cáp Sài Gòn Tourist Trung Tâm Quận 12, Đường Nguyễn Văn Quá, Phường Tân Hưng Thuận, Quận 12, Hồ Chí Minh, Việt Nam",
        "country_code": "VNM",
        "country_name": "Việt Nam",
        "city": "Hồ Chí Minh",
        "district": "Quận 12",
        "ward": "Phường Tân Hưng Thuận",
        "street": "Đường Nguyễn Văn Quá",
        "postal_code": "71509",
        "categories": [
            {
                "name": "Doanh nghiệp"
            },
            {
                "name": "Liên lạc và truyền thông"
            },
            {
                "name": "Xây dựng"
            }
        ]
    },
    {
        "name": "Công Ty TNHH Công Nghệ Môi Trường Việt Thái",
        "latitude": 10.82529,
        "longitude": 106.62759,
        "address": "Công Ty TNHH Công Nghệ Môi Trường Việt Thái, Đường Trường Chinh, Phường Đông Hưng Thuận, Quận 12, Hồ Chí Minh, Việt Nam",
        "country_code": "VNM",
        "country_name": "Việt Nam",
        "city": "Hồ Chí Minh",
        "district": "Quận 12",
        "ward": "Phường Đông Hưng Thuận",
        "street": "Đường Trường Chinh",
        "postal_code": "71508",
        "categories": [
            {
                "name": "Doanh nghiệp"
            }
        ]
    },
    {
        "name": "Công Ty TNHH Thuận Buồm",
        "latitude": 10.82763,
        "longitude": 106.62344,
        "address": "Công Ty TNHH Thuận Buồm, Đường Phan Văn Hớn, Phường Tân Thới Nhất, Quận 12, Hồ Chí Minh, Việt Nam",
        "country_code": "VNM",
        "country_name": "Việt Nam",
        "city": "Hồ Chí Minh",
        "district": "Quận 12",
        "ward": "Phường Tân Thới Nhất",
        "street": "Đường Phan Văn Hớn",
        "postal_code": "71510",
        "categories": [
            {
                "name": "Doanh nghiệp"
            },
            {
                "name": "Giày dép"
            }
        ]
    },
    {
        "name": "Công Ty TNHH May Sài Gòn",
        "latitude": 10.82764,
        "longitude": 106.62336,
        "address": "Công Ty TNHH May Sài Gòn, Đường Phan Văn Hớn, Phường Tân Thới Nhất, Quận 12, Hồ Chí Minh, Việt Nam",
        "country_code": "VNM",
        "country_name": "Việt Nam",
        "city": "Hồ Chí Minh",
        "district": "Quận 12",
        "ward": "Phường Tân Thới Nhất",
        "street": "Đường Phan Văn Hớn",
        "postal_code": "71510",
        "categories": [
            {
                "name": "Doanh nghiệp"
            }
        ]
    },
    {
        "name": "Công Ty TNHH Sản Xuất Thương Mại Sơn Hà-Chi Nhánh",
        "latitude": 10.82784,
        "longitude": 106.62456,
        "address": "Công Ty TNHH Sản Xuất Thương Mại Sơn Hà-Chi Nhánh, Đường Trường Chinh, Phường Tân Thới Nhất, Quận 12, Hồ Chí Minh, Việt Nam",
        "country_code": "VNM",
        "country_name": "Việt Nam",
        "city": "Hồ Chí Minh",
        "district": "Quận 12",
        "ward": "Phường Tân Thới Nhất",
        "street": "Đường Trường Chinh",
        "postal_code": "71510",
        "categories": [
            {
                "name": "Doanh nghiệp"
            }
        ]
    },
    {
        "name": "Cty TNHH SX TM DV Windo Thiên Thành",
        "latitude": 10.82745,
        "longitude": 106.62282,
        "address": "Cty TNHH SX TM DV Windo Thiên Thành, 4 Hẻm 33 Phan Văn Hớn, Phường Tân Thới Nhất, Quận 12, Hồ Chí Minh, Việt Nam",
        "country_code": "VNM",
        "country_name": "Việt Nam",
        "city": "Hồ Chí Minh",
        "district": "Quận 12",
        "ward": "Phường Tân Thới Nhất",
        "street": "Hẻm 33 Phan Văn Hớn",
        "postal_code": "71510",
        "categories": [
            {
                "name": "Doanh nghiệp"
            }
        ]
    },
    {
        "name": "DNTN Nguyễn Huy",
        "latitude": 10.82512,
        "longitude": 106.62779,
        "address": "DNTN Nguyễn Huy, Đường Trường Chinh, Phường Đông Hưng Thuận, Quận 12, Hồ Chí Minh, Việt Nam",
        "country_code": "VNM",
        "country_name": "Việt Nam",
        "city": "Hồ Chí Minh",
        "district": "Quận 12",
        "ward": "Phường Đông Hưng Thuận",
        "street": "Đường Trường Chinh",
        "postal_code": "71508",
        "categories": [
            {
                "name": "Doanh nghiệp"
            }
        ]
    },
    {
        "name": "Công Ty TNHH Minh Nguyên Long",
        "latitude": 10.82204,
        "longitude": 106.62242,
        "address": "Công Ty TNHH Minh Nguyên Long, Đường TTN 21, Phường Tân Thới Nhất, Quận 12, Hồ Chí Minh, Việt Nam",
        "country_code": "VNM",
        "country_name": "Việt Nam",
        "city": "Hồ Chí Minh",
        "district": "Quận 12",
        "ward": "Phường Tân Thới Nhất",
        "street": "Đường TTN 21",
        "postal_code": "71510",
        "categories": [
            {
                "name": "Doanh nghiệp"
            }
        ]
    },
    {
        "name": "CTCP Kỹ Thuật Thiết Bị Việt Mỹ Vimet Corp",
        "latitude": 10.82131,
        "longitude": 106.62435,
        "address": "CTCP Kỹ Thuật Thiết Bị Việt Mỹ Vimet Corp, Đường Dương Thị Giang, Phường Tân Thới Nhất, Quận 12, Hồ Chí Minh, Việt Nam",
        "country_code": "VNM",
        "country_name": "Việt Nam",
        "city": "Hồ Chí Minh",
        "district": "Quận 12",
        "ward": "Phường Tân Thới Nhất",
        "street": "Đường Dương Thị Giang",
        "postal_code": "71510",
        "categories": [
            {
                "name": "Doanh nghiệp"
            }
        ]
    },
    {
        "name": "Công Ty Cổ Phần Thiết Kế Lục Giác Chi Nhánh Miền Nam",
        "latitude": 10.82343,
        "longitude": 106.62131,
        "address": "Công Ty Cổ Phần Thiết Kế Lục Giác Chi Nhánh Miền Nam, 12 Hẻm 149 Tân Thới Nhất 17, Phường Tân Thới Nhất, Quận 12, Hồ Chí Minh, Việt Nam",
        "country_code": "VNM",
        "country_name": "Việt Nam",
        "city": "Hồ Chí Minh",
        "district": "Quận 12",
        "ward": "Phường Tân Thới Nhất",
        "street": "Hẻm 149 Tân Thới Nhất 17",
        "postal_code": "71510",
        "categories": [
            {
                "name": "Doanh nghiệp"
            }
        ]
    },
    {
        "name": "Công Ty Cơ Khí Xây Dựng Bảo Long",
        "latitude": 10.82769,
        "longitude": 106.6231,
        "address": "Công Ty Cơ Khí Xây Dựng Bảo Long, Đường Phan Văn Hớn, Phường Tân Thới Nhất, Quận 12, Hồ Chí Minh, Việt Nam",
        "country_code": "VNM",
        "country_name": "Việt Nam",
        "city": "Hồ Chí Minh",
        "district": "Quận 12",
        "ward": "Phường Tân Thới Nhất",
        "street": "Đường Phan Văn Hớn",
        "postal_code": "71510",
        "categories": [
            {
                "name": "Doanh nghiệp"
            }
        ]
    },
    {
        "name": "DNTN Đông Hà",
        "latitude": 10.82795,
        "longitude": 106.62508,
        "address": "DNTN Đông Hà, Đường Trường Chinh, Phường Tân Hưng Thuận, Quận 12, Hồ Chí Minh, Việt Nam",
        "country_code": "VNM",
        "country_name": "Việt Nam",
        "city": "Hồ Chí Minh",
        "district": "Quận 12",
        "ward": "Phường Tân Hưng Thuận",
        "street": "Đường Trường Chinh",
        "postal_code": "71509",
        "categories": [
            {
                "name": "Doanh nghiệp"
            }
        ]
    },
    {
        "name": "Công Ty TNHH Bình Hy",
        "latitude": 10.82734,
        "longitude": 106.62245,
        "address": "Công Ty TNHH Bình Hy, Hẻm 35 Phan Văn Hớn, Phường Tân Thới Nhất, Quận 12, Hồ Chí Minh, Việt Nam",
        "country_code": "VNM",
        "country_name": "Việt Nam",
        "city": "Hồ Chí Minh",
        "district": "Quận 12",
        "ward": "Phường Tân Thới Nhất",
        "street": "Hẻm 35 Phan Văn Hớn",
        "postal_code": "71510",
        "categories": [
            {
                "name": "Doanh nghiệp"
            }
        ]
    },
    {
        "name": "Đồng Shop Sun-Chi Nhánh Quận 12",
        "latitude": 10.82801,
        "longitude": 106.62444,
        "address": "Đồng Shop Sun-Chi Nhánh Quận 12, Đường Trường Chinh, Phường Tân Thới Nhất, Quận 12, Hồ Chí Minh, Việt Nam",
        "country_code": "VNM",
        "country_name": "Việt Nam",
        "city": "Hồ Chí Minh",
        "district": "Quận 12",
        "ward": "Phường Tân Thới Nhất",
        "street": "Đường Trường Chinh",
        "postal_code": "71510",
        "categories": [
            {
                "name": "Doanh nghiệp"
            }
        ]
    },
    {
        "name": "Địa Điểm Kinh Doanh Vascara Trường Chinh",
        "latitude": 10.82803,
        "longitude": 106.62444,
        "address": "Địa Điểm Kinh Doanh Vascara Trường Chinh, 71 Đường Trường Chinh, Phường Tân Thới Nhất, Quận 12, Hồ Chí Minh, Việt Nam",
        "country_code": "VNM",
        "country_name": "Việt Nam",
        "city": "Hồ Chí Minh",
        "district": "Quận 12",
        "ward": "Phường Tân Thới Nhất",
        "street": "Đường Trường Chinh",
        "postal_code": "71510",
        "categories": [
            {
                "name": "Doanh nghiệp"
            }
        ]
    },
    {
        "name": "Công Ty TNHH SX TM Hoàng Vân",
        "latitude": 10.82572,
        "longitude": 106.62119,
        "address": "Công Ty TNHH SX TM Hoàng Vân, Đường Tân Thới Nhất 17, Phường Tân Thới Nhất, Quận 12, Hồ Chí Minh, Việt Nam",
        "country_code": "VNM",
        "country_name": "Việt Nam",
        "city": "Hồ Chí Minh",
        "district": "Quận 12",
        "ward": "Phường Tân Thới Nhất",
        "street": "Đường Tân Thới Nhất 17",
        "postal_code": "71510",
        "categories": [
            {
                "name": "Doanh nghiệp"
            }
        ]
    },
    {
        "name": "Công Ty TNHH Một Thành Viên Ngân Trúc",
        "latitude": 10.82772,
        "longitude": 106.62297,
        "address": "Công Ty TNHH Một Thành Viên Ngân Trúc, Đường Phan Văn Hớn, Phường Tân Thới Nhất, Quận 12, Hồ Chí Minh, Việt Nam",
        "country_code": "VNM",
        "country_name": "Việt Nam",
        "city": "Hồ Chí Minh",
        "district": "Quận 12",
        "ward": "Phường Tân Thới Nhất",
        "street": "Đường Phan Văn Hớn",
        "postal_code": "71510",
        "categories": [
            {
                "name": "Doanh nghiệp"
            }
        ]
    },
    {
        "name": "Cơ Sở Ruby",
        "latitude": 10.82809,
        "longitude": 106.62486,
        "address": "Cơ Sở Ruby, Đường Trường Chinh, Phường Tân Hưng Thuận, Quận 12, Hồ Chí Minh, Việt Nam",
        "country_code": "VNM",
        "country_name": "Việt Nam",
        "city": "Hồ Chí Minh",
        "district": "Quận 12",
        "ward": "Phường Tân Hưng Thuận",
        "street": "Đường Trường Chinh",
        "postal_code": "71509",
        "categories": [
            {
                "name": "Doanh nghiệp"
            }
        ]
    },
    {
        "name": "Cty Cổ Phần SX TM TP Kat",
        "latitude": 10.82447,
        "longitude": 106.62095,
        "address": "Cty Cổ Phần SX TM TP Kat, Đường Tân Thới Nhất 17, Phường Tân Thới Nhất, Quận 12, Hồ Chí Minh, Việt Nam",
        "country_code": "VNM",
        "country_name": "Việt Nam",
        "city": "Hồ Chí Minh",
        "district": "Quận 12",
        "ward": "Phường Tân Thới Nhất",
        "street": "Đường Tân Thới Nhất 17",
        "postal_code": "71510",
        "categories": [
            {
                "name": "Doanh nghiệp"
            }
        ]
    },
    {
        "name": "Công Ty TNHH Sài Gòn Com",
        "latitude": 10.82763,
        "longitude": 106.62265,
        "address": "Công Ty TNHH Sài Gòn Com, Đường Phan Văn Hớn, Phường Tân Thới Nhất, Quận 12, Hồ Chí Minh, Việt Nam",
        "country_code": "VNM",
        "country_name": "Việt Nam",
        "city": "Hồ Chí Minh",
        "district": "Quận 12",
        "ward": "Phường Tân Thới Nhất",
        "street": "Đường Phan Văn Hớn",
        "postal_code": "71510",
        "categories": [
            {
                "name": "Doanh nghiệp"
            }
        ]
    },
    {
        "name": "Nhóm Nấu Ăn Liên Dung",
        "latitude": 10.82763,
        "longitude": 106.62265,
        "address": "Nhóm Nấu Ăn Liên Dung, Đường Phan Văn Hớn, Phường Tân Thới Nhất, Quận 12, Hồ Chí Minh, Việt Nam",
        "country_code": "VNM",
        "country_name": "Việt Nam",
        "city": "Hồ Chí Minh",
        "district": "Quận 12",
        "ward": "Phường Tân Thới Nhất",
        "street": "Đường Phan Văn Hớn",
        "postal_code": "71510",
        "categories": [
            {
                "name": "Doanh nghiệp"
            }
        ]
    },
    {
        "name": "Công Ty TNHH Cartina Enterprises Việt Nam",
        "latitude": 10.82763,
        "longitude": 106.62265,
        "address": "Công Ty TNHH Cartina Enterprises Việt Nam, Đường Phan Văn Hớn, Phường Tân Thới Nhất, Quận 12, Hồ Chí Minh, Việt Nam",
        "country_code": "VNM",
        "country_name": "Việt Nam",
        "city": "Hồ Chí Minh",
        "district": "Quận 12",
        "ward": "Phường Tân Thới Nhất",
        "street": "Đường Phan Văn Hớn",
        "postal_code": "71510",
        "categories": [
            {
                "name": "Doanh nghiệp"
            }
        ]
    },
    {
        "name": "Đại Lý Vé Số Thần Tài",
        "latitude": 10.82776,
        "longitude": 106.62288,
        "address": "Đại Lý Vé Số Thần Tài, Đường Phan Văn Hớn, Phường Tân Thới Nhất, Quận 12, Hồ Chí Minh, Việt Nam",
        "country_code": "VNM",
        "country_name": "Việt Nam",
        "city": "Hồ Chí Minh",
        "district": "Quận 12",
        "ward": "Phường Tân Thới Nhất",
        "street": "Đường Phan Văn Hớn",
        "postal_code": "71510",
        "categories": [
            {
                "name": "Doanh nghiệp"
            }
        ]
    },
    {
        "name": "Công Ty TNHH Bao Bì Giấy Hợp Thành",
        "latitude": 10.82735,
        "longitude": 106.62221,
        "address": "Công Ty TNHH Bao Bì Giấy Hợp Thành, Đường Phan Văn Hớn, Phường Tân Thới Nhất, Quận 12, Hồ Chí Minh, Việt Nam",
        "country_code": "VNM",
        "country_name": "Việt Nam",
        "city": "Hồ Chí Minh",
        "district": "Quận 12",
        "ward": "Phường Tân Thới Nhất",
        "street": "Đường Phan Văn Hớn",
        "postal_code": "71510",
        "categories": [
            {
                "name": "Doanh nghiệp"
            }
        ]
    },
    {
        "name": "Đại Lý Nước Tinh Khiết Aqua Fresh",
        "latitude": 10.82152,
        "longitude": 106.6228,
        "address": "Đại Lý Nước Tinh Khiết Aqua Fresh, Đường D3, Phường Tân Thới Nhất, Quận 12, Hồ Chí Minh, Việt Nam",
        "country_code": "VNM",
        "country_name": "Việt Nam",
        "city": "Hồ Chí Minh",
        "district": "Quận 12",
        "ward": "Phường Tân Thới Nhất",
        "street": "Đường D3",
        "postal_code": "71510",
        "categories": [
            {
                "name": "Doanh nghiệp"
            }
        ]
    },
    {
        "name": "Công Ty TNHH Thương Mại Tâm Đạt",
        "latitude": 10.82558,
        "longitude": 106.62103,
        "address": "Công Ty TNHH Thương Mại Tâm Đạt, Đường Tân Thới Nhất 17, Phường Tân Thới Nhất, Quận 12, Hồ Chí Minh, Việt Nam",
        "country_code": "VNM",
        "country_name": "Việt Nam",
        "city": "Hồ Chí Minh",
        "district": "Quận 12",
        "ward": "Phường Tân Thới Nhất",
        "street": "Đường Tân Thới Nhất 17",
        "postal_code": "71510",
        "categories": [
            {
                "name": "Doanh nghiệp"
            }
        ]
    },
    {
        "name": "Vati Group",
        "latitude": 10.82598,
        "longitude": 106.62115,
        "address": "Vati Group, Đường Tân Thới Nhất 17, Phường Tân Thới Nhất, Quận 12, Hồ Chí Minh, Việt Nam",
        "country_code": "VNM",
        "country_name": "Việt Nam",
        "city": "Hồ Chí Minh",
        "district": "Quận 12",
        "ward": "Phường Tân Thới Nhất",
        "street": "Đường Tân Thới Nhất 17",
        "postal_code": "71510",
        "categories": [
            {
                "name": "Doanh nghiệp"
            }
        ]
    },
    {
        "name": "Công Ty TNHH TM & DV Thế Kỷ Vàng",
        "latitude": 10.82379,
        "longitude": 106.62098,
        "address": "Công Ty TNHH TM & DV Thế Kỷ Vàng, Đường Tân Thới Nhất 17, Phường Tân Thới Nhất, Quận 12, Hồ Chí Minh, Việt Nam",
        "country_code": "VNM",
        "country_name": "Việt Nam",
        "city": "Hồ Chí Minh",
        "district": "Quận 12",
        "ward": "Phường Tân Thới Nhất",
        "street": "Đường Tân Thới Nhất 17",
        "postal_code": "71510",
        "categories": [
            {
                "name": "Doanh nghiệp"
            }
        ]
    },
    {
        "name": "Công Ty TNHH Suryle Việt Nam",
        "latitude": 10.82583,
        "longitude": 106.62109,
        "address": "Công Ty TNHH Suryle Việt Nam, Đường Tân Thới Nhất 17, Phường Tân Thới Nhất, Quận 12, Hồ Chí Minh, Việt Nam",
        "country_code": "VNM",
        "country_name": "Việt Nam",
        "city": "Hồ Chí Minh",
        "district": "Quận 12",
        "ward": "Phường Tân Thới Nhất",
        "street": "Đường Tân Thới Nhất 17",
        "postal_code": "71510",
        "categories": [
            {
                "name": "Doanh nghiệp"
            }
        ]
    },
    {
        "name": "Mt Corp Sun Times",
        "latitude": 10.82166,
        "longitude": 106.6225,
        "address": "Mt Corp Sun Times, 65 Đường Tân Thới Nhất 21, Phường Tân Thới Nhất, Quận 12, Hồ Chí Minh, Việt Nam",
        "country_code": "VNM",
        "country_name": "Việt Nam",
        "city": "Hồ Chí Minh",
        "district": "Quận 12",
        "ward": "Phường Tân Thới Nhất",
        "street": "Đường Tân Thới Nhất 21",
        "postal_code": "71510",
        "categories": [
            {
                "name": "Doanh nghiệp"
            }
        ]
    },
    {
        "name": "Dịch Vụ Nhà Đất",
        "latitude": 10.82779,
        "longitude": 106.62282,
        "address": "Dịch Vụ Nhà Đất, 50 Đường Phan Văn Hớn, Phường Tân Thới Nhất, Quận 12, Hồ Chí Minh, Việt Nam",
        "country_code": "VNM",
        "country_name": "Việt Nam",
        "city": "Hồ Chí Minh",
        "district": "Quận 12",
        "ward": "Phường Tân Thới Nhất",
        "street": "Đường Phan Văn Hớn",
        "postal_code": "71510",
        "categories": [
            {
                "name": "Doanh nghiệp"
            },
            {
                "name": "Phụ kiện nội thất và gia đình"
            },
            {
                "name": "Quản lý bất động sản"
            },
            {
                "name": "Hãng môi giới bất động sản"
            },
            {
                "name": "Sửa chữa hoặc bảo dưỡng ô tô"
            }
        ]
    },
    {
        "name": "Công Ty TNHH Xuất Nhập Khẩu Đức Lợi",
        "latitude": 10.82451,
        "longitude": 106.62085,
        "address": "Công Ty TNHH Xuất Nhập Khẩu Đức Lợi, Đường Tân Thới Nhất 17, Phường Tân Thới Nhất, Quận 12, Hồ Chí Minh, Việt Nam",
        "country_code": "VNM",
        "country_name": "Việt Nam",
        "city": "Hồ Chí Minh",
        "district": "Quận 12",
        "ward": "Phường Tân Thới Nhất",
        "street": "Đường Tân Thới Nhất 17",
        "postal_code": "71510",
        "categories": [
            {
                "name": "Doanh nghiệp"
            }
        ]
    },
    {
        "name": "Xưởng Cơ Khí Bách Khoa T.Q.T",
        "latitude": 10.82763,
        "longitude": 106.62247,
        "address": "Xưởng Cơ Khí Bách Khoa T.Q.T, Hẻm 35 Phan Văn Hớn, Phường Tân Thới Nhất, Quận 12, Hồ Chí Minh, Việt Nam",
        "country_code": "VNM",
        "country_name": "Việt Nam",
        "city": "Hồ Chí Minh",
        "district": "Quận 12",
        "ward": "Phường Tân Thới Nhất",
        "street": "Hẻm 35 Phan Văn Hớn",
        "postal_code": "71510",
        "categories": [
            {
                "name": "Doanh nghiệp"
            }
        ]
    },
    {
        "name": "Cty TNHH Đầu Tư TM XNK Hoàng Khang",
        "latitude": 10.82823,
        "longitude": 106.6243,
        "address": "Cty TNHH Đầu Tư TM XNK Hoàng Khang, Đường Trường Chinh, Phường Tân Thới Nhất, Quận 12, Hồ Chí Minh, Việt Nam",
        "country_code": "VNM",
        "country_name": "Việt Nam",
        "city": "Hồ Chí Minh",
        "district": "Quận 12",
        "ward": "Phường Tân Thới Nhất",
        "street": "Đường Trường Chinh",
        "postal_code": "71510",
        "categories": [
            {
                "name": "Doanh nghiệp"
            }
        ]
    }
]
