[
    {
        "name": "Dũng",
        "latitude": 10.82574,
        "longitude": 106.62648,
        "address": "Dũng, Đường Trường Chinh, Phường Tân Thới Nhất, Quận 12, Hồ Chí Minh, Việt Nam",
        "country_code": "VNM",
        "country_name": "Việt Nam",
        "city": "Hồ Chí Minh",
        "district": "Quận 12",
        "ward": "Phường Tân Thới Nhất",
        "street": "Đường Trường Chinh",
        "postal_code": "71510",
        "categories": [
            {
                "name": "Hãng cho thuê xe ô tô"
            }
        ]
    },
    {
        "name": "Điện Lạnh Quốc Dũng",
        "latitude": 10.82685,
        "longitude": 106.62612,
        "address": "Điện Lạnh Quốc Dũng, Đường Trường Chinh, Phường Tân Hưng Thuận, Quận 12, Hồ Chí Minh, Việt Nam",
        "country_code": "VNM",
        "country_name": "Việt Nam",
        "city": "Hồ Chí Minh",
        "district": "Quận 12",
        "ward": "Phường Tân Hưng Thuận",
        "street": "Đường Trường Chinh",
        "postal_code": "71509",
        "categories": [
            {
                "name": "Cửa hàng chuyên dụng"
            },
            {
                "name": "Cửa hàng điện tử gia dụng"
            },
            {
                "name": "Cửa hàng phần cứng hoặc trung tâm DIY"
            },
            {
                "name": "Dụng cụ sơn và trang trí"
            },
            {
                "name": "Dụng cụ văn phòng và dịch vụ"
            },
            {
                "name": "Cửa hàng tóc thời trang"
            },
            {
                "name": "Hãng cho thuê xe ô tô"
            }
        ]
    },
    {
        "name": "Dịch Vụ Cho Thuê Xe Nhật",
        "latitude": 10.82785,
        "longitude": 106.62502,
        "address": "Dịch Vụ Cho Thuê Xe Nhật, Đường Trường Chinh, Phường Tân Hưng Thuận, Quận 12, Hồ Chí Minh, Việt Nam",
        "country_code": "VNM",
        "country_name": "Việt Nam",
        "city": "Hồ Chí Minh",
        "district": "Quận 12",
        "ward": "Phường Tân Hưng Thuận",
        "street": "Đường Trường Chinh",
        "postal_code": "71509",
        "categories": [
            {
                "name": "Hãng cho thuê xe ô tô"
            }
        ]
    },
    {
        "name": "Dịch Vụ Cho Thuê Xe Dũng",
        "latitude": 10.82813,
        "longitude": 106.62498,
        "address": "Dịch Vụ Cho Thuê Xe Dũng, Đường Trường Chinh, Phường Tân Hưng Thuận, Quận 12, Hồ Chí Minh, Việt Nam",
        "country_code": "VNM",
        "country_name": "Việt Nam",
        "city": "Hồ Chí Minh",
        "district": "Quận 12",
        "ward": "Phường Tân Hưng Thuận",
        "street": "Đường Trường Chinh",
        "postal_code": "71509",
        "categories": [
            {
                "name": "Hãng cho thuê xe ô tô"
            }
        ]
    },
    {
        "name": "Công Ty TNHH DV DL VT Quỳnh Lam",
        "latitude": 10.82093,
        "longitude": 106.62306,
        "address": "Công Ty TNHH DV DL VT Quỳnh Lam, G19 Đường D3, Phường Tân Thới Nhất, Quận 12, Hồ Chí Minh, Việt Nam",
        "country_code": "VNM",
        "country_name": "Việt Nam",
        "city": "Hồ Chí Minh",
        "district": "Quận 12",
        "ward": "Phường Tân Thới Nhất",
        "street": "Đường D3",
        "postal_code": "71510",
        "categories": [
            {
                "name": "Hãng cho thuê xe ô tô"
            }
        ]
    },
    {
        "name": "Cho Thuê Xe Du Lịch Hoàng Long",
        "latitude": 10.82782,
        "longitude": 106.62133,
        "address": "Cho Thuê Xe Du Lịch Hoàng Long, Đường Phan Văn Hớn, Phường Tân Thới Nhất, Quận 12, Hồ Chí Minh, Việt Nam",
        "country_code": "VNM",
        "country_name": "Việt Nam",
        "city": "Hồ Chí Minh",
        "district": "Quận 12",
        "ward": "Phường Tân Thới Nhất",
        "street": "Đường Phan Văn Hớn",
        "postal_code": "71510",
        "categories": [
            {
                "name": "Hãng cho thuê xe ô tô"
            }
        ]
    },
    {
        "name": "DNTN Thiên Mi",
        "latitude": 10.82808,
        "longitude": 106.62134,
        "address": "DNTN Thiên Mi, 90 Đường Phan Văn Hớn, Phường Tân Thới Nhất, Quận 12, Hồ Chí Minh, Việt Nam",
        "country_code": "VNM",
        "country_name": "Việt Nam",
        "city": "Hồ Chí Minh",
        "district": "Quận 12",
        "ward": "Phường Tân Thới Nhất",
        "street": "Đường Phan Văn Hớn",
        "postal_code": "71510",
        "categories": [
            {
                "name": "Hãng cho thuê xe ô tô"
            }
        ]
    },
    {
        "name": "Quang Tuấn",
        "latitude": 10.82373,
        "longitude": 106.62985,
        "address": "Quang Tuấn, Đường Phan Huy Ích, Phường 15, Quận Tân Bình, Hồ Chí Minh, Việt Nam",
        "country_code": "VNM",
        "country_name": "Việt Nam",
        "city": "Hồ Chí Minh",
        "district": "Quận Tân Bình",
        "ward": "Phường 15",
        "street": "Đường Phan Huy Ích",
        "postal_code": "72109",
        "categories": [
            {
                "name": "Hãng cho thuê xe ô tô"
            }
        ]
    },
    {
        "name": "Dịch Vụ Cho Thuê Xe",
        "latitude": 10.82118,
        "longitude": 106.6307,
        "address": "Dịch Vụ Cho Thuê Xe, 894 Đường Trường Chinh, Phường 15, Quận Tân Bình, Hồ Chí Minh, Việt Nam",
        "country_code": "VNM",
        "country_name": "Việt Nam",
        "city": "Hồ Chí Minh",
        "district": "Quận Tân Bình",
        "ward": "Phường 15",
        "street": "Đường Trường Chinh",
        "postal_code": "72109",
        "categories": [
            {
                "name": "Hãng cho thuê xe ô tô"
            }
        ]
    },
    {
        "name": "Cho Thuê Xe Hải Triều",
        "latitude": 10.82253,
        "longitude": 106.63194,
        "address": "Cho Thuê Xe Hải Triều, Đường Nguyễn Phúc Chu, Phường 15, Quận Tân Bình, Hồ Chí Minh, Việt Nam",
        "country_code": "VNM",
        "country_name": "Việt Nam",
        "city": "Hồ Chí Minh",
        "district": "Quận Tân Bình",
        "ward": "Phường 15",
        "street": "Đường Nguyễn Phúc Chu",
        "postal_code": "72109",
        "categories": [
            {
                "name": "Hãng cho thuê xe ô tô"
            }
        ]
    },
    {
        "name": "Dịch Vụ Du Lịch Quốc Tuấn",
        "latitude": 10.8278,
        "longitude": 106.63191,
        "address": "Dịch Vụ Du Lịch Quốc Tuấn, Đường Phan Huy Ích, Phường 15, Quận Tân Bình, Hồ Chí Minh, Việt Nam",
        "country_code": "VNM",
        "country_name": "Việt Nam",
        "city": "Hồ Chí Minh",
        "district": "Quận Tân Bình",
        "ward": "Phường 15",
        "street": "Đường Phan Huy Ích",
        "postal_code": "72109",
        "categories": [
            {
                "name": "Hãng cho thuê xe ô tô"
            }
        ]
    },
    {
        "name": "Dịch Vụ Du Lịch Thanh Liêm",
        "latitude": 10.83233,
        "longitude": 106.62213,
        "address": "Dịch Vụ Du Lịch Thanh Liêm, Đường Trường Chinh, Phường Tân Hưng Thuận, Quận 12, Hồ Chí Minh, Việt Nam",
        "country_code": "VNM",
        "country_name": "Việt Nam",
        "city": "Hồ Chí Minh",
        "district": "Quận 12",
        "ward": "Phường Tân Hưng Thuận",
        "street": "Đường Trường Chinh",
        "postal_code": "71509",
        "categories": [
            {
                "name": "Hãng cho thuê xe ô tô"
            }
        ]
    },
    {
        "name": "Cho Thuê Xe",
        "latitude": 10.83206,
        "longitude": 106.62783,
        "address": "Cho Thuê Xe, Đường Nguyễn Văn Quá, Phường Đông Hưng Thuận, Quận 12, Hồ Chí Minh, Việt Nam",
        "country_code": "VNM",
        "country_name": "Việt Nam",
        "city": "Hồ Chí Minh",
        "district": "Quận 12",
        "ward": "Phường Đông Hưng Thuận",
        "street": "Đường Nguyễn Văn Quá",
        "postal_code": "71508",
        "categories": [
            {
                "name": "Hãng cho thuê xe ô tô"
            }
        ]
    },
    {
        "name": "Cho Thuê Xe Hợp Đồng",
        "latitude": 10.83213,
        "longitude": 106.61954,
        "address": "Cho Thuê Xe Hợp Đồng, Đường TTN 13, Phường Tân Thới Nhất, Quận 12, Hồ Chí Minh, Việt Nam",
        "country_code": "VNM",
        "country_name": "Việt Nam",
        "city": "Hồ Chí Minh",
        "district": "Quận 12",
        "ward": "Phường Tân Thới Nhất",
        "street": "Đường TTN 13",
        "postal_code": "71510",
        "categories": [
            {
                "name": "Hãng cho thuê xe ô tô"
            }
        ]
    },
    {
        "name": "Dịch Vụ Du Lịch",
        "latitude": 10.83281,
        "longitude": 106.62064,
        "address": "Dịch Vụ Du Lịch, Hẻm 15 Đường Tân Thới Nhất 13, Phường Tân Thới Nhất, Quận 12, Hồ Chí Minh, Việt Nam",
        "country_code": "VNM",
        "country_name": "Việt Nam",
        "city": "Hồ Chí Minh",
        "district": "Quận 12",
        "ward": "Phường Tân Thới Nhất",
        "street": "Hẻm 15 Đường Tân Thới Nhất 13",
        "postal_code": "71510",
        "categories": [
            {
                "name": "Hãng cho thuê xe ô tô"
            }
        ]
    },
    {
        "name": "Phương Dung",
        "latitude": 10.82952,
        "longitude": 106.61534,
        "address": "Phương Dung, 199 Đường Phan Văn Hớn, Phường Tân Thới Nhất, Quận 12, Hồ Chí Minh, Việt Nam",
        "country_code": "VNM",
        "country_name": "Việt Nam",
        "city": "Hồ Chí Minh",
        "district": "Quận 12",
        "ward": "Phường Tân Thới Nhất",
        "street": "Đường Phan Văn Hớn",
        "postal_code": "71510",
        "categories": [
            {
                "name": "Hãng cho thuê xe ô tô"
            }
        ]
    },
    {
        "name": "Cty TNHH DV TM Vận Tải Mỹ Hoàn",
        "latitude": 10.83559,
        "longitude": 106.62407,
        "address": "Cty TNHH DV TM Vận Tải Mỹ Hoàn, Đường Đông Hưng Thuận 6, Phường Tân Hưng Thuận, Quận 12, Hồ Chí Minh, Việt Nam",
        "country_code": "VNM",
        "country_name": "Việt Nam",
        "city": "Hồ Chí Minh",
        "district": "Quận 12",
        "ward": "Phường Tân Hưng Thuận",
        "street": "Đường Đông Hưng Thuận 6",
        "postal_code": "71509",
        "categories": [
            {
                "name": "Hãng cho thuê xe ô tô"
            }
        ]
    },
    {
        "name": "Dịch Vụ Xe Du Lịch 4 - 7 Chỗ",
        "latitude": 10.83528,
        "longitude": 106.62162,
        "address": "Dịch Vụ Xe Du Lịch 4 - 7 Chỗ, Đường Đông Hưng Thuận 40, Phường Tân Hưng Thuận, Quận 12, Hồ Chí Minh, Việt Nam",
        "country_code": "VNM",
        "country_name": "Việt Nam",
        "city": "Hồ Chí Minh",
        "district": "Quận 12",
        "ward": "Phường Tân Hưng Thuận",
        "street": "Đường Đông Hưng Thuận 40",
        "postal_code": "71509",
        "categories": [
            {
                "name": "Hãng cho thuê xe ô tô"
            }
        ]
    },
    {
        "name": "A.Phong",
        "latitude": 10.83139,
        "longitude": 106.63352,
        "address": "A.Phong, 118 Đường Phan Huy Ích, Phường 15, Quận Tân Bình, Hồ Chí Minh, Việt Nam",
        "country_code": "VNM",
        "country_name": "Việt Nam",
        "city": "Hồ Chí Minh",
        "district": "Quận Tân Bình",
        "ward": "Phường 15",
        "street": "Đường Phan Huy Ích",
        "postal_code": "72109",
        "categories": [
            {
                "name": "Hãng cho thuê xe ô tô"
            }
        ]
    },
    {
        "name": "Tổ Chức Tour Cho Thuê Xe",
        "latitude": 10.83137,
        "longitude": 106.61515,
        "address": "Tổ Chức Tour Cho Thuê Xe, Đường TTN 1, Phường Tân Thới Nhất, Quận 12, Hồ Chí Minh, Việt Nam",
        "country_code": "VNM",
        "country_name": "Việt Nam",
        "city": "Hồ Chí Minh",
        "district": "Quận 12",
        "ward": "Phường Tân Thới Nhất",
        "street": "Đường TTN 1",
        "postal_code": "71510",
        "categories": [
            {
                "name": "Hãng cho thuê xe ô tô"
            }
        ]
    },
    {
        "name": "Nhật",
        "latitude": 10.83553,
        "longitude": 106.62001,
        "address": "Nhật, 464 Đường Trường Chinh, Phường Tân Hưng Thuận, Quận 12, Hồ Chí Minh, Việt Nam",
        "country_code": "VNM",
        "country_name": "Việt Nam",
        "city": "Hồ Chí Minh",
        "district": "Quận 12",
        "ward": "Phường Tân Hưng Thuận",
        "street": "Đường Trường Chinh",
        "postal_code": "71509",
        "categories": [
            {
                "name": "Hãng cho thuê xe ô tô"
            }
        ]
    },
    {
        "name": "Kim Vĩnh Phát",
        "latitude": 10.83554,
        "longitude": 106.61948,
        "address": "Kim Vĩnh Phát, Đường Trường Chinh, Phường Tân Thới Nhất, Quận 12, Hồ Chí Minh, Việt Nam",
        "country_code": "VNM",
        "country_name": "Việt Nam",
        "city": "Hồ Chí Minh",
        "district": "Quận 12",
        "ward": "Phường Tân Thới Nhất",
        "street": "Đường Trường Chinh",
        "postal_code": "71510",
        "categories": [
            {
                "name": "Hãng cho thuê xe ô tô"
            }
        ]
    },
    {
        "name": "Dịch Vụ Du Lịch",
        "latitude": 10.81276,
        "longitude": 106.6224,
        "address": "Dịch Vụ Du Lịch, 229 Đường Tây Thạnh, Phường Tây Thạnh, Quận Tân Phú, Hồ Chí Minh, Việt Nam",
        "country_code": "VNM",
        "country_name": "Việt Nam",
        "city": "Hồ Chí Minh",
        "district": "Quận Tân Phú",
        "ward": "Phường Tây Thạnh",
        "street": "Đường Tây Thạnh",
        "postal_code": "72009",
        "categories": [
            {
                "name": "Hãng cho thuê xe ô tô"
            }
        ]
    },
    {
        "name": "Cho Thuê Xe Du Lịch Thuận Hòa",
        "latitude": 10.83712,
        "longitude": 106.61852,
        "address": "Cho Thuê Xe Du Lịch Thuận Hòa, Đường Trường Chinh, Phường Tân Thới Nhất, Quận 12, Hồ Chí Minh, Việt Nam",
        "country_code": "VNM",
        "country_name": "Việt Nam",
        "city": "Hồ Chí Minh",
        "district": "Quận 12",
        "ward": "Phường Tân Thới Nhất",
        "street": "Đường Trường Chinh",
        "postal_code": "71510",
        "categories": [
            {
                "name": "Hãng cho thuê xe ô tô"
            }
        ]
    },
    {
        "name": "Thủy Hà Linh",
        "latitude": 10.83867,
        "longitude": 106.62616,
        "address": "Thủy Hà Linh, 26 Đường DD5, Phường Tân Hưng Thuận, Quận 12, Hồ Chí Minh, Việt Nam",
        "country_code": "VNM",
        "country_name": "Việt Nam",
        "city": "Hồ Chí Minh",
        "district": "Quận 12",
        "ward": "Phường Tân Hưng Thuận",
        "street": "Đường DD5",
        "postal_code": "71509",
        "categories": [
            {
                "name": "Hãng cho thuê xe ô tô"
            }
        ]
    },
    {
        "name": "Cho Thuê Xe Tự Lái",
        "latitude": 10.83005,
        "longitude": 106.63786,
        "address": "Cho Thuê Xe Tự Lái, 80 Đường Huỳnh Văn Nghệ, Phường 15, Quận Tân Bình, Hồ Chí Minh, Việt Nam",
        "country_code": "VNM",
        "country_name": "Việt Nam",
        "city": "Hồ Chí Minh",
        "district": "Quận Tân Bình",
        "ward": "Phường 15",
        "street": "Đường Huỳnh Văn Nghệ",
        "postal_code": "72109",
        "categories": [
            {
                "name": "Hãng cho thuê xe ô tô"
            }
        ]
    },
    {
        "name": "Công Ty Du Lịch Gia Vũ",
        "latitude": 10.8184,
        "longitude": 106.63756,
        "address": "Công Ty Du Lịch Gia Vũ, Đường Phạm Văn Bạch, Phường 15, Quận Tân Bình, Hồ Chí Minh, Việt Nam",
        "country_code": "VNM",
        "country_name": "Việt Nam",
        "city": "Hồ Chí Minh",
        "district": "Quận Tân Bình",
        "ward": "Phường 15",
        "street": "Đường Phạm Văn Bạch",
        "postal_code": "72109",
        "categories": [
            {
                "name": "Hãng cho thuê xe ô tô"
            }
        ]
    },
    {
        "name": "Vinh Hiển",
        "latitude": 10.81243,
        "longitude": 106.63207,
        "address": "Vinh Hiển, 27 Đường Chế Lan Viên, Phường Tây Thạnh, Quận Tân Phú, Hồ Chí Minh, Việt Nam",
        "country_code": "VNM",
        "country_name": "Việt Nam",
        "city": "Hồ Chí Minh",
        "district": "Quận Tân Phú",
        "ward": "Phường Tây Thạnh",
        "street": "Đường Chế Lan Viên",
        "postal_code": "72009",
        "categories": [
            {
                "name": "Hãng cho thuê xe ô tô"
            },
            {
                "name": "Đại lý du lịch & Vé"
            }
        ]
    },
    {
        "name": "Dịch Vụ Du Lịch Minh Hiền",
        "latitude": 10.81243,
        "longitude": 106.63214,
        "address": "Dịch Vụ Du Lịch Minh Hiền, Đường Chế Lan Viên, Phường Tây Thạnh, Quận Tân Phú, Hồ Chí Minh, Việt Nam",
        "country_code": "VNM",
        "country_name": "Việt Nam",
        "city": "Hồ Chí Minh",
        "district": "Quận Tân Phú",
        "ward": "Phường Tây Thạnh",
        "street": "Đường Chế Lan Viên",
        "postal_code": "72009",
        "categories": [
            {
                "name": "Hãng cho thuê xe ô tô"
            }
        ]
    },
    {
        "name": "Dịch Vụ Du Lịch Văn Cảnh",
        "latitude": 10.81074,
        "longitude": 106.62004,
        "address": "Dịch Vụ Du Lịch Văn Cảnh, Đường Tây Thạnh, Phường Tây Thạnh, Quận Tân Phú, Hồ Chí Minh, Việt Nam",
        "country_code": "VNM",
        "country_name": "Việt Nam",
        "city": "Hồ Chí Minh",
        "district": "Quận Tân Phú",
        "ward": "Phường Tây Thạnh",
        "street": "Đường Tây Thạnh",
        "postal_code": "72009",
        "categories": [
            {
                "name": "Hãng cho thuê xe ô tô"
            }
        ]
    },
    {
        "name": "Công Ty Cổ Phần Vận Tải Thương Mại Xây Dựng Hiệp Long",
        "latitude": 10.82403,
        "longitude": 106.6398,
        "address": "Công Ty Cổ Phần Vận Tải Thương Mại Xây Dựng Hiệp Long, Đường Phạm Văn Bạch, Phường 15, Quận Tân Bình, Hồ Chí Minh, Việt Nam",
        "country_code": "VNM",
        "country_name": "Việt Nam",
        "city": "Hồ Chí Minh",
        "district": "Quận Tân Bình",
        "ward": "Phường 15",
        "street": "Đường Phạm Văn Bạch",
        "postal_code": "72109",
        "categories": [
            {
                "name": "Hãng cho thuê xe ô tô"
            }
        ]
    },
    {
        "name": "Dịch Vụ Hiền Tâm",
        "latitude": 10.80742,
        "longitude": 106.62589,
        "address": "Dịch Vụ Hiền Tâm, Đường Nguyễn Hữu Tiến, Phường Tây Thạnh, Quận Tân Phú, Hồ Chí Minh, Việt Nam",
        "country_code": "VNM",
        "country_name": "Việt Nam",
        "city": "Hồ Chí Minh",
        "district": "Quận Tân Phú",
        "ward": "Phường Tây Thạnh",
        "street": "Đường Nguyễn Hữu Tiến",
        "postal_code": "72009",
        "categories": [
            {
                "name": "Hãng cho thuê xe ô tô"
            }
        ]
    },
    {
        "name": "Triều Gia",
        "latitude": 10.84134,
        "longitude": 106.6195,
        "address": "Triều Gia, Đường Song Hành QL 22, Phường Tân Hưng Thuận, Quận 12, Hồ Chí Minh, Việt Nam",
        "country_code": "VNM",
        "country_name": "Việt Nam",
        "city": "Hồ Chí Minh",
        "district": "Quận 12",
        "ward": "Phường Tân Hưng Thuận",
        "street": "Đường Song Hành QL 22",
        "postal_code": "71509",
        "categories": [
            {
                "name": "Hãng cho thuê xe ô tô"
            }
        ]
    },
    {
        "name": "Cho Thuê Xe Du Lịch",
        "latitude": 10.80607,
        "longitude": 106.6279,
        "address": "Cho Thuê Xe Du Lịch, 139 Đường Lê Trọng Tấn, Phường Sơn Kỳ, Quận Tân Phú, Hồ Chí Minh, Việt Nam",
        "country_code": "VNM",
        "country_name": "Việt Nam",
        "city": "Hồ Chí Minh",
        "district": "Quận Tân Phú",
        "ward": "Phường Sơn Kỳ",
        "street": "Đường Lê Trọng Tấn",
        "postal_code": "72010",
        "categories": [
            {
                "name": "Hãng cho thuê xe ô tô"
            }
        ]
    },
    {
        "name": "Quang Cho Thuê Xe Du Lịch Tham Quan Cưới Hỏi",
        "latitude": 10.81181,
        "longitude": 106.61006,
        "address": "Quang Cho Thuê Xe Du Lịch Tham Quan Cưới Hỏi, Đường Lê Trọng Tấn, Phường Tây Thạnh, Quận Tân Phú, Hồ Chí Minh, Việt Nam",
        "country_code": "VNM",
        "country_name": "Việt Nam",
        "city": "Hồ Chí Minh",
        "district": "Quận Tân Phú",
        "ward": "Phường Tây Thạnh",
        "street": "Đường Lê Trọng Tấn",
        "postal_code": "72009",
        "categories": [
            {
                "name": "Hãng cho thuê xe ô tô"
            }
        ]
    },
    {
        "name": "Dịch Vụ Cho Thuê Xe Đời Mới Thùy My",
        "latitude": 10.81803,
        "longitude": 106.60616,
        "address": "Dịch Vụ Cho Thuê Xe Đời Mới Thùy My, Đường Phạm Đăng Giảng, Phường Bình Hưng Hòa, Quận Bình Tân, Hồ Chí Minh, Việt Nam",
        "country_code": "VNM",
        "country_name": "Việt Nam",
        "city": "Hồ Chí Minh",
        "district": "Quận Bình Tân",
        "ward": "Phường Bình Hưng Hòa",
        "street": "Đường Phạm Đăng Giảng",
        "postal_code": "71913",
        "categories": [
            {
                "name": "Hãng cho thuê xe ô tô"
            }
        ]
    },
    {
        "name": "Du Lịch Thành Công",
        "latitude": 10.8409,
        "longitude": 106.61307,
        "address": "Du Lịch Thành Công, QL.1A, Xã Bà Điểm, Huyện Hóc Môn, Hồ Chí Minh, Việt Nam",
        "country_code": "VNM",
        "country_name": "Việt Nam",
        "city": "Hồ Chí Minh",
        "district": "Huyện Hóc Môn",
        "ward": "Xã Bà Điểm",
        "street": "QL.1A",
        "postal_code": "71714",
        "categories": [
            {
                "name": "Hãng cho thuê xe ô tô"
            }
        ]
    },
    {
        "name": "Dịch Vụ Cho Thuê Xe Du Lịch Quang Khang",
        "latitude": 10.84208,
        "longitude": 106.61491,
        "address": "Dịch Vụ Cho Thuê Xe Du Lịch Quang Khang, 1A, Phường Tân Thới Nhất, Quận 12, Hồ Chí Minh, Việt Nam",
        "country_code": "VNM",
        "country_name": "Việt Nam",
        "city": "Hồ Chí Minh",
        "district": "Quận 12",
        "ward": "Phường Tân Thới Nhất",
        "street": "1A",
        "postal_code": "71510",
        "categories": [
            {
                "name": "Hãng cho thuê xe ô tô"
            }
        ]
    },
    {
        "name": "Dịch Vụ Du Lịch Nhật Bình",
        "latitude": 10.80475,
        "longitude": 106.63185,
        "address": "Dịch Vụ Du Lịch Nhật Bình, 24 Đường Lê Trọng Tấn, Phường Tây Thạnh, Quận Tân Phú, Hồ Chí Minh, Việt Nam",
        "country_code": "VNM",
        "country_name": "Việt Nam",
        "city": "Hồ Chí Minh",
        "district": "Quận Tân Phú",
        "ward": "Phường Tây Thạnh",
        "street": "Đường Lê Trọng Tấn",
        "postal_code": "72009",
        "categories": [
            {
                "name": "Dịch vụ vận chuyển"
            },
            {
                "name": "Đại lý du lịch & Vé"
            },
            {
                "name": "Hãng cho thuê xe ô tô"
            }
        ]
    },
    {
        "name": "Cho Thuê Xe Tuấn Tú",
        "latitude": 10.83555,
        "longitude": 106.64432,
        "address": "Cho Thuê Xe Tuấn Tú, Đường Phạm Văn Bạch, Phường 12, Quận Gò Vấp, Hồ Chí Minh, Việt Nam",
        "country_code": "VNM",
        "country_name": "Việt Nam",
        "city": "Hồ Chí Minh",
        "district": "Quận Gò Vấp",
        "ward": "Phường 12",
        "street": "Đường Phạm Văn Bạch",
        "postal_code": "71420",
        "categories": [
            {
                "name": "Hãng cho thuê xe ô tô"
            }
        ]
    },
    {
        "name": "Dịch Vụ Du Lịch Trọng Nghĩa",
        "latitude": 10.83663,
        "longitude": 106.64389,
        "address": "Dịch Vụ Du Lịch Trọng Nghĩa, Hẻm 745 Đường Quang Trung, Phường 12, Quận Gò Vấp, Hồ Chí Minh, Việt Nam",
        "country_code": "VNM",
        "country_name": "Việt Nam",
        "city": "Hồ Chí Minh",
        "district": "Quận Gò Vấp",
        "ward": "Phường 12",
        "street": "Hẻm 745 Đường Quang Trung",
        "postal_code": "71420",
        "categories": [
            {
                "name": "Hãng cho thuê xe ô tô"
            }
        ]
    },
    {
        "name": "Cho Thuê Xe Du Lịch",
        "latitude": 10.80218,
        "longitude": 106.62832,
        "address": "Cho Thuê Xe Du Lịch, Đường Nguyễn Quý Anh, Phường Tân Sơn Nhì, Quận Tân Phú, Hồ Chí Minh, Việt Nam",
        "country_code": "VNM",
        "country_name": "Việt Nam",
        "city": "Hồ Chí Minh",
        "district": "Quận Tân Phú",
        "ward": "Phường Tân Sơn Nhì",
        "street": "Đường Nguyễn Quý Anh",
        "postal_code": "72008",
        "categories": [
            {
                "name": "Hãng cho thuê xe ô tô"
            }
        ]
    },
    {
        "name": "Trạm Thuê Xe Du Lịch Hà Nam",
        "latitude": 10.80537,
        "longitude": 106.63694,
        "address": "Trạm Thuê Xe Du Lịch Hà Nam, Đường Cộng Hòa, Phường 13, Quận Tân Bình, Hồ Chí Minh, Việt Nam",
        "country_code": "VNM",
        "country_name": "Việt Nam",
        "city": "Hồ Chí Minh",
        "district": "Quận Tân Bình",
        "ward": "Phường 13",
        "street": "Đường Cộng Hòa",
        "postal_code": "72110",
        "categories": [
            {
                "name": "Hãng cho thuê xe ô tô"
            }
        ]
    },
    {
        "name": "Dịch Vụ Cho Thuê Xe Du Lịch Hoàng Du",
        "latitude": 10.80537,
        "longitude": 106.63704,
        "address": "Dịch Vụ Cho Thuê Xe Du Lịch Hoàng Du, Đường Phan Văn Sửu, Phường 13, Quận Tân Bình, Hồ Chí Minh, Việt Nam",
        "country_code": "VNM",
        "country_name": "Việt Nam",
        "city": "Hồ Chí Minh",
        "district": "Quận Tân Bình",
        "ward": "Phường 13",
        "street": "Đường Phan Văn Sửu",
        "postal_code": "72110",
        "categories": [
            {
                "name": "Hãng cho thuê xe ô tô"
            }
        ]
    },
    {
        "name": "Thanh Tuấn",
        "latitude": 10.84745,
        "longitude": 106.62187,
        "address": "Thanh Tuấn, Quốc Lộ 1A, Phường Tân Hưng Thuận, Quận 12, Hồ Chí Minh, Việt Nam",
        "country_code": "VNM",
        "country_name": "Việt Nam",
        "city": "Hồ Chí Minh",
        "district": "Quận 12",
        "ward": "Phường Tân Hưng Thuận",
        "street": "Quốc Lộ 1A",
        "postal_code": "71509",
        "categories": [
            {
                "name": "Hãng cho thuê xe ô tô"
            }
        ]
    },
    {
        "name": "Htác Xã VT & DL Thiên Nam Long",
        "latitude": 10.80479,
        "longitude": 106.63734,
        "address": "Htác Xã VT & DL Thiên Nam Long, Đường Cộng Hòa, Phường 13, Quận Tân Bình, Hồ Chí Minh, Việt Nam",
        "country_code": "VNM",
        "country_name": "Việt Nam",
        "city": "Hồ Chí Minh",
        "district": "Quận Tân Bình",
        "ward": "Phường 13",
        "street": "Đường Cộng Hòa",
        "postal_code": "72110",
        "categories": [
            {
                "name": "Hãng cho thuê xe ô tô"
            }
        ]
    },
    {
        "name": "Tư Râu",
        "latitude": 10.80127,
        "longitude": 106.61974,
        "address": "Tư Râu, Đường Bờ Bao Tân Thắng, Phường Sơn Kỳ, Quận Tân Phú, Hồ Chí Minh, Việt Nam",
        "country_code": "VNM",
        "country_name": "Việt Nam",
        "city": "Hồ Chí Minh",
        "district": "Quận Tân Phú",
        "ward": "Phường Sơn Kỳ",
        "street": "Đường Bờ Bao Tân Thắng",
        "postal_code": "72010",
        "categories": [
            {
                "name": "Hãng cho thuê xe ô tô"
            }
        ]
    },
    {
        "name": "Trọng Hoan",
        "latitude": 10.80718,
        "longitude": 106.60793,
        "address": "Trọng Hoan, Đường CN1, Phường Sơn Kỳ, Quận Tân Phú, Hồ Chí Minh, Việt Nam",
        "country_code": "VNM",
        "country_name": "Việt Nam",
        "city": "Hồ Chí Minh",
        "district": "Quận Tân Phú",
        "ward": "Phường Sơn Kỳ",
        "street": "Đường CN1",
        "postal_code": "72010",
        "categories": [
            {
                "name": "Hãng cho thuê xe ô tô"
            }
        ]
    },
    {
        "name": "Cho Thuê Xe 4 8 16 29 45 Chỗ",
        "latitude": 10.84665,
        "longitude": 106.63425,
        "address": "Cho Thuê Xe 4 8 16 29 45 Chỗ, Đường Nguyễn Văn Quá, Phường Đông Hưng Thuận, Quận 12, Hồ Chí Minh, Việt Nam",
        "country_code": "VNM",
        "country_name": "Việt Nam",
        "city": "Hồ Chí Minh",
        "district": "Quận 12",
        "ward": "Phường Đông Hưng Thuận",
        "street": "Đường Nguyễn Văn Quá",
        "postal_code": "71508",
        "categories": [
            {
                "name": "Hãng cho thuê xe ô tô"
            }
        ]
    },
    {
        "name": "Dịch Vụ Thuê Xe Du Lịch Út Quẹo-Tám Công",
        "latitude": 10.8139,
        "longitude": 106.60207,
        "address": "Dịch Vụ Thuê Xe Du Lịch Út Quẹo-Tám Công, Đường Phạm Đăng Giảng, Phường Bình Hưng Hòa, Quận Bình Tân, Hồ Chí Minh, Việt Nam",
        "country_code": "VNM",
        "country_name": "Việt Nam",
        "city": "Hồ Chí Minh",
        "district": "Quận Bình Tân",
        "ward": "Phường Bình Hưng Hòa",
        "street": "Đường Phạm Đăng Giảng",
        "postal_code": "71913",
        "categories": [
            {
                "name": "Hãng cho thuê xe ô tô"
            }
        ]
    },
    {
        "name": "Dịch Vụ Cho Thuê Xe Du Lịch Quý Trang",
        "latitude": 10.8456,
        "longitude": 106.63787,
        "address": "Dịch Vụ Cho Thuê Xe Du Lịch Quý Trang, Đường Quang Trung, Phường 14, Quận Gò Vấp, Hồ Chí Minh, Việt Nam",
        "country_code": "VNM",
        "country_name": "Việt Nam",
        "city": "Hồ Chí Minh",
        "district": "Quận Gò Vấp",
        "ward": "Phường 14",
        "street": "Đường Quang Trung",
        "postal_code": "71418",
        "categories": [
            {
                "name": "Hãng cho thuê xe ô tô"
            }
        ]
    },
    {
        "name": "Dịch Vụ Cho Thuê Xe Du Lịch Huy Cường",
        "latitude": 10.84942,
        "longitude": 106.62581,
        "address": "Dịch Vụ Cho Thuê Xe Du Lịch Huy Cường, Quốc Lộ 1A, Phường Đông Hưng Thuận, Quận 12, Hồ Chí Minh, Việt Nam",
        "country_code": "VNM",
        "country_name": "Việt Nam",
        "city": "Hồ Chí Minh",
        "district": "Quận 12",
        "ward": "Phường Đông Hưng Thuận",
        "street": "Quốc Lộ 1A",
        "postal_code": "71508",
        "categories": [
            {
                "name": "Hãng cho thuê xe ô tô"
            }
        ]
    },
    {
        "name": "Cho Thuê Xe Du Lịch",
        "latitude": 10.84429,
        "longitude": 106.64002,
        "address": "Cho Thuê Xe Du Lịch, Đường Quang Trung, Phường 14, Quận Gò Vấp, Hồ Chí Minh, Việt Nam",
        "country_code": "VNM",
        "country_name": "Việt Nam",
        "city": "Hồ Chí Minh",
        "district": "Quận Gò Vấp",
        "ward": "Phường 14",
        "street": "Đường Quang Trung",
        "postal_code": "71418",
        "categories": [
            {
                "name": "Hãng cho thuê xe ô tô"
            },
            {
                "name": "Thông tin du khách"
            }
        ]
    },
    {
        "name": "Dịch Vụ Cho Thuê Xe Phương Thảo",
        "latitude": 10.80107,
        "longitude": 106.63313,
        "address": "Dịch Vụ Cho Thuê Xe Phương Thảo, Đường Tân Sơn Nhì, Phường Tân Sơn Nhì, Quận Tân Phú, Hồ Chí Minh, Việt Nam",
        "country_code": "VNM",
        "country_name": "Việt Nam",
        "city": "Hồ Chí Minh",
        "district": "Quận Tân Phú",
        "ward": "Phường Tân Sơn Nhì",
        "street": "Đường Tân Sơn Nhì",
        "postal_code": "72008",
        "categories": [
            {
                "name": "Hãng cho thuê xe ô tô"
            }
        ]
    },
    {
        "name": "Cho Thuê Xe Du Lịch",
        "latitude": 10.84685,
        "longitude": 106.61217,
        "address": "Cho Thuê Xe Du Lịch, Đường Bà Điểm 7A, Xã Bà Điểm, Huyện Hóc Môn, Hồ Chí Minh, Việt Nam",
        "country_code": "VNM",
        "country_name": "Việt Nam",
        "city": "Hồ Chí Minh",
        "district": "Huyện Hóc Môn",
        "ward": "Xã Bà Điểm",
        "street": "Đường Bà Điểm 7A",
        "postal_code": "71714",
        "categories": [
            {
                "name": "Hãng cho thuê xe ô tô"
            }
        ]
    },
    {
        "name": "Định",
        "latitude": 10.84455,
        "longitude": 106.6406,
        "address": "Định, Đường Phạm Văn Chiêu, Phường 8, Quận Gò Vấp, Hồ Chí Minh, Việt Nam",
        "country_code": "VNM",
        "country_name": "Việt Nam",
        "city": "Hồ Chí Minh",
        "district": "Quận Gò Vấp",
        "ward": "Phường 8",
        "street": "Đường Phạm Văn Chiêu",
        "postal_code": "71419",
        "categories": [
            {
                "name": "Hãng cho thuê xe ô tô"
            }
        ]
    },
    {
        "name": "Rồng Châu Á",
        "latitude": 10.80009,
        "longitude": 106.63267,
        "address": "Rồng Châu Á, Đường Tân Sơn Nhì, Phường Tân Sơn Nhì, Quận Tân Phú, Hồ Chí Minh, Việt Nam",
        "country_code": "VNM",
        "country_name": "Việt Nam",
        "city": "Hồ Chí Minh",
        "district": "Quận Tân Phú",
        "ward": "Phường Tân Sơn Nhì",
        "street": "Đường Tân Sơn Nhì",
        "postal_code": "72008",
        "categories": [
            {
                "name": "Hãng cho thuê xe ô tô"
            }
        ]
    },
    {
        "name": "Cho Thuê Xe Du Lịch",
        "latitude": 10.8052,
        "longitude": 106.64185,
        "address": "Cho Thuê Xe Du Lịch, Đường Nguyễn Đức Thuận, Phường 13, Quận Tân Bình, Hồ Chí Minh, Việt Nam",
        "country_code": "VNM",
        "country_name": "Việt Nam",
        "city": "Hồ Chí Minh",
        "district": "Quận Tân Bình",
        "ward": "Phường 13",
        "street": "Đường Nguyễn Đức Thuận",
        "postal_code": "72110",
        "categories": [
            {
                "name": "Hãng cho thuê xe ô tô"
            }
        ]
    },
    {
        "name": "Hồng Yến",
        "latitude": 10.84488,
        "longitude": 106.64112,
        "address": "Hồng Yến, 39 Đường Phạm Văn Chiêu, Phường 8, Quận Gò Vấp, Hồ Chí Minh, Việt Nam",
        "country_code": "VNM",
        "country_name": "Việt Nam",
        "city": "Hồ Chí Minh",
        "district": "Quận Gò Vấp",
        "ward": "Phường 8",
        "street": "Đường Phạm Văn Chiêu",
        "postal_code": "71419",
        "categories": [
            {
                "name": "Hãng cho thuê xe ô tô"
            }
        ]
    },
    {
        "name": "Lạc Ân",
        "latitude": 10.84034,
        "longitude": 106.64597,
        "address": "Lạc Ân, Đường Quang Trung, Phường 12, Quận Gò Vấp, Hồ Chí Minh, Việt Nam",
        "country_code": "VNM",
        "country_name": "Việt Nam",
        "city": "Hồ Chí Minh",
        "district": "Quận Gò Vấp",
        "ward": "Phường 12",
        "street": "Đường Quang Trung",
        "postal_code": "71420",
        "categories": [
            {
                "name": "Hãng cho thuê xe ô tô"
            },
            {
                "name": "Hàng tiêu dùng"
            }
        ]
    },
    {
        "name": "Dịch Vụ Cho Thuê Xe Du Lịch Lan Bình",
        "latitude": 10.80433,
        "longitude": 106.64156,
        "address": "Dịch Vụ Cho Thuê Xe Du Lịch Lan Bình, Đường Ngô Bệ, Phường 13, Quận Tân Bình, Hồ Chí Minh, Việt Nam",
        "country_code": "VNM",
        "country_name": "Việt Nam",
        "city": "Hồ Chí Minh",
        "district": "Quận Tân Bình",
        "ward": "Phường 13",
        "street": "Đường Ngô Bệ",
        "postal_code": "72110",
        "categories": [
            {
                "name": "Hãng cho thuê xe ô tô"
            }
        ]
    },
    {
        "name": "Cho Thuê Xe Du Lịch",
        "latitude": 10.84985,
        "longitude": 106.63228,
        "address": "Cho Thuê Xe Du Lịch, Đường Quang Trung, Phường Đông Hưng Thuận, Quận 12, Hồ Chí Minh, Việt Nam",
        "country_code": "VNM",
        "country_name": "Việt Nam",
        "city": "Hồ Chí Minh",
        "district": "Quận 12",
        "ward": "Phường Đông Hưng Thuận",
        "street": "Đường Quang Trung",
        "postal_code": "71508",
        "categories": [
            {
                "name": "Hãng cho thuê xe ô tô"
            }
        ]
    },
    {
        "name": "Dịch Vụ Cho Thuê Xe Du Lịch Mỹ Thạnh",
        "latitude": 10.84852,
        "longitude": 106.63584,
        "address": "Dịch Vụ Cho Thuê Xe Du Lịch Mỹ Thạnh, Đường Nguyễn Văn Quá, Phường Đông Hưng Thuận, Quận 12, Hồ Chí Minh, Việt Nam",
        "country_code": "VNM",
        "country_name": "Việt Nam",
        "city": "Hồ Chí Minh",
        "district": "Quận 12",
        "ward": "Phường Đông Hưng Thuận",
        "street": "Đường Nguyễn Văn Quá",
        "postal_code": "71508",
        "categories": [
            {
                "name": "Hãng cho thuê xe ô tô"
            }
        ]
    },
    {
        "name": "Dịch Vụ Du Lịch A Bảy",
        "latitude": 10.84692,
        "longitude": 106.63948,
        "address": "Dịch Vụ Du Lịch A Bảy, 185 Hẻm 1358 Quang Trung, Phường 14, Quận Gò Vấp, Hồ Chí Minh, Việt Nam",
        "country_code": "VNM",
        "country_name": "Việt Nam",
        "city": "Hồ Chí Minh",
        "district": "Quận Gò Vấp",
        "ward": "Phường 14",
        "street": "Hẻm 1358 Quang Trung",
        "postal_code": "71418",
        "categories": [
            {
                "name": "Hãng cho thuê xe ô tô"
            }
        ]
    },
    {
        "name": "Minh Yến",
        "latitude": 10.84526,
        "longitude": 106.64211,
        "address": "Minh Yến, Đường Phạm Văn Chiêu, Phường 8, Quận Gò Vấp, Hồ Chí Minh, Việt Nam",
        "country_code": "VNM",
        "country_name": "Việt Nam",
        "city": "Hồ Chí Minh",
        "district": "Quận Gò Vấp",
        "ward": "Phường 8",
        "street": "Đường Phạm Văn Chiêu",
        "postal_code": "71419",
        "categories": [
            {
                "name": "Hãng cho thuê xe ô tô"
            }
        ]
    },
    {
        "name": "Dịch Vụ Cho Thuê Xe Du Lịch Trung Tín",
        "latitude": 10.84055,
        "longitude": 106.64707,
        "address": "Dịch Vụ Cho Thuê Xe Du Lịch Trung Tín, Đường Số 14, Phường 8, Quận Gò Vấp, Hồ Chí Minh, Việt Nam",
        "country_code": "VNM",
        "country_name": "Việt Nam",
        "city": "Hồ Chí Minh",
        "district": "Quận Gò Vấp",
        "ward": "Phường 8",
        "street": "Đường Số 14",
        "postal_code": "71419",
        "categories": [
            {
                "name": "Hãng cho thuê xe ô tô"
            }
        ]
    },
    {
        "name": "Đồng Thắng",
        "latitude": 10.79976,
        "longitude": 106.63721,
        "address": "Đồng Thắng, 1042 Đường Âu Cơ, Phường 14, Quận Tân Bình, Hồ Chí Minh, Việt Nam",
        "country_code": "VNM",
        "country_name": "Việt Nam",
        "city": "Hồ Chí Minh",
        "district": "Quận Tân Bình",
        "ward": "Phường 14",
        "street": "Đường Âu Cơ",
        "postal_code": "72112",
        "categories": [
            {
                "name": "Hãng cho thuê xe ô tô"
            }
        ]
    },
    {
        "name": "Huê Phong",
        "latitude": 10.84573,
        "longitude": 106.64316,
        "address": "Huê Phong, 44 Đường Phạm Văn Chiêu, Phường 8, Quận Gò Vấp, Hồ Chí Minh, Việt Nam",
        "country_code": "VNM",
        "country_name": "Việt Nam",
        "city": "Hồ Chí Minh",
        "district": "Quận Gò Vấp",
        "ward": "Phường 8",
        "street": "Đường Phạm Văn Chiêu",
        "postal_code": "71419",
        "categories": [
            {
                "name": "Hãng cho thuê xe ô tô"
            }
        ]
    },
    {
        "name": "Bàu Cát",
        "latitude": 10.79662,
        "longitude": 106.62619,
        "address": "Bàu Cát, Hẻm 80 Gò Dầu, Phường Tân Quý, Quận Tân Phú, Hồ Chí Minh, Việt Nam",
        "country_code": "VNM",
        "country_name": "Việt Nam",
        "city": "Hồ Chí Minh",
        "district": "Quận Tân Phú",
        "ward": "Phường Tân Quý",
        "street": "Hẻm 80 Gò Dầu",
        "postal_code": "72011",
        "categories": [
            {
                "name": "Hãng cho thuê xe ô tô"
            }
        ]
    },
    {
        "name": "Cho Thuê Xe Du Lịch",
        "latitude": 10.79852,
        "longitude": 106.63506,
        "address": "Cho Thuê Xe Du Lịch, Hẻm 3 Nguyễn Văn Săng, Phường Tân Sơn Nhì, Quận Tân Phú, Hồ Chí Minh, Việt Nam",
        "country_code": "VNM",
        "country_name": "Việt Nam",
        "city": "Hồ Chí Minh",
        "district": "Quận Tân Phú",
        "ward": "Phường Tân Sơn Nhì",
        "street": "Hẻm 3 Nguyễn Văn Săng",
        "postal_code": "72008",
        "categories": [
            {
                "name": "Hãng cho thuê xe ô tô"
            }
        ]
    },
    {
        "name": "Tư Liêm",
        "latitude": 10.7977,
        "longitude": 106.61538,
        "address": "Tư Liêm, 563 Đường Tân Kỳ Tân Quý, Phường Tân Quý, Quận Tân Phú, Hồ Chí Minh, Việt Nam",
        "country_code": "VNM",
        "country_name": "Việt Nam",
        "city": "Hồ Chí Minh",
        "district": "Quận Tân Phú",
        "ward": "Phường Tân Quý",
        "street": "Đường Tân Kỳ Tân Quý",
        "postal_code": "72011",
        "categories": [
            {
                "name": "Hãng cho thuê xe ô tô"
            }
        ]
    },
    {
        "name": "Dịch Vụ Cho Thuê Xe Du Lịch Mỹ Trinh",
        "latitude": 10.80025,
        "longitude": 106.63978,
        "address": "Dịch Vụ Cho Thuê Xe Du Lịch Mỹ Trinh, Đường Trường Chinh, Phường 14, Quận Tân Bình, Hồ Chí Minh, Việt Nam",
        "country_code": "VNM",
        "country_name": "Việt Nam",
        "city": "Hồ Chí Minh",
        "district": "Quận Tân Bình",
        "ward": "Phường 14",
        "street": "Đường Trường Chinh",
        "postal_code": "72112",
        "categories": [
            {
                "name": "Hãng cho thuê xe ô tô"
            }
        ]
    },
    {
        "name": "Cty TNHH DL & VT Mạnh Luân",
        "latitude": 10.80743,
        "longitude": 106.64785,
        "address": "Cty TNHH DL & VT Mạnh Luân, Đường Hoàng Hoa Thám, Phường 12, Quận Tân Bình, Hồ Chí Minh, Việt Nam",
        "country_code": "VNM",
        "country_name": "Việt Nam",
        "city": "Hồ Chí Minh",
        "district": "Quận Tân Bình",
        "ward": "Phường 12",
        "street": "Đường Hoàng Hoa Thám",
        "postal_code": "72111",
        "categories": [
            {
                "name": "Hãng cho thuê xe ô tô"
            }
        ]
    },
    {
        "name": "Ô Tô 24H Cho Thuê Xe Tư Lái",
        "latitude": 10.79694,
        "longitude": 106.61675,
        "address": "Ô Tô 24H Cho Thuê Xe Tư Lái, Đường Dương Văn Dương, Phường Tân Quý, Quận Tân Phú, Hồ Chí Minh, Việt Nam",
        "country_code": "VNM",
        "country_name": "Việt Nam",
        "city": "Hồ Chí Minh",
        "district": "Quận Tân Phú",
        "ward": "Phường Tân Quý",
        "street": "Đường Dương Văn Dương",
        "postal_code": "72011",
        "categories": [
            {
                "name": "Hãng cho thuê xe ô tô"
            }
        ]
    },
    {
        "name": "Kiến Hoàng",
        "latitude": 10.80213,
        "longitude": 106.64268,
        "address": "Kiến Hoàng, Đường Cộng Hòa, Phường 13, Quận Tân Bình, Hồ Chí Minh, Việt Nam",
        "country_code": "VNM",
        "country_name": "Việt Nam",
        "city": "Hồ Chí Minh",
        "district": "Quận Tân Bình",
        "ward": "Phường 13",
        "street": "Đường Cộng Hòa",
        "postal_code": "72110",
        "categories": [
            {
                "name": "Hãng cho thuê xe ô tô"
            },
            {
                "name": "Doanh nghiệp"
            }
        ]
    },
    {
        "name": "Cho Thuê Xe Du Lịch Minh Thuận",
        "latitude": 10.84095,
        "longitude": 106.59982,
        "address": "Cho Thuê Xe Du Lịch Minh Thuận, Đường Nguyễn Văn Công, Xã Bà Điểm, Huyện Hóc Môn, Hồ Chí Minh, Việt Nam",
        "country_code": "VNM",
        "country_name": "Việt Nam",
        "city": "Hồ Chí Minh",
        "district": "Huyện Hóc Môn",
        "ward": "Xã Bà Điểm",
        "street": "Đường Nguyễn Văn Công",
        "postal_code": "71714",
        "categories": [
            {
                "name": "Hãng cho thuê xe ô tô"
            }
        ]
    },
    {
        "name": "Dịch Vụ Cưới Hỏi Và Du Lịch Hồng Hạnh",
        "latitude": 10.79547,
        "longitude": 106.62862,
        "address": "Dịch Vụ Cưới Hỏi Và Du Lịch Hồng Hạnh, 20C Đường Gò Dầu, Phường Tân Quý, Quận Tân Phú, Hồ Chí Minh, Việt Nam",
        "country_code": "VNM",
        "country_name": "Việt Nam",
        "city": "Hồ Chí Minh",
        "district": "Quận Tân Phú",
        "ward": "Phường Tân Quý",
        "street": "Đường Gò Dầu",
        "postal_code": "72011",
        "categories": [
            {
                "name": "Hãng cho thuê xe ô tô"
            },
            {
                "name": "Doanh nghiệp"
            }
        ]
    },
    {
        "name": "Công Ty TNHH Thương Mại Dịch Vụ Du Lịch Xuất Nhập Khẩu Hiền Nga",
        "latitude": 10.79518,
        "longitude": 106.62263,
        "address": "Công Ty TNHH Thương Mại Dịch Vụ Du Lịch Xuất Nhập Khẩu Hiền Nga, Đường Nguyễn Súy, Phường Tân Quý, Quận Tân Phú, Hồ Chí Minh, Việt Nam",
        "country_code": "VNM",
        "country_name": "Việt Nam",
        "city": "Hồ Chí Minh",
        "district": "Quận Tân Phú",
        "ward": "Phường Tân Quý",
        "street": "Đường Nguyễn Súy",
        "postal_code": "72011",
        "categories": [
            {
                "name": "Hãng cho thuê xe ô tô"
            }
        ]
    },
    {
        "name": "Cho Thuê Xe Du Lịch",
        "latitude": 10.85432,
        "longitude": 106.62504,
        "address": "Cho Thuê Xe Du Lịch, Đường Tô Ký, Phường Trung Mỹ Tây, Quận 12, Hồ Chí Minh, Việt Nam",
        "country_code": "VNM",
        "country_name": "Việt Nam",
        "city": "Hồ Chí Minh",
        "district": "Quận 12",
        "ward": "Phường Trung Mỹ Tây",
        "street": "Đường Tô Ký",
        "postal_code": "71507",
        "categories": [
            {
                "name": "Hãng cho thuê xe ô tô"
            }
        ]
    },
    {
        "name": "Công Ty TNHH Thương Mại Ngọc Đại Phát Mua Bán Cho Thuê Xe",
        "latitude": 10.84599,
        "longitude": 106.64608,
        "address": "Công Ty TNHH Thương Mại Ngọc Đại Phát Mua Bán Cho Thuê Xe, Hẻm 114 Phạm Văn Chiêu, Phường 9, Quận Gò Vấp, Hồ Chí Minh, Việt Nam",
        "country_code": "VNM",
        "country_name": "Việt Nam",
        "city": "Hồ Chí Minh",
        "district": "Quận Gò Vấp",
        "ward": "Phường 9",
        "street": "Hẻm 114 Phạm Văn Chiêu",
        "postal_code": "71417",
        "categories": [
            {
                "name": "Hãng cho thuê xe ô tô"
            }
        ]
    },
    {
        "name": "Hữu Chi",
        "latitude": 10.80497,
        "longitude": 106.6477,
        "address": "Hữu Chi, 123A Hẻm 163 Đường Hoàng Hoa Thám, Phường 13, Quận Tân Bình, Hồ Chí Minh, Việt Nam",
        "country_code": "VNM",
        "country_name": "Việt Nam",
        "city": "Hồ Chí Minh",
        "district": "Quận Tân Bình",
        "ward": "Phường 13",
        "street": "Hẻm 163 Đường Hoàng Hoa Thám",
        "postal_code": "72110",
        "categories": [
            {
                "name": "Hãng cho thuê xe ô tô"
            }
        ]
    },
    {
        "name": "Cho Thuê Xe Du Lịch",
        "latitude": 10.8469,
        "longitude": 106.6452,
        "address": "Cho Thuê Xe Du Lịch, Đường Phạm Văn Chiêu, Phường 9, Quận Gò Vấp, Hồ Chí Minh, Việt Nam",
        "country_code": "VNM",
        "country_name": "Việt Nam",
        "city": "Hồ Chí Minh",
        "district": "Quận Gò Vấp",
        "ward": "Phường 9",
        "street": "Đường Phạm Văn Chiêu",
        "postal_code": "71417",
        "categories": [
            {
                "name": "Hãng cho thuê xe ô tô"
            }
        ]
    },
    {
        "name": "Hạnh Loan",
        "latitude": 10.7984,
        "longitude": 106.64032,
        "address": "Hạnh Loan, Đường Trường Chinh, Phường 14, Quận Tân Bình, Hồ Chí Minh, Việt Nam",
        "country_code": "VNM",
        "country_name": "Việt Nam",
        "city": "Hồ Chí Minh",
        "district": "Quận Tân Bình",
        "ward": "Phường 14",
        "street": "Đường Trường Chinh",
        "postal_code": "72112",
        "categories": [
            {
                "name": "Hãng cho thuê xe ô tô"
            }
        ]
    },
    {
        "name": "Dịch Vụ Du Lịch Quốc Điền",
        "latitude": 10.83828,
        "longitude": 106.65243,
        "address": "Dịch Vụ Du Lịch Quốc Điền, Đường Quang Trung, Phường 8, Quận Gò Vấp, Hồ Chí Minh, Việt Nam",
        "country_code": "VNM",
        "country_name": "Việt Nam",
        "city": "Hồ Chí Minh",
        "district": "Quận Gò Vấp",
        "ward": "Phường 8",
        "street": "Đường Quang Trung",
        "postal_code": "71419",
        "categories": [
            {
                "name": "Hãng cho thuê xe ô tô"
            }
        ]
    },
    {
        "name": "Dịch Vụ Tuấn Cường",
        "latitude": 10.84716,
        "longitude": 106.64566,
        "address": "Dịch Vụ Tuấn Cường, Đường Phạm Văn Chiêu, Phường 9, Quận Gò Vấp, Hồ Chí Minh, Việt Nam",
        "country_code": "VNM",
        "country_name": "Việt Nam",
        "city": "Hồ Chí Minh",
        "district": "Quận Gò Vấp",
        "ward": "Phường 9",
        "street": "Đường Phạm Văn Chiêu",
        "postal_code": "71417",
        "categories": [
            {
                "name": "Hãng cho thuê xe ô tô"
            }
        ]
    },
    {
        "name": "Dịch Vụ Cho Thuê Xe",
        "latitude": 10.84151,
        "longitude": 106.65111,
        "address": "Dịch Vụ Cho Thuê Xe, Đường Số 21, Phường 8, Quận Gò Vấp, Hồ Chí Minh, Việt Nam",
        "country_code": "VNM",
        "country_name": "Việt Nam",
        "city": "Hồ Chí Minh",
        "district": "Quận Gò Vấp",
        "ward": "Phường 8",
        "street": "Đường Số 21",
        "postal_code": "71419",
        "categories": [
            {
                "name": "Hãng cho thuê xe ô tô"
            }
        ]
    },
    {
        "name": "Cho Thuê Xe Ô Tô Tự Lái",
        "latitude": 10.79321,
        "longitude": 106.62539,
        "address": "Cho Thuê Xe Ô Tô Tự Lái, Đường Nguyễn Ngọc Nhựt, Phường Tân Quý, Quận Tân Phú, Hồ Chí Minh, Việt Nam",
        "country_code": "VNM",
        "country_name": "Việt Nam",
        "city": "Hồ Chí Minh",
        "district": "Quận Tân Phú",
        "ward": "Phường Tân Quý",
        "street": "Đường Nguyễn Ngọc Nhựt",
        "postal_code": "72011",
        "categories": [
            {
                "name": "Hãng cho thuê xe ô tô"
            }
        ]
    },
    {
        "name": "Trạm Du Lịch Thái Hà",
        "latitude": 10.85323,
        "longitude": 106.63808,
        "address": "Trạm Du Lịch Thái Hà, Đường Nguyễn Văn Quá, Phường Đông Hưng Thuận, Quận 12, Hồ Chí Minh, Việt Nam",
        "country_code": "VNM",
        "country_name": "Việt Nam",
        "city": "Hồ Chí Minh",
        "district": "Quận 12",
        "ward": "Phường Đông Hưng Thuận",
        "street": "Đường Nguyễn Văn Quá",
        "postal_code": "71508",
        "categories": [
            {
                "name": "Hãng cho thuê xe ô tô"
            }
        ]
    },
    {
        "name": "Dịch Vụ Thanh Tuyền",
        "latitude": 10.7925,
        "longitude": 106.62363,
        "address": "Dịch Vụ Thanh Tuyền, Đường Nguyễn Quang Diêu, Phường Tân Quý, Quận Tân Phú, Hồ Chí Minh, Việt Nam",
        "country_code": "VNM",
        "country_name": "Việt Nam",
        "city": "Hồ Chí Minh",
        "district": "Quận Tân Phú",
        "ward": "Phường Tân Quý",
        "street": "Đường Nguyễn Quang Diêu",
        "postal_code": "72011",
        "categories": [
            {
                "name": "Hãng cho thuê xe ô tô"
            }
        ]
    },
    {
        "name": "Nguyễn Tiến",
        "latitude": 10.79302,
        "longitude": 106.61832,
        "address": "Nguyễn Tiến, Hẻm 14 Đường Đỗ Thừa Luông, Phường Tân Quý, Quận Tân Phú, Hồ Chí Minh, Việt Nam",
        "country_code": "VNM",
        "country_name": "Việt Nam",
        "city": "Hồ Chí Minh",
        "district": "Quận Tân Phú",
        "ward": "Phường Tân Quý",
        "street": "Hẻm 14 Đường Đỗ Thừa Luông",
        "postal_code": "72011",
        "categories": [
            {
                "name": "Hãng cho thuê xe ô tô"
            }
        ]
    },
    {
        "name": "Cho Thuê Xe 4 & 7 & 16 Chỗ Âu Việt",
        "latitude": 10.79403,
        "longitude": 106.63478,
        "address": "Cho Thuê Xe 4 & 7 & 16 Chỗ Âu Việt, Đường Hồ Ngọc Cẩn, Phường Tân Thành, Quận Tân Phú, Hồ Chí Minh, Việt Nam",
        "country_code": "VNM",
        "country_name": "Việt Nam",
        "city": "Hồ Chí Minh",
        "district": "Quận Tân Phú",
        "ward": "Phường Tân Thành",
        "street": "Đường Hồ Ngọc Cẩn",
        "postal_code": "72007",
        "categories": [
            {
                "name": "Hãng cho thuê xe ô tô"
            }
        ]
    },
    {
        "name": "Cho Thuê Xe Du Lịch 4-50 Chỗ",
        "latitude": 10.79509,
        "longitude": 106.63768,
        "address": "Cho Thuê Xe Du Lịch 4-50 Chỗ, Đường Trần Hưng Đạo, Phường Tân Sơn Nhì, Quận Tân Phú, Hồ Chí Minh, Việt Nam",
        "country_code": "VNM",
        "country_name": "Việt Nam",
        "city": "Hồ Chí Minh",
        "district": "Quận Tân Phú",
        "ward": "Phường Tân Sơn Nhì",
        "street": "Đường Trần Hưng Đạo",
        "postal_code": "72008",
        "categories": [
            {
                "name": "Hãng cho thuê xe ô tô"
            }
        ]
    },
    {
        "name": "Du Lịch Thanh Thúy",
        "latitude": 10.84537,
        "longitude": 106.59917,
        "address": "Du Lịch Thanh Thúy, Đường 5 Bà Điểm, Xã Bà Điểm, Huyện Hóc Môn, Hồ Chí Minh, Việt Nam",
        "country_code": "VNM",
        "country_name": "Việt Nam",
        "city": "Hồ Chí Minh",
        "district": "Huyện Hóc Môn",
        "ward": "Xã Bà Điểm",
        "street": "Đường 5 Bà Điểm",
        "postal_code": "71714",
        "categories": [
            {
                "name": "Hãng cho thuê xe ô tô"
            }
        ]
    },
    {
        "name": "Phước Đạt",
        "latitude": 10.79244,
        "longitude": 106.62889,
        "address": "Phước Đạt, 9 Đường Tân Hương, Phường Tân Quý, Quận Tân Phú, Hồ Chí Minh, Việt Nam",
        "country_code": "VNM",
        "country_name": "Việt Nam",
        "city": "Hồ Chí Minh",
        "district": "Quận Tân Phú",
        "ward": "Phường Tân Quý",
        "street": "Đường Tân Hương",
        "postal_code": "72011",
        "categories": [
            {
                "name": "Hãng cho thuê xe ô tô"
            }
        ]
    },
    {
        "name": "Cho Thuê Xe 7 Chỗ Fortuner",
        "latitude": 10.84042,
        "longitude": 106.65349,
        "address": "Cho Thuê Xe 7 Chỗ Fortuner, Hẻm 872 Quang Trung, Phường 8, Quận Gò Vấp, Hồ Chí Minh, Việt Nam",
        "country_code": "VNM",
        "country_name": "Việt Nam",
        "city": "Hồ Chí Minh",
        "district": "Quận Gò Vấp",
        "ward": "Phường 8",
        "street": "Hẻm 872 Quang Trung",
        "postal_code": "71419",
        "categories": [
            {
                "name": "Hãng cho thuê xe ô tô"
            }
        ]
    },
    {
        "name": "Dịch Vụ Xe Du Lịch Bảo Trung",
        "latitude": 10.7931,
        "longitude": 106.63313,
        "address": "Dịch Vụ Xe Du Lịch Bảo Trung, Đường Nguyễn Trường Tộ, Phường Tân Thành, Quận Tân Phú, Hồ Chí Minh, Việt Nam",
        "country_code": "VNM",
        "country_name": "Việt Nam",
        "city": "Hồ Chí Minh",
        "district": "Quận Tân Phú",
        "ward": "Phường Tân Thành",
        "street": "Đường Nguyễn Trường Tộ",
        "postal_code": "72007",
        "categories": [
            {
                "name": "Hãng cho thuê xe ô tô"
            }
        ]
    },
    {
        "name": "Cho Thuê Xe Du Lịch 7 Chỗ",
        "latitude": 10.79296,
        "longitude": 106.63271,
        "address": "Cho Thuê Xe Du Lịch 7 Chỗ, Đường Hàn Mặc Tử, Phường Tân Thành, Quận Tân Phú, Hồ Chí Minh, Việt Nam",
        "country_code": "VNM",
        "country_name": "Việt Nam",
        "city": "Hồ Chí Minh",
        "district": "Quận Tân Phú",
        "ward": "Phường Tân Thành",
        "street": "Đường Hàn Mặc Tử",
        "postal_code": "72007",
        "categories": [
            {
                "name": "Hãng cho thuê xe ô tô"
            }
        ]
    },
    {
        "name": "Cty TNHH DV VT & DL Hòa Hợp",
        "latitude": 10.7929,
        "longitude": 106.6328,
        "address": "Cty TNHH DV VT & DL Hòa Hợp, Đường Vũ Trọng Phụng, Phường Tân Thành, Quận Tân Phú, Hồ Chí Minh, Việt Nam",
        "country_code": "VNM",
        "country_name": "Việt Nam",
        "city": "Hồ Chí Minh",
        "district": "Quận Tân Phú",
        "ward": "Phường Tân Thành",
        "street": "Đường Vũ Trọng Phụng",
        "postal_code": "72007",
        "categories": [
            {
                "name": "Hãng cho thuê xe ô tô"
            },
            {
                "name": "Sản xuất"
            },
            {
                "name": "Doanh nghiệp"
            },
            {
                "name": "Dịch vụ kinh doanh"
            }
        ]
    }
]
