[
    {
        "name": "Đại Hoàng Cường",
        "latitude": 10.82204,
        "longitude": 106.62242,
        "address": "Đại Hoàng Cường, Đường TTN 21, Phường Tân Thới Nhất, Quận 12, Hồ Chí Minh, Việt Nam",
        "country_code": "VNM",
        "country_name": "Việt Nam",
        "city": "Hồ Chí Minh",
        "district": "Quận 12",
        "ward": "Phường Tân Thới Nhất",
        "street": "Đường TTN 21",
        "postal_code": "71510",
        "categories": [
            {
                "name": "Dịch vụ thương mại"
            }
        ]
    },
    {
        "name": "Đĩa Mài Sàn Bê Tông, Đánh Bóng Bê Tông",
        "latitude": 10.82174,
        "longitude": 106.62254,
        "address": "Đĩa Mài Sàn Bê Tông, Đánh Bóng Bê Tông, Đường D3, Phường Tân Thới Nhất, Quận 12, Hồ Chí Minh, Việt Nam",
        "country_code": "VNM",
        "country_name": "Việt Nam",
        "city": "Hồ Chí Minh",
        "district": "Quận 12",
        "ward": "Phường Tân Thới Nhất",
        "street": "Đường D3",
        "postal_code": "71510",
        "categories": [
            {
                "name": "Dịch vụ thương mại"
            }
        ]
    },
    {
        "name": "Hải Sản Phan Rí Cửa",
        "latitude": 10.82763,
        "longitude": 106.62265,
        "address": "Hải Sản Phan Rí Cửa, 35 Đường Phan Văn Hớn, Phường Tân Thới Nhất, Quận 12, Hồ Chí Minh, Việt Nam",
        "country_code": "VNM",
        "country_name": "Việt Nam",
        "city": "Hồ Chí Minh",
        "district": "Quận 12",
        "ward": "Phường Tân Thới Nhất",
        "street": "Đường Phan Văn Hớn",
        "postal_code": "71510",
        "categories": [
            {
                "name": "Dịch vụ thương mại"
            }
        ]
    },
    {
        "name": "Siemens Automation Project",
        "latitude": 10.82099,
        "longitude": 106.62337,
        "address": "Siemens Automation Project, H5 Đường C4, Phường Tân Thới Nhất, Quận 12, Hồ Chí Minh, Việt Nam",
        "country_code": "VNM",
        "country_name": "Việt Nam",
        "city": "Hồ Chí Minh",
        "district": "Quận 12",
        "ward": "Phường Tân Thới Nhất",
        "street": "Đường C4",
        "postal_code": "71510",
        "categories": [
            {
                "name": "Dịch vụ thương mại"
            }
        ]
    },
    {
        "name": "Garza",
        "latitude": 10.82874,
        "longitude": 106.62392,
        "address": "Garza, Đường Trường Chinh, Phường Tân Thới Nhất, Quận 12, Hồ Chí Minh, Việt Nam",
        "country_code": "VNM",
        "country_name": "Việt Nam",
        "city": "Hồ Chí Minh",
        "district": "Quận 12",
        "ward": "Phường Tân Thới Nhất",
        "street": "Đường Trường Chinh",
        "postal_code": "71510",
        "categories": [
            {
                "name": "Dịch vụ thương mại"
            }
        ]
    },
    {
        "name": "Everich Fashion",
        "latitude": 10.82804,
        "longitude": 106.6215,
        "address": "Everich Fashion, Đường Phan Văn Hớn, Phường Tân Thới Nhất, Quận 12, Hồ Chí Minh, Việt Nam",
        "country_code": "VNM",
        "country_name": "Việt Nam",
        "city": "Hồ Chí Minh",
        "district": "Quận 12",
        "ward": "Phường Tân Thới Nhất",
        "street": "Đường Phan Văn Hớn",
        "postal_code": "71510",
        "categories": [
            {
                "name": "Dịch vụ thương mại"
            }
        ]
    },
    {
        "name": "Thien Loc Phat Technology Trading",
        "latitude": 10.82438,
        "longitude": 106.63016,
        "address": "Thien Loc Phat Technology Trading, Đường Phan Huy Ích, Phường 15, Quận Tân Bình, Hồ Chí Minh, Việt Nam",
        "country_code": "VNM",
        "country_name": "Việt Nam",
        "city": "Hồ Chí Minh",
        "district": "Quận Tân Bình",
        "ward": "Phường 15",
        "street": "Đường Phan Huy Ích",
        "postal_code": "72109",
        "categories": [
            {
                "name": "Dịch vụ thương mại"
            }
        ]
    },
    {
        "name": "Ke Decor",
        "latitude": 10.82457,
        "longitude": 106.63025,
        "address": "Ke Decor, 19 Đường Phan Huy Ích, Phường 15, Quận Tân Bình, Hồ Chí Minh, Việt Nam",
        "country_code": "VNM",
        "country_name": "Việt Nam",
        "city": "Hồ Chí Minh",
        "district": "Quận Tân Bình",
        "ward": "Phường 15",
        "street": "Đường Phan Huy Ích",
        "postal_code": "72109",
        "categories": [
            {
                "name": "Dịch vụ thương mại"
            }
        ]
    },
    {
        "name": "Váy Đầm Trung Niên 2017",
        "latitude": 10.824,
        "longitude": 106.6314,
        "address": "Váy Đầm Trung Niên 2017, Đường Tân Trụ, Phường 15, Quận Tân Bình, Hồ Chí Minh, Việt Nam",
        "country_code": "VNM",
        "country_name": "Việt Nam",
        "city": "Hồ Chí Minh",
        "district": "Quận Tân Bình",
        "ward": "Phường 15",
        "street": "Đường Tân Trụ",
        "postal_code": "72109",
        "categories": [
            {
                "name": "Dịch vụ thương mại"
            }
        ]
    },
    {
        "name": "Phương Sunny",
        "latitude": 10.82697,
        "longitude": 106.63136,
        "address": "Phương Sunny, Đường Phan Huy Ích, Phường 15, Quận Tân Bình, Hồ Chí Minh, Việt Nam",
        "country_code": "VNM",
        "country_name": "Việt Nam",
        "city": "Hồ Chí Minh",
        "district": "Quận Tân Bình",
        "ward": "Phường 15",
        "street": "Đường Phan Huy Ích",
        "postal_code": "72109",
        "categories": [
            {
                "name": "Dịch vụ thương mại"
            }
        ]
    },
    {
        "name": "Xưởng Chuyên Sỉ Thời Trang Thiết Kế Cao Cấp Mimi's Fashion",
        "latitude": 10.832,
        "longitude": 106.62677,
        "address": "Xưởng Chuyên Sỉ Thời Trang Thiết Kế Cao Cấp Mimi's Fashion, Đường Đông Hưng Thuận 2, Phường Tân Hưng Thuận, Quận 12, Hồ Chí Minh, Việt Nam",
        "country_code": "VNM",
        "country_name": "Việt Nam",
        "city": "Hồ Chí Minh",
        "district": "Quận 12",
        "ward": "Phường Tân Hưng Thuận",
        "street": "Đường Đông Hưng Thuận 2",
        "postal_code": "71509",
        "categories": [
            {
                "name": "Dịch vụ thương mại"
            }
        ]
    },
    {
        "name": "Sữa Chua Uống Trái Cây - Cỏ",
        "latitude": 10.81623,
        "longitude": 106.62561,
        "address": "Sữa Chua Uống Trái Cây - Cỏ, Đường Tây Thạnh, Phường Tây Thạnh, Quận Tân Phú, Hồ Chí Minh, Việt Nam",
        "country_code": "VNM",
        "country_name": "Việt Nam",
        "city": "Hồ Chí Minh",
        "district": "Quận Tân Phú",
        "ward": "Phường Tây Thạnh",
        "street": "Đường Tây Thạnh",
        "postal_code": "72009",
        "categories": [
            {
                "name": "Dịch vụ thương mại"
            }
        ]
    },
    {
        "name": "Chin Well Fasteners",
        "latitude": 10.81632,
        "longitude": 106.62178,
        "address": "Chin Well Fasteners, Đường C8, Phường Tây Thạnh, Quận Tân Phú, Hồ Chí Minh, Việt Nam",
        "country_code": "VNM",
        "country_name": "Việt Nam",
        "city": "Hồ Chí Minh",
        "district": "Quận Tân Phú",
        "ward": "Phường Tây Thạnh",
        "street": "Đường C8",
        "postal_code": "72009",
        "categories": [
            {
                "name": "Dịch vụ thương mại"
            }
        ]
    },
    {
        "name": "Net Gia Hân",
        "latitude": 10.82924,
        "longitude": 106.61656,
        "address": "Net Gia Hân, 156A Đường Phan Văn Hớn, Phường Tân Thới Nhất, Quận 12, Hồ Chí Minh, Việt Nam",
        "country_code": "VNM",
        "country_name": "Việt Nam",
        "city": "Hồ Chí Minh",
        "district": "Quận 12",
        "ward": "Phường Tân Thới Nhất",
        "street": "Đường Phan Văn Hớn",
        "postal_code": "71510",
        "categories": [
            {
                "name": "Dịch vụ thương mại"
            }
        ]
    },
    {
        "name": "Bún Đậu Mẹt Hải Yến",
        "latitude": 10.82914,
        "longitude": 106.61606,
        "address": "Bún Đậu Mẹt Hải Yến, 266 Đường Phan Văn Hớn, Phường Tân Thới Nhất, Quận 12, Hồ Chí Minh, Việt Nam",
        "country_code": "VNM",
        "country_name": "Việt Nam",
        "city": "Hồ Chí Minh",
        "district": "Quận 12",
        "ward": "Phường Tân Thới Nhất",
        "street": "Đường Phan Văn Hớn",
        "postal_code": "71510",
        "categories": [
            {
                "name": "Dịch vụ thương mại"
            }
        ]
    },
    {
        "name": "Cty TNHH Thiết Bị Kỹ Thuật Thành Đạt",
        "latitude": 10.81495,
        "longitude": 106.62061,
        "address": "Cty TNHH Thiết Bị Kỹ Thuật Thành Đạt, Đường C8, Phường Tây Thạnh, Quận Tân Phú, Hồ Chí Minh, Việt Nam",
        "country_code": "VNM",
        "country_name": "Việt Nam",
        "city": "Hồ Chí Minh",
        "district": "Quận Tân Phú",
        "ward": "Phường Tây Thạnh",
        "street": "Đường C8",
        "postal_code": "72009",
        "categories": [
            {
                "name": "Dịch vụ thương mại"
            }
        ]
    },
    {
        "name": "Min Design -Thời Trang Nam Nữ",
        "latitude": 10.81724,
        "longitude": 106.63199,
        "address": "Min Design -Thời Trang Nam Nữ, Đường Trường Chinh, Phường 15, Quận Tân Bình, Hồ Chí Minh, Việt Nam",
        "country_code": "VNM",
        "country_name": "Việt Nam",
        "city": "Hồ Chí Minh",
        "district": "Quận Tân Bình",
        "ward": "Phường 15",
        "street": "Đường Trường Chinh",
        "postal_code": "72109",
        "categories": [
            {
                "name": "Dịch vụ thương mại"
            }
        ]
    },
    {
        "name": "Tiệm Vàng Kim Nguyên - Uy Tín Tân Bình - Chợ Tân Trụ",
        "latitude": 10.81903,
        "longitude": 106.63414,
        "address": "Tiệm Vàng Kim Nguyên - Uy Tín Tân Bình - Chợ Tân Trụ, Đường Nguyễn Sỹ Sách, Phường 15, Quận Tân Bình, Hồ Chí Minh, Việt Nam",
        "country_code": "VNM",
        "country_name": "Việt Nam",
        "city": "Hồ Chí Minh",
        "district": "Quận Tân Bình",
        "ward": "Phường 15",
        "street": "Đường Nguyễn Sỹ Sách",
        "postal_code": "72109",
        "categories": [
            {
                "name": "Dịch vụ thương mại"
            }
        ]
    },
    {
        "name": "Đồng Phục Đẹp Giá Rẻ",
        "latitude": 10.83241,
        "longitude": 106.61613,
        "address": "Đồng Phục Đẹp Giá Rẻ, Đường TTN 13, Phường Tân Thới Nhất, Quận 12, Hồ Chí Minh, Việt Nam",
        "country_code": "VNM",
        "country_name": "Việt Nam",
        "city": "Hồ Chí Minh",
        "district": "Quận 12",
        "ward": "Phường Tân Thới Nhất",
        "street": "Đường TTN 13",
        "postal_code": "71510",
        "categories": [
            {
                "name": "Dịch vụ thương mại"
            }
        ]
    },
    {
        "name": "Saigon Apparel",
        "latitude": 10.82662,
        "longitude": 106.63583,
        "address": "Saigon Apparel, Đường Cống Lở, Phường 15, Quận Tân Bình, Hồ Chí Minh, Việt Nam",
        "country_code": "VNM",
        "country_name": "Việt Nam",
        "city": "Hồ Chí Minh",
        "district": "Quận Tân Bình",
        "ward": "Phường 15",
        "street": "Đường Cống Lở",
        "postal_code": "72109",
        "categories": [
            {
                "name": "Dịch vụ thương mại"
            }
        ]
    },
    {
        "name": "Maxxi - Fashion",
        "latitude": 10.82643,
        "longitude": 106.63588,
        "address": "Maxxi - Fashion, Đường Cống Lở, Phường 15, Quận Tân Bình, Hồ Chí Minh, Việt Nam",
        "country_code": "VNM",
        "country_name": "Việt Nam",
        "city": "Hồ Chí Minh",
        "district": "Quận Tân Bình",
        "ward": "Phường 15",
        "street": "Đường Cống Lở",
        "postal_code": "72109",
        "categories": [
            {
                "name": "Dịch vụ thương mại"
            }
        ]
    },
    {
        "name": "Hải Yến",
        "latitude": 10.82643,
        "longitude": 106.63588,
        "address": "Hải Yến, Đường Cống Lở, Phường 15, Quận Tân Bình, Hồ Chí Minh, Việt Nam",
        "country_code": "VNM",
        "country_name": "Việt Nam",
        "city": "Hồ Chí Minh",
        "district": "Quận Tân Bình",
        "ward": "Phường 15",
        "street": "Đường Cống Lở",
        "postal_code": "72109",
        "categories": [
            {
                "name": "Dịch vụ thương mại"
            }
        ]
    },
    {
        "name": "Khu Xanh",
        "latitude": 10.82643,
        "longitude": 106.63588,
        "address": "Khu Xanh, Đường Cống Lở, Phường 15, Quận Tân Bình, Hồ Chí Minh, Việt Nam",
        "country_code": "VNM",
        "country_name": "Việt Nam",
        "city": "Hồ Chí Minh",
        "district": "Quận Tân Bình",
        "ward": "Phường 15",
        "street": "Đường Cống Lở",
        "postal_code": "72109",
        "categories": [
            {
                "name": "Dịch vụ thương mại"
            }
        ]
    },
    {
        "name": "Spa Kim Hòa",
        "latitude": 10.83189,
        "longitude": 106.63367,
        "address": "Spa Kim Hòa, 169 Đường Phan Huy Ích, Phường 15, Quận Tân Bình, Hồ Chí Minh, Việt Nam",
        "country_code": "VNM",
        "country_name": "Việt Nam",
        "city": "Hồ Chí Minh",
        "district": "Quận Tân Bình",
        "ward": "Phường 15",
        "street": "Đường Phan Huy Ích",
        "postal_code": "72109",
        "categories": [
            {
                "name": "Dịch vụ thương mại"
            }
        ]
    },
    {
        "name": "Biozym Ltd.Co",
        "latitude": 10.83156,
        "longitude": 106.63396,
        "address": "Biozym Ltd.Co, Hẻm 124 Phan Huy Ích, Phường 15, Quận Tân Bình, Hồ Chí Minh, Việt Nam",
        "country_code": "VNM",
        "country_name": "Việt Nam",
        "city": "Hồ Chí Minh",
        "district": "Quận Tân Bình",
        "ward": "Phường 15",
        "street": "Hẻm 124 Phan Huy Ích",
        "postal_code": "72109",
        "categories": [
            {
                "name": "Dịch vụ thương mại"
            }
        ]
    },
    {
        "name": "Kst's",
        "latitude": 10.81276,
        "longitude": 106.6224,
        "address": "Kst's, 229 Đường Tây Thạnh, Phường Tây Thạnh, Quận Tân Phú, Hồ Chí Minh, Việt Nam",
        "country_code": "VNM",
        "country_name": "Việt Nam",
        "city": "Hồ Chí Minh",
        "district": "Quận Tân Phú",
        "ward": "Phường Tây Thạnh",
        "street": "Đường Tây Thạnh",
        "postal_code": "72009",
        "categories": [
            {
                "name": "Dịch vụ thương mại"
            }
        ]
    },
    {
        "name": "Nhà Shin Milktea",
        "latitude": 10.81973,
        "longitude": 106.63621,
        "address": "Nhà Shin Milktea, Hẻm 70 Nguyễn Sĩ Sách, Phường 15, Quận Tân Bình, Hồ Chí Minh, Việt Nam",
        "country_code": "VNM",
        "country_name": "Việt Nam",
        "city": "Hồ Chí Minh",
        "district": "Quận Tân Bình",
        "ward": "Phường 15",
        "street": "Hẻm 70 Nguyễn Sĩ Sách",
        "postal_code": "72109",
        "categories": [
            {
                "name": "Dịch vụ thương mại"
            }
        ]
    },
    {
        "name": "Nước Hoa Charme - Charme Perfume",
        "latitude": 10.83603,
        "longitude": 106.61921,
        "address": "Nước Hoa Charme - Charme Perfume, Đường Trường Chinh, Phường Tân Thới Nhất, Quận 12, Hồ Chí Minh, Việt Nam",
        "country_code": "VNM",
        "country_name": "Việt Nam",
        "city": "Hồ Chí Minh",
        "district": "Quận 12",
        "ward": "Phường Tân Thới Nhất",
        "street": "Đường Trường Chinh",
        "postal_code": "71510",
        "categories": [
            {
                "name": "Dịch vụ thương mại"
            }
        ]
    },
    {
        "name": "Gym Tân Sơn Song Hành",
        "latitude": 10.81199,
        "longitude": 106.62903,
        "address": "Gym Tân Sơn Song Hành, 71 Đường Chế Lan Viên, Phường Tây Thạnh, Quận Tân Phú, Hồ Chí Minh, Việt Nam",
        "country_code": "VNM",
        "country_name": "Việt Nam",
        "city": "Hồ Chí Minh",
        "district": "Quận Tân Phú",
        "ward": "Phường Tây Thạnh",
        "street": "Đường Chế Lan Viên",
        "postal_code": "72009",
        "categories": [
            {
                "name": "Dịch vụ thương mại"
            }
        ]
    },
    {
        "name": "Sweet Bakery",
        "latitude": 10.82424,
        "longitude": 106.63815,
        "address": "Sweet Bakery, 207 Đường Nguyễn Phúc Chu, Phường 15, Quận Tân Bình, Hồ Chí Minh, Việt Nam",
        "country_code": "VNM",
        "country_name": "Việt Nam",
        "city": "Hồ Chí Minh",
        "district": "Quận Tân Bình",
        "ward": "Phường 15",
        "street": "Đường Nguyễn Phúc Chu",
        "postal_code": "72109",
        "categories": [
            {
                "name": "Dịch vụ thương mại"
            }
        ]
    },
    {
        "name": "Công Ty TNHH Đối Tác Bán Hàng",
        "latitude": 10.83031,
        "longitude": 106.6371,
        "address": "Công Ty TNHH Đối Tác Bán Hàng, 72 Đường Huỳnh Văn Nghệ, Phường 15, Quận Tân Bình, Hồ Chí Minh, Việt Nam",
        "country_code": "VNM",
        "country_name": "Việt Nam",
        "city": "Hồ Chí Minh",
        "district": "Quận Tân Bình",
        "ward": "Phường 15",
        "street": "Đường Huỳnh Văn Nghệ",
        "postal_code": "72109",
        "categories": [
            {
                "name": "Dịch vụ thương mại"
            }
        ]
    },
    {
        "name": "Hồng Ký Mì Gia",
        "latitude": 10.8109,
        "longitude": 106.62219,
        "address": "Hồng Ký Mì Gia, Đường B4, Phường Tây Thạnh, Quận Tân Phú, Hồ Chí Minh, Việt Nam",
        "country_code": "VNM",
        "country_name": "Việt Nam",
        "city": "Hồ Chí Minh",
        "district": "Quận Tân Phú",
        "ward": "Phường Tây Thạnh",
        "street": "Đường B4",
        "postal_code": "72009",
        "categories": [
            {
                "name": "Dịch vụ thương mại"
            }
        ]
    },
    {
        "name": "Khu Vườn Cổ Tích Kindergarden",
        "latitude": 10.83432,
        "longitude": 106.63468,
        "address": "Khu Vườn Cổ Tích Kindergarden, Đường Phan Huy Ích, Phường 14, Quận Gò Vấp, Hồ Chí Minh, Việt Nam",
        "country_code": "VNM",
        "country_name": "Việt Nam",
        "city": "Hồ Chí Minh",
        "district": "Quận Gò Vấp",
        "ward": "Phường 14",
        "street": "Đường Phan Huy Ích",
        "postal_code": "71418",
        "categories": [
            {
                "name": "Dịch vụ thương mại"
            }
        ]
    },
    {
        "name": "Sửa Tủ Lạnh, Máy Lạnh, Máy Giặt, Máy Tắm Nước Nóng Tại TP.HCM",
        "latitude": 10.81075,
        "longitude": 106.62578,
        "address": "Sửa Tủ Lạnh, Máy Lạnh, Máy Giặt, Máy Tắm Nước Nóng Tại TP.HCM, Đường Chế Lan Viên, Phường Tây Thạnh, Quận Tân Phú, Hồ Chí Minh, Việt Nam",
        "country_code": "VNM",
        "country_name": "Việt Nam",
        "city": "Hồ Chí Minh",
        "district": "Quận Tân Phú",
        "ward": "Phường Tây Thạnh",
        "street": "Đường Chế Lan Viên",
        "postal_code": "72009",
        "categories": [
            {
                "name": "Dịch vụ thương mại"
            }
        ]
    },
    {
        "name": "Thuốc Trị Bệnh Phụ Khoa Women's Day TP.HCM",
        "latitude": 10.83043,
        "longitude": 106.63749,
        "address": "Thuốc Trị Bệnh Phụ Khoa Women's Day TP.HCM, Đường Huỳnh Văn Nghệ, Phường 12, Quận Gò Vấp, Hồ Chí Minh, Việt Nam",
        "country_code": "VNM",
        "country_name": "Việt Nam",
        "city": "Hồ Chí Minh",
        "district": "Quận Gò Vấp",
        "ward": "Phường 12",
        "street": "Đường Huỳnh Văn Nghệ",
        "postal_code": "71420",
        "categories": [
            {
                "name": "Dịch vụ thương mại"
            }
        ]
    },
    {
        "name": "Tranh Cao Cấp",
        "latitude": 10.8286,
        "longitude": 106.63854,
        "address": "Tranh Cao Cấp, 42 Hẻm 42 Trần Thánh Tông, Phường 15, Quận Tân Bình, Hồ Chí Minh, Việt Nam",
        "country_code": "VNM",
        "country_name": "Việt Nam",
        "city": "Hồ Chí Minh",
        "district": "Quận Tân Bình",
        "ward": "Phường 15",
        "street": "Hẻm 42 Trần Thánh Tông",
        "postal_code": "72109",
        "categories": [
            {
                "name": "Dịch vụ thương mại"
            }
        ]
    },
    {
        "name": "Xuất Film, Vẽ Film Tạo Mẫu In Lụa Hồ Thống",
        "latitude": 10.82868,
        "longitude": 106.6386,
        "address": "Xuất Film, Vẽ Film Tạo Mẫu In Lụa Hồ Thống, 38 Hẻm 26 Đường Trần Thánh Tông, Phường 15, Quận Tân Bình, Hồ Chí Minh, Việt Nam",
        "country_code": "VNM",
        "country_name": "Việt Nam",
        "city": "Hồ Chí Minh",
        "district": "Quận Tân Bình",
        "ward": "Phường 15",
        "street": "Hẻm 26 Đường Trần Thánh Tông",
        "postal_code": "72109",
        "categories": [
            {
                "name": "Dịch vụ thương mại"
            }
        ]
    },
    {
        "name": "Minh Boutique",
        "latitude": 10.81027,
        "longitude": 106.6228,
        "address": "Minh Boutique, 40 Hẻm 37 Đường B3, Phường Tây Thạnh, Quận Tân Phú, Hồ Chí Minh, Việt Nam",
        "country_code": "VNM",
        "country_name": "Việt Nam",
        "city": "Hồ Chí Minh",
        "district": "Quận Tân Phú",
        "ward": "Phường Tây Thạnh",
        "street": "Hẻm 37 Đường B3",
        "postal_code": "72009",
        "categories": [
            {
                "name": "Dịch vụ thương mại"
            }
        ]
    },
    {
        "name": "Xưởng May Chuyên Sỉ HM",
        "latitude": 10.82714,
        "longitude": 106.63902,
        "address": "Xưởng May Chuyên Sỉ HM, Đường Cống Lở, Phường 15, Quận Tân Bình, Hồ Chí Minh, Việt Nam",
        "country_code": "VNM",
        "country_name": "Việt Nam",
        "city": "Hồ Chí Minh",
        "district": "Quận Tân Bình",
        "ward": "Phường 15",
        "street": "Đường Cống Lở",
        "postal_code": "72109",
        "categories": [
            {
                "name": "Dịch vụ thương mại"
            }
        ]
    },
    {
        "name": "Bubble Gum",
        "latitude": 10.83328,
        "longitude": 106.63643,
        "address": "Bubble Gum, 17 Đường Nguyễn Tư Giản, Phường 12, Quận Gò Vấp, Hồ Chí Minh, Việt Nam",
        "country_code": "VNM",
        "country_name": "Việt Nam",
        "city": "Hồ Chí Minh",
        "district": "Quận Gò Vấp",
        "ward": "Phường 12",
        "street": "Đường Nguyễn Tư Giản",
        "postal_code": "71420",
        "categories": [
            {
                "name": "Dịch vụ thương mại"
            }
        ]
    },
    {
        "name": "Master Car Care",
        "latitude": 10.81964,
        "longitude": 106.6385,
        "address": "Master Car Care, Đường Tân Sơn, Phường 15, Quận Tân Bình, Hồ Chí Minh, Việt Nam",
        "country_code": "VNM",
        "country_name": "Việt Nam",
        "city": "Hồ Chí Minh",
        "district": "Quận Tân Bình",
        "ward": "Phường 15",
        "street": "Đường Tân Sơn",
        "postal_code": "72109",
        "categories": [
            {
                "name": "Dịch vụ thương mại"
            }
        ]
    },
    {
        "name": "PK Nữ Oa - Giữ Lửa Hạnh Phúc",
        "latitude": 10.83161,
        "longitude": 106.61125,
        "address": "PK Nữ Oa - Giữ Lửa Hạnh Phúc, 287 Đường Phan Văn Hớn, Phường Tân Thới Nhất, Quận 12, Hồ Chí Minh, Việt Nam",
        "country_code": "VNM",
        "country_name": "Việt Nam",
        "city": "Hồ Chí Minh",
        "district": "Quận 12",
        "ward": "Phường Tân Thới Nhất",
        "street": "Đường Phan Văn Hớn",
        "postal_code": "71510",
        "categories": [
            {
                "name": "Dịch vụ thương mại"
            }
        ]
    },
    {
        "name": "Ví Da Bóp Da Khắc Tên Giá Rẻ",
        "latitude": 10.83161,
        "longitude": 106.61125,
        "address": "Ví Da Bóp Da Khắc Tên Giá Rẻ, 287 Đường Phan Văn Hớn, Phường Tân Thới Nhất, Quận 12, Hồ Chí Minh, Việt Nam",
        "country_code": "VNM",
        "country_name": "Việt Nam",
        "city": "Hồ Chí Minh",
        "district": "Quận 12",
        "ward": "Phường Tân Thới Nhất",
        "street": "Đường Phan Văn Hớn",
        "postal_code": "71510",
        "categories": [
            {
                "name": "Dịch vụ thương mại"
            }
        ]
    },
    {
        "name": "Rdsoft Co., Ltd",
        "latitude": 10.81089,
        "longitude": 106.61859,
        "address": "Rdsoft Co., Ltd, 51 Đường T4B, Phường Tây Thạnh, Quận Tân Phú, Hồ Chí Minh, Việt Nam",
        "country_code": "VNM",
        "country_name": "Việt Nam",
        "city": "Hồ Chí Minh",
        "district": "Quận Tân Phú",
        "ward": "Phường Tây Thạnh",
        "street": "Đường T4B",
        "postal_code": "72009",
        "categories": [
            {
                "name": "Dịch vụ thương mại"
            }
        ]
    },
    {
        "name": "Ăn Vặt Măm Măm",
        "latitude": 10.81778,
        "longitude": 106.63807,
        "address": "Ăn Vặt Măm Măm, Đường Tân Sơn, Phường 15, Quận Tân Bình, Hồ Chí Minh, Việt Nam",
        "country_code": "VNM",
        "country_name": "Việt Nam",
        "city": "Hồ Chí Minh",
        "district": "Quận Tân Bình",
        "ward": "Phường 15",
        "street": "Đường Tân Sơn",
        "postal_code": "72109",
        "categories": [
            {
                "name": "Dịch vụ thương mại"
            }
        ]
    },
    {
        "name": "Thiết Bị Điện Phương Lai",
        "latitude": 10.82017,
        "longitude": 106.6097,
        "address": "Thiết Bị Điện Phương Lai, 232 Đường Số 18, Phường Bình Hưng Hòa, Quận Bình Tân, Hồ Chí Minh, Việt Nam",
        "country_code": "VNM",
        "country_name": "Việt Nam",
        "city": "Hồ Chí Minh",
        "district": "Quận Bình Tân",
        "ward": "Phường Bình Hưng Hòa",
        "street": "Đường Số 18",
        "postal_code": "71913",
        "categories": [
            {
                "name": "Dịch vụ thương mại"
            },
            {
                "name": "Cửa hàng điện tử gia dụng"
            },
            {
                "name": "Cửa hàng bán lẻ điện thoại di động"
            }
        ]
    },
    {
        "name": "Webgiare",
        "latitude": 10.82487,
        "longitude": 106.64011,
        "address": "Webgiare, 286 Đường Phạm Văn Bạch, Phường 15, Quận Tân Bình, Hồ Chí Minh, Việt Nam",
        "country_code": "VNM",
        "country_name": "Việt Nam",
        "city": "Hồ Chí Minh",
        "district": "Quận Tân Bình",
        "ward": "Phường 15",
        "street": "Đường Phạm Văn Bạch",
        "postal_code": "72109",
        "categories": [
            {
                "name": "Dịch vụ thương mại"
            }
        ]
    },
    {
        "name": "Shop Bao Cao Su Tphcm Ltv",
        "latitude": 10.8094,
        "longitude": 106.62703,
        "address": "Shop Bao Cao Su Tphcm Ltv, Đường Dương Đức Hiền, Phường Tây Thạnh, Quận Tân Phú, Hồ Chí Minh, Việt Nam",
        "country_code": "VNM",
        "country_name": "Việt Nam",
        "city": "Hồ Chí Minh",
        "district": "Quận Tân Phú",
        "ward": "Phường Tây Thạnh",
        "street": "Đường Dương Đức Hiền",
        "postal_code": "72009",
        "categories": [
            {
                "name": "Dịch vụ thương mại"
            }
        ]
    },
    {
        "name": "Newpos.VN - Giải Pháp Quản Lý Cho Mọi Mô Hình Kinh Doanh",
        "latitude": 10.82562,
        "longitude": 106.64026,
        "address": "Newpos.VN - Giải Pháp Quản Lý Cho Mọi Mô Hình Kinh Doanh, 537 Đường Phạm Văn Bạch, Phường 15, Quận Tân Bình, Hồ Chí Minh, Việt Nam",
        "country_code": "VNM",
        "country_name": "Việt Nam",
        "city": "Hồ Chí Minh",
        "district": "Quận Tân Bình",
        "ward": "Phường 15",
        "street": "Đường Phạm Văn Bạch",
        "postal_code": "72109",
        "categories": [
            {
                "name": "Dịch vụ thương mại"
            }
        ]
    },
    {
        "name": "Trung Tâm Thương Mại Châu Đức",
        "latitude": 10.83946,
        "longitude": 106.61911,
        "address": "Trung Tâm Thương Mại Châu Đức, Đường Đông Hưng Thuận 5, Phường Tân Hưng Thuận, Quận 12, Hồ Chí Minh, Việt Nam",
        "country_code": "VNM",
        "country_name": "Việt Nam",
        "city": "Hồ Chí Minh",
        "district": "Quận 12",
        "ward": "Phường Tân Hưng Thuận",
        "street": "Đường Đông Hưng Thuận 5",
        "postal_code": "71509",
        "categories": [
            {
                "name": "Dịch vụ thương mại"
            }
        ]
    },
    {
        "name": "PTM Fashion - Xưởng Chuyên Sỉ",
        "latitude": 10.83076,
        "longitude": 106.60959,
        "address": "PTM Fashion - Xưởng Chuyên Sỉ, 30 Hẻm 38 Đường Tân Thới Nhất 7, Phường Tân Thới Nhất, Quận 12, Hồ Chí Minh, Việt Nam",
        "country_code": "VNM",
        "country_name": "Việt Nam",
        "city": "Hồ Chí Minh",
        "district": "Quận 12",
        "ward": "Phường Tân Thới Nhất",
        "street": "Hẻm 38 Đường Tân Thới Nhất 7",
        "postal_code": "71510",
        "categories": [
            {
                "name": "Dịch vụ thương mại"
            }
        ]
    },
    {
        "name": "Style X",
        "latitude": 10.81024,
        "longitude": 106.61693,
        "address": "Style X, 30 Đường T8, Phường Tây Thạnh, Quận Tân Phú, Hồ Chí Minh, Việt Nam",
        "country_code": "VNM",
        "country_name": "Việt Nam",
        "city": "Hồ Chí Minh",
        "district": "Quận Tân Phú",
        "ward": "Phường Tây Thạnh",
        "street": "Đường T8",
        "postal_code": "72009",
        "categories": [
            {
                "name": "Dịch vụ thương mại"
            }
        ]
    },
    {
        "name": "Karaoke Song Am",
        "latitude": 10.84002,
        "longitude": 106.61611,
        "address": "Karaoke Song Am, Đường Trường Chinh, Phường Tân Thới Nhất, Quận 12, Hồ Chí Minh, Việt Nam",
        "country_code": "VNM",
        "country_name": "Việt Nam",
        "city": "Hồ Chí Minh",
        "district": "Quận 12",
        "ward": "Phường Tân Thới Nhất",
        "street": "Đường Trường Chinh",
        "postal_code": "71510",
        "categories": [
            {
                "name": "Dịch vụ thương mại"
            }
        ]
    },
    {
        "name": "Haus Phát Tiến",
        "latitude": 10.80835,
        "longitude": 106.61791,
        "address": "Haus Phát Tiến, 391 Đường Lê Trọng Tấn, Phường Tây Thạnh, Quận Tân Phú, Hồ Chí Minh, Việt Nam",
        "country_code": "VNM",
        "country_name": "Việt Nam",
        "city": "Hồ Chí Minh",
        "district": "Quận Tân Phú",
        "ward": "Phường Tây Thạnh",
        "street": "Đường Lê Trọng Tấn",
        "postal_code": "72009",
        "categories": [
            {
                "name": "Dịch vụ thương mại"
            }
        ]
    },
    {
        "name": "Ngũ Cốc Sấy Khô Calbee Giảm Cân",
        "latitude": 10.82947,
        "longitude": 106.64167,
        "address": "Ngũ Cốc Sấy Khô Calbee Giảm Cân, 454 Đường Phạm Văn Bạch, Phường 12, Quận Gò Vấp, Hồ Chí Minh, Việt Nam",
        "country_code": "VNM",
        "country_name": "Việt Nam",
        "city": "Hồ Chí Minh",
        "district": "Quận Gò Vấp",
        "ward": "Phường 12",
        "street": "Đường Phạm Văn Bạch",
        "postal_code": "71420",
        "categories": [
            {
                "name": "Dịch vụ thương mại"
            }
        ]
    },
    {
        "name": "Ngoại Ngữ - Tin Học",
        "latitude": 10.8378,
        "longitude": 106.6364,
        "address": "Ngoại Ngữ - Tin Học, Đường Phan Huy Ích, Phường 14, Quận Gò Vấp, Hồ Chí Minh, Việt Nam",
        "country_code": "VNM",
        "country_name": "Việt Nam",
        "city": "Hồ Chí Minh",
        "district": "Quận Gò Vấp",
        "ward": "Phường 14",
        "street": "Đường Phan Huy Ích",
        "postal_code": "71418",
        "categories": [
            {
                "name": "Dịch vụ thương mại"
            }
        ]
    },
    {
        "name": "Xưởng Sản Xuất Mascot",
        "latitude": 10.83537,
        "longitude": 106.63877,
        "address": "Xưởng Sản Xuất Mascot, Đường Bùi Quang Là, Phường 12, Quận Gò Vấp, Hồ Chí Minh, Việt Nam",
        "country_code": "VNM",
        "country_name": "Việt Nam",
        "city": "Hồ Chí Minh",
        "district": "Quận Gò Vấp",
        "ward": "Phường 12",
        "street": "Đường Bùi Quang Là",
        "postal_code": "71420",
        "categories": [
            {
                "name": "Dịch vụ thương mại"
            }
        ]
    },
    {
        "name": "Maxivic Garment Factory",
        "latitude": 10.83475,
        "longitude": 106.60974,
        "address": "Maxivic Garment Factory, Đường Tân Thới Nhất 6, Phường Tân Thới Nhất, Quận 12, Hồ Chí Minh, Việt Nam",
        "country_code": "VNM",
        "country_name": "Việt Nam",
        "city": "Hồ Chí Minh",
        "district": "Quận 12",
        "ward": "Phường Tân Thới Nhất",
        "street": "Đường Tân Thới Nhất 6",
        "postal_code": "71510",
        "categories": [
            {
                "name": "Dịch vụ thương mại"
            }
        ]
    },
    {
        "name": "Cao Gừng - Triệt Tan Mỡ Bụng",
        "latitude": 10.8349,
        "longitude": 106.63943,
        "address": "Cao Gừng - Triệt Tan Mỡ Bụng, Đường Bùi Quang Là, Phường 12, Quận Gò Vấp, Hồ Chí Minh, Việt Nam",
        "country_code": "VNM",
        "country_name": "Việt Nam",
        "city": "Hồ Chí Minh",
        "district": "Quận Gò Vấp",
        "ward": "Phường 12",
        "street": "Đường Bùi Quang Là",
        "postal_code": "71420",
        "categories": [
            {
                "name": "Dịch vụ thương mại"
            }
        ]
    },
    {
        "name": "Belle Boutique",
        "latitude": 10.83904,
        "longitude": 106.63535,
        "address": "Belle Boutique, Hẻm 331/49 Phan Huy Ích, Phường 14, Quận Gò Vấp, Hồ Chí Minh, Việt Nam",
        "country_code": "VNM",
        "country_name": "Việt Nam",
        "city": "Hồ Chí Minh",
        "district": "Quận Gò Vấp",
        "ward": "Phường 14",
        "street": "Hẻm 331/49 Phan Huy Ích",
        "postal_code": "71418",
        "categories": [
            {
                "name": "Dịch vụ thương mại"
            }
        ]
    },
    {
        "name": "Mayya",
        "latitude": 10.83503,
        "longitude": 106.63942,
        "address": "Mayya, Đường Bùi Quang Là, Phường 12, Quận Gò Vấp, Hồ Chí Minh, Việt Nam",
        "country_code": "VNM",
        "country_name": "Việt Nam",
        "city": "Hồ Chí Minh",
        "district": "Quận Gò Vấp",
        "ward": "Phường 12",
        "street": "Đường Bùi Quang Là",
        "postal_code": "71420",
        "categories": [
            {
                "name": "Dịch vụ thương mại"
            }
        ]
    },
    {
        "name": "Nem Tré Cô Thảo",
        "latitude": 10.80663,
        "longitude": 106.62528,
        "address": "Nem Tré Cô Thảo, 187 Đường Lê Trọng Tấn, Phường Tây Thạnh, Quận Tân Phú, Hồ Chí Minh, Việt Nam",
        "country_code": "VNM",
        "country_name": "Việt Nam",
        "city": "Hồ Chí Minh",
        "district": "Quận Tân Phú",
        "ward": "Phường Tây Thạnh",
        "street": "Đường Lê Trọng Tấn",
        "postal_code": "72009",
        "categories": [
            {
                "name": "Dịch vụ thương mại"
            },
            {
                "name": "Đặc sản & Đồ uống"
            },
            {
                "name": "Liên lạc và truyền thông"
            }
        ]
    },
    {
        "name": "Solar Coffee Celadon City Aeon Mall",
        "latitude": 10.80673,
        "longitude": 106.62172,
        "address": "Solar Coffee Celadon City Aeon Mall, 18 Đường Tân Thắng, Phường Sơn Kỳ, Quận Tân Phú, Hồ Chí Minh, Việt Nam",
        "country_code": "VNM",
        "country_name": "Việt Nam",
        "city": "Hồ Chí Minh",
        "district": "Quận Tân Phú",
        "ward": "Phường Sơn Kỳ",
        "street": "Đường Tân Thắng",
        "postal_code": "72010",
        "categories": [
            {
                "name": "Dịch vụ thương mại"
            }
        ]
    },
    {
        "name": "Trung Tâm Đào Tạo Nghề Việt Đức",
        "latitude": 10.80686,
        "longitude": 106.62083,
        "address": "Trung Tâm Đào Tạo Nghề Việt Đức, Đường Bờ Bao 1, Phường Sơn Kỳ, Quận Tân Phú, Hồ Chí Minh, Việt Nam",
        "country_code": "VNM",
        "country_name": "Việt Nam",
        "city": "Hồ Chí Minh",
        "district": "Quận Tân Phú",
        "ward": "Phường Sơn Kỳ",
        "street": "Đường Bờ Bao 1",
        "postal_code": "72010",
        "categories": [
            {
                "name": "Dịch vụ thương mại"
            }
        ]
    },
    {
        "name": "Thế Giới Điện Neo",
        "latitude": 10.80658,
        "longitude": 106.62626,
        "address": "Thế Giới Điện Neo, 184 Hẻm 532/1 Lê Trọng Tấn, Phường Tây Thạnh, Quận Tân Phú, Hồ Chí Minh, Việt Nam",
        "country_code": "VNM",
        "country_name": "Việt Nam",
        "city": "Hồ Chí Minh",
        "district": "Quận Tân Phú",
        "ward": "Phường Tây Thạnh",
        "street": "Hẻm 532/1 Lê Trọng Tấn",
        "postal_code": "72009",
        "categories": [
            {
                "name": "Dịch vụ thương mại"
            }
        ]
    },
    {
        "name": "Food Inf",
        "latitude": 10.80649,
        "longitude": 106.62858,
        "address": "Food Inf, 140 Đường Lê Trọng Tấn, Phường Tây Thạnh, Quận Tân Phú, Hồ Chí Minh, Việt Nam",
        "country_code": "VNM",
        "country_name": "Việt Nam",
        "city": "Hồ Chí Minh",
        "district": "Quận Tân Phú",
        "ward": "Phường Tây Thạnh",
        "street": "Đường Lê Trọng Tấn",
        "postal_code": "72009",
        "categories": [
            {
                "name": "Dịch vụ thương mại"
            }
        ]
    },
    {
        "name": "An Minh Thức",
        "latitude": 10.84267,
        "longitude": 106.62961,
        "address": "An Minh Thức, Đường ĐHT 10, Phường Đông Hưng Thuận, Quận 12, Hồ Chí Minh, Việt Nam",
        "country_code": "VNM",
        "country_name": "Việt Nam",
        "city": "Hồ Chí Minh",
        "district": "Quận 12",
        "ward": "Phường Đông Hưng Thuận",
        "street": "Đường ĐHT 10",
        "postal_code": "71508",
        "categories": [
            {
                "name": "Dịch vụ thương mại"
            }
        ]
    },
    {
        "name": "Sống Vui, Sống Khỏe Mỗi Ngày",
        "latitude": 10.80603,
        "longitude": 106.62808,
        "address": "Sống Vui, Sống Khỏe Mỗi Ngày, 133 Đường Lê Trọng Tấn, Phường Sơn Kỳ, Quận Tân Phú, Hồ Chí Minh, Việt Nam",
        "country_code": "VNM",
        "country_name": "Việt Nam",
        "city": "Hồ Chí Minh",
        "district": "Quận Tân Phú",
        "ward": "Phường Sơn Kỳ",
        "street": "Đường Lê Trọng Tấn",
        "postal_code": "72010",
        "categories": [
            {
                "name": "Dịch vụ thương mại"
            }
        ]
    },
    {
        "name": "Công Ty TNHH Tư Vấn Thiết Kế PCCC Tân Viên",
        "latitude": 10.84259,
        "longitude": 106.63079,
        "address": "Công Ty TNHH Tư Vấn Thiết Kế PCCC Tân Viên, Đường Nguyễn Văn Quá, Phường Đông Hưng Thuận, Quận 12, Hồ Chí Minh, Việt Nam",
        "country_code": "VNM",
        "country_name": "Việt Nam",
        "city": "Hồ Chí Minh",
        "district": "Quận 12",
        "ward": "Phường Đông Hưng Thuận",
        "street": "Đường Nguyễn Văn Quá",
        "postal_code": "71508",
        "categories": [
            {
                "name": "Dịch vụ thương mại"
            }
        ]
    },
    {
        "name": "THPT Mạc Đĩnh Chi - Q6",
        "latitude": 10.80496,
        "longitude": 106.62432,
        "address": "THPT Mạc Đĩnh Chi - Q6, Hẻm 30 Đỗ Nhuận, Phường Sơn Kỳ, Quận Tân Phú, Hồ Chí Minh, Việt Nam",
        "country_code": "VNM",
        "country_name": "Việt Nam",
        "city": "Hồ Chí Minh",
        "district": "Quận Tân Phú",
        "ward": "Phường Sơn Kỳ",
        "street": "Hẻm 30 Đỗ Nhuận",
        "postal_code": "72010",
        "categories": [
            {
                "name": "Dịch vụ thương mại"
            }
        ]
    },
    {
        "name": "Massage Linh Hà Sơn Kỳ Tân Phú",
        "latitude": 10.80521,
        "longitude": 106.62772,
        "address": "Massage Linh Hà Sơn Kỳ Tân Phú, 48 Đường Sơn Kỳ, Phường Sơn Kỳ, Quận Tân Phú, Hồ Chí Minh, Việt Nam",
        "country_code": "VNM",
        "country_name": "Việt Nam",
        "city": "Hồ Chí Minh",
        "district": "Quận Tân Phú",
        "ward": "Phường Sơn Kỳ",
        "street": "Đường Sơn Kỳ",
        "postal_code": "72010",
        "categories": [
            {
                "name": "Dịch vụ thương mại"
            }
        ]
    },
    {
        "name": "Ví Nam Cầm Tay Gucci",
        "latitude": 10.83579,
        "longitude": 106.64103,
        "address": "Ví Nam Cầm Tay Gucci, 32 Hẻm 79 Đường Bùi Quang Là, Phường 12, Quận Gò Vấp, Hồ Chí Minh, Việt Nam",
        "country_code": "VNM",
        "country_name": "Việt Nam",
        "city": "Hồ Chí Minh",
        "district": "Quận Gò Vấp",
        "ward": "Phường 12",
        "street": "Hẻm 79 Đường Bùi Quang Là",
        "postal_code": "71420",
        "categories": [
            {
                "name": "Dịch vụ thương mại"
            }
        ]
    },
    {
        "name": "Vicen Coffee - Năng Lượng Cà Phê Việt Nam",
        "latitude": 10.80532,
        "longitude": 106.62914,
        "address": "Vicen Coffee - Năng Lượng Cà Phê Việt Nam, 77 Đường Số 27, Phường Sơn Kỳ, Quận Tân Phú, Hồ Chí Minh, Việt Nam",
        "country_code": "VNM",
        "country_name": "Việt Nam",
        "city": "Hồ Chí Minh",
        "district": "Quận Tân Phú",
        "ward": "Phường Sơn Kỳ",
        "street": "Đường Số 27",
        "postal_code": "72010",
        "categories": [
            {
                "name": "Dịch vụ thương mại"
            }
        ]
    },
    {
        "name": "Thuê Đồ Thú Hở Mặt",
        "latitude": 10.80503,
        "longitude": 106.62779,
        "address": "Thuê Đồ Thú Hở Mặt, Đường Sơn Kỳ, Phường Sơn Kỳ, Quận Tân Phú, Hồ Chí Minh, Việt Nam",
        "country_code": "VNM",
        "country_name": "Việt Nam",
        "city": "Hồ Chí Minh",
        "district": "Quận Tân Phú",
        "ward": "Phường Sơn Kỳ",
        "street": "Đường Sơn Kỳ",
        "postal_code": "72010",
        "categories": [
            {
                "name": "Dịch vụ thương mại"
            }
        ]
    },
    {
        "name": "Cho Thuê Áo Dài Đám Hỏi",
        "latitude": 10.80503,
        "longitude": 106.62779,
        "address": "Cho Thuê Áo Dài Đám Hỏi, Đường Sơn Kỳ, Phường Sơn Kỳ, Quận Tân Phú, Hồ Chí Minh, Việt Nam",
        "country_code": "VNM",
        "country_name": "Việt Nam",
        "city": "Hồ Chí Minh",
        "district": "Quận Tân Phú",
        "ward": "Phường Sơn Kỳ",
        "street": "Đường Sơn Kỳ",
        "postal_code": "72010",
        "categories": [
            {
                "name": "Dịch vụ thương mại"
            }
        ]
    },
    {
        "name": "Min Store",
        "latitude": 10.84245,
        "longitude": 106.61529,
        "address": "Min Store, Đường Trường Chinh, Phường Tân Thới Nhất, Quận 12, Hồ Chí Minh, Việt Nam",
        "country_code": "VNM",
        "country_name": "Việt Nam",
        "city": "Hồ Chí Minh",
        "district": "Quận 12",
        "ward": "Phường Tân Thới Nhất",
        "street": "Đường Trường Chinh",
        "postal_code": "71510",
        "categories": [
            {
                "name": "Dịch vụ thương mại"
            }
        ]
    },
    {
        "name": "Trà Sữa Sơn Kỳ",
        "latitude": 10.80551,
        "longitude": 106.63045,
        "address": "Trà Sữa Sơn Kỳ, 73 Đường Lê Trọng Tấn, Phường Tây Thạnh, Quận Tân Phú, Hồ Chí Minh, Việt Nam",
        "country_code": "VNM",
        "country_name": "Việt Nam",
        "city": "Hồ Chí Minh",
        "district": "Quận Tân Phú",
        "ward": "Phường Tây Thạnh",
        "street": "Đường Lê Trọng Tấn",
        "postal_code": "72009",
        "categories": [
            {
                "name": "Dịch vụ thương mại"
            }
        ]
    },
    {
        "name": "Xe Nâng Hàng - Thiết Bị Công Nghiệp - CNSG",
        "latitude": 10.80574,
        "longitude": 106.63119,
        "address": "Xe Nâng Hàng - Thiết Bị Công Nghiệp - CNSG, Đường Nguyễn Hữu Dật, Phường Tây Thạnh, Quận Tân Phú, Hồ Chí Minh, Việt Nam",
        "country_code": "VNM",
        "country_name": "Việt Nam",
        "city": "Hồ Chí Minh",
        "district": "Quận Tân Phú",
        "ward": "Phường Tây Thạnh",
        "street": "Đường Nguyễn Hữu Dật",
        "postal_code": "72009",
        "categories": [
            {
                "name": "Dịch vụ thương mại"
            }
        ]
    },
    {
        "name": "Redexpress",
        "latitude": 10.83578,
        "longitude": 106.64146,
        "address": "Redexpress, Đường Bùi Quang Là, Phường 12, Quận Gò Vấp, Hồ Chí Minh, Việt Nam",
        "country_code": "VNM",
        "country_name": "Việt Nam",
        "city": "Hồ Chí Minh",
        "district": "Quận Gò Vấp",
        "ward": "Phường 12",
        "street": "Đường Bùi Quang Là",
        "postal_code": "71420",
        "categories": [
            {
                "name": "Dịch vụ thương mại"
            }
        ]
    },
    {
        "name": "Cửa Hàng Alinashop",
        "latitude": 10.84406,
        "longitude": 106.63001,
        "address": "Cửa Hàng Alinashop, Đường ĐHT 11, Phường Đông Hưng Thuận, Quận 12, Hồ Chí Minh, Việt Nam",
        "country_code": "VNM",
        "country_name": "Việt Nam",
        "city": "Hồ Chí Minh",
        "district": "Quận 12",
        "ward": "Phường Đông Hưng Thuận",
        "street": "Đường ĐHT 11",
        "postal_code": "71508",
        "categories": [
            {
                "name": "Dịch vụ thương mại"
            }
        ]
    },
    {
        "name": "Yến Sào Hoàng Hân",
        "latitude": 10.80444,
        "longitude": 106.62784,
        "address": "Yến Sào Hoàng Hân, Đường Sơn Kỳ, Phường Sơn Kỳ, Quận Tân Phú, Hồ Chí Minh, Việt Nam",
        "country_code": "VNM",
        "country_name": "Việt Nam",
        "city": "Hồ Chí Minh",
        "district": "Quận Tân Phú",
        "ward": "Phường Sơn Kỳ",
        "street": "Đường Sơn Kỳ",
        "postal_code": "72010",
        "categories": [
            {
                "name": "Dịch vụ thương mại"
            }
        ]
    },
    {
        "name": "Happylady",
        "latitude": 10.80444,
        "longitude": 106.6279,
        "address": "Happylady, Đường Sơn Kỳ, Phường Sơn Kỳ, Quận Tân Phú, Hồ Chí Minh, Việt Nam",
        "country_code": "VNM",
        "country_name": "Việt Nam",
        "city": "Hồ Chí Minh",
        "district": "Quận Tân Phú",
        "ward": "Phường Sơn Kỳ",
        "street": "Đường Sơn Kỳ",
        "postal_code": "72010",
        "categories": [
            {
                "name": "Dịch vụ thương mại"
            }
        ]
    },
    {
        "name": "Biến Tần Az - Tự Động Hóa",
        "latitude": 10.81062,
        "longitude": 106.60916,
        "address": "Biến Tần Az - Tự Động Hóa, 28 Đường DC7, Phường Sơn Kỳ, Quận Tân Phú, Hồ Chí Minh, Việt Nam",
        "country_code": "VNM",
        "country_name": "Việt Nam",
        "city": "Hồ Chí Minh",
        "district": "Quận Tân Phú",
        "ward": "Phường Sơn Kỳ",
        "street": "Đường DC7",
        "postal_code": "72010",
        "categories": [
            {
                "name": "Dịch vụ thương mại"
            }
        ]
    },
    {
        "name": "Vic Dinh",
        "latitude": 10.8041,
        "longitude": 106.6258,
        "address": "Vic Dinh, Đường Đỗ Nhuận, Phường Sơn Kỳ, Quận Tân Phú, Hồ Chí Minh, Việt Nam",
        "country_code": "VNM",
        "country_name": "Việt Nam",
        "city": "Hồ Chí Minh",
        "district": "Quận Tân Phú",
        "ward": "Phường Sơn Kỳ",
        "street": "Đường Đỗ Nhuận",
        "postal_code": "72010",
        "categories": [
            {
                "name": "Dịch vụ thương mại"
            }
        ]
    },
    {
        "name": "Hâm Shop",
        "latitude": 10.80403,
        "longitude": 106.62527,
        "address": "Hâm Shop, Hẻm 38 Đỗ Nhuận, Phường Sơn Kỳ, Quận Tân Phú, Hồ Chí Minh, Việt Nam",
        "country_code": "VNM",
        "country_name": "Việt Nam",
        "city": "Hồ Chí Minh",
        "district": "Quận Tân Phú",
        "ward": "Phường Sơn Kỳ",
        "street": "Hẻm 38 Đỗ Nhuận",
        "postal_code": "72010",
        "categories": [
            {
                "name": "Dịch vụ thương mại"
            }
        ]
    },
    {
        "name": "Cony House",
        "latitude": 10.83236,
        "longitude": 106.6441,
        "address": "Cony House, 555 Đường Tân Sơn, Phường 12, Quận Gò Vấp, Hồ Chí Minh, Việt Nam",
        "country_code": "VNM",
        "country_name": "Việt Nam",
        "city": "Hồ Chí Minh",
        "district": "Quận Gò Vấp",
        "ward": "Phường 12",
        "street": "Đường Tân Sơn",
        "postal_code": "71420",
        "categories": [
            {
                "name": "Dịch vụ thương mại"
            }
        ]
    },
    {
        "name": "Bún Phở Thanh Trà",
        "latitude": 10.81441,
        "longitude": 106.60573,
        "address": "Bún Phở Thanh Trà, 676 Đường Lê Trọng Tấn, Phường Bình Hưng Hòa, Quận Bình Tân, Hồ Chí Minh, Việt Nam",
        "country_code": "VNM",
        "country_name": "Việt Nam",
        "city": "Hồ Chí Minh",
        "district": "Quận Bình Tân",
        "ward": "Phường Bình Hưng Hòa",
        "street": "Đường Lê Trọng Tấn",
        "postal_code": "71913",
        "categories": [
            {
                "name": "Dịch vụ thương mại"
            }
        ]
    },
    {
        "name": "Kun-Mystery",
        "latitude": 10.83389,
        "longitude": 106.64447,
        "address": "Kun-Mystery, Đường Tân Sơn, Phường 12, Quận Gò Vấp, Hồ Chí Minh, Việt Nam",
        "country_code": "VNM",
        "country_name": "Việt Nam",
        "city": "Hồ Chí Minh",
        "district": "Quận Gò Vấp",
        "ward": "Phường 12",
        "street": "Đường Tân Sơn",
        "postal_code": "71420",
        "categories": [
            {
                "name": "Dịch vụ thương mại"
            }
        ]
    },
    {
        "name": "Thuê Đồ Múa Dân Tộc",
        "latitude": 10.80392,
        "longitude": 106.63229,
        "address": "Thuê Đồ Múa Dân Tộc, 15 Đường Lê Trọng Tấn, Phường Tây Thạnh, Quận Tân Phú, Hồ Chí Minh, Việt Nam",
        "country_code": "VNM",
        "country_name": "Việt Nam",
        "city": "Hồ Chí Minh",
        "district": "Quận Tân Phú",
        "ward": "Phường Tây Thạnh",
        "street": "Đường Lê Trọng Tấn",
        "postal_code": "72009",
        "categories": [
            {
                "name": "Dịch vụ thương mại"
            }
        ]
    },
    {
        "name": "Thời Trang - Ngoclux",
        "latitude": 10.83954,
        "longitude": 106.64129,
        "address": "Thời Trang - Ngoclux, Hẻm 138 Nguyễn Duy Cung, Phường 12, Quận Gò Vấp, Hồ Chí Minh, Việt Nam",
        "country_code": "VNM",
        "country_name": "Việt Nam",
        "city": "Hồ Chí Minh",
        "district": "Quận Gò Vấp",
        "ward": "Phường 12",
        "street": "Hẻm 138 Nguyễn Duy Cung",
        "postal_code": "71420",
        "categories": [
            {
                "name": "Dịch vụ thương mại"
            }
        ]
    },
    {
        "name": "Hóa Chất Vạn An",
        "latitude": 10.80269,
        "longitude": 106.62865,
        "address": "Hóa Chất Vạn An, Đường Tân Kỳ Tân Quý, Phường Tân Sơn Nhì, Quận Tân Phú, Hồ Chí Minh, Việt Nam",
        "country_code": "VNM",
        "country_name": "Việt Nam",
        "city": "Hồ Chí Minh",
        "district": "Quận Tân Phú",
        "ward": "Phường Tân Sơn Nhì",
        "street": "Đường Tân Kỳ Tân Quý",
        "postal_code": "72008",
        "categories": [
            {
                "name": "Dịch vụ thương mại"
            }
        ]
    },
    {
        "name": "Quạt Công Nghiệp Vietfan",
        "latitude": 10.82915,
        "longitude": 106.60202,
        "address": "Quạt Công Nghiệp Vietfan, 35 Hẻm 58 Đường Tiền Lân 12, Xã Bà Điểm, Huyện Hóc Môn, Hồ Chí Minh, Việt Nam",
        "country_code": "VNM",
        "country_name": "Việt Nam",
        "city": "Hồ Chí Minh",
        "district": "Huyện Hóc Môn",
        "ward": "Xã Bà Điểm",
        "street": "Hẻm 58 Đường Tiền Lân 12",
        "postal_code": "71714",
        "categories": [
            {
                "name": "Dịch vụ thương mại"
            }
        ]
    },
    {
        "name": "Trang's House",
        "latitude": 10.83925,
        "longitude": 106.6425,
        "address": "Trang's House, 162 Hẻm 135 Đường Nguyễn Duy Cung, Phường 12, Quận Gò Vấp, Hồ Chí Minh, Việt Nam",
        "country_code": "VNM",
        "country_name": "Việt Nam",
        "city": "Hồ Chí Minh",
        "district": "Quận Gò Vấp",
        "ward": "Phường 12",
        "street": "Hẻm 135 Đường Nguyễn Duy Cung",
        "postal_code": "71420",
        "categories": [
            {
                "name": "Dịch vụ thương mại"
            }
        ]
    },
    {
        "name": "Mật Ong Lương Thị",
        "latitude": 10.84271,
        "longitude": 106.63917,
        "address": "Mật Ong Lương Thị, Đường Phan Huy Ích, Phường 14, Quận Gò Vấp, Hồ Chí Minh, Việt Nam",
        "country_code": "VNM",
        "country_name": "Việt Nam",
        "city": "Hồ Chí Minh",
        "district": "Quận Gò Vấp",
        "ward": "Phường 14",
        "street": "Đường Phan Huy Ích",
        "postal_code": "71418",
        "categories": [
            {
                "name": "Dịch vụ thương mại"
            }
        ]
    },
    {
        "name": "Thoi Trang Tre Em Di N",
        "latitude": 10.81583,
        "longitude": 106.60262,
        "address": "Thoi Trang Tre Em Di N, 763 Đường Lê Trọng Tấn, Phường Bình Hưng Hòa, Quận Bình Tân, Hồ Chí Minh, Việt Nam",
        "country_code": "VNM",
        "country_name": "Việt Nam",
        "city": "Hồ Chí Minh",
        "district": "Quận Bình Tân",
        "ward": "Phường Bình Hưng Hòa",
        "street": "Đường Lê Trọng Tấn",
        "postal_code": "71913",
        "categories": [
            {
                "name": "Dịch vụ thương mại"
            }
        ]
    },
    {
        "name": "Dich Vu Du Lich Hoang Oanh",
        "latitude": 10.82444,
        "longitude": 106.60079,
        "address": "Dich Vu Du Lich Hoang Oanh, Hẻm 182 Hồ Văn Long, Phường Bình Hưng Hòa B, Quận Bình Tân, Hồ Chí Minh, Việt Nam",
        "country_code": "VNM",
        "country_name": "Việt Nam",
        "city": "Hồ Chí Minh",
        "district": "Quận Bình Tân",
        "ward": "Phường Bình Hưng Hòa B",
        "street": "Hẻm 182 Hồ Văn Long",
        "postal_code": "71914",
        "categories": [
            {
                "name": "Dịch vụ thương mại"
            }
        ]
    }
]
