[
    {
        "name": "Ngân Hàng TMCP Phát Triển Nhà TP.HCM - Trường Chinh",
        "latitude": 10.82668,
        "longitude": 106.62563,
        "address": "Ngân Hàng TMCP Phát Triển Nhà TP.HCM - Trường Chinh, 2 Đường Trường Chinh, Phường Tân Thới Nhất, Quận 12, Hồ Chí Minh, Việt Nam",
        "country_code": "VNM",
        "country_name": "Việt Nam",
        "city": "Hồ Chí Minh",
        "district": "Quận 12",
        "ward": "Phường Tân Thới Nhất",
        "street": "Đường Trường Chinh",
        "postal_code": "71510",
        "categories": [
            {
                "name": "Ngân hàng"
            }
        ]
    },
    {
        "name": "Ngân Hàng Phát Triển Nhà TP. HCM",
        "latitude": 10.82668,
        "longitude": 106.62563,
        "address": "Ngân Hàng Phát Triển Nhà TP. HCM, 2 Đường Trường Chinh, Phường Tân Thới Nhất, Quận 12, Hồ Chí Minh, Việt Nam",
        "country_code": "VNM",
        "country_name": "Việt Nam",
        "city": "Hồ Chí Minh",
        "district": "Quận 12",
        "ward": "Phường Tân Thới Nhất",
        "street": "Đường Trường Chinh",
        "postal_code": "71510",
        "categories": [
            {
                "name": "Ngân hàng"
            },
            {
                "name": "Máy rút tiền ATM"
            }
        ]
    },
    {
        "name": "Ngân Hàng TM CP Quân Đội (MB) - Phòng Giao Dịch Trường Chinh",
        "latitude": 10.826,
        "longitude": 106.62654,
        "address": "Ngân Hàng TM CP Quân Đội (MB) - Phòng Giao Dịch Trường Chinh, Cầu Tham Lương 2, Phường Đông Hưng Thuận, Quận 12, Hồ Chí Minh, Việt Nam",
        "country_code": "VNM",
        "country_name": "Việt Nam",
        "city": "Hồ Chí Minh",
        "district": "Quận 12",
        "ward": "Phường Đông Hưng Thuận",
        "street": "Cầu Tham Lương 2",
        "postal_code": "71508",
        "categories": [
            {
                "name": "Ngân hàng"
            }
        ]
    },
    {
        "name": "Ngân Hàng Sài Gòn Thương Tín",
        "latitude": 10.82639,
        "longitude": 106.62633,
        "address": "Ngân Hàng Sài Gòn Thương Tín, 38 Đường Trường Chinh, Phường Tân Hưng Thuận, Quận 12, Hồ Chí Minh, Việt Nam",
        "country_code": "VNM",
        "country_name": "Việt Nam",
        "city": "Hồ Chí Minh",
        "district": "Quận 12",
        "ward": "Phường Tân Hưng Thuận",
        "street": "Đường Trường Chinh",
        "postal_code": "71509",
        "categories": [
            {
                "name": "Ngân hàng"
            },
            {
                "name": "Máy rút tiền ATM"
            }
        ]
    },
    {
        "name": "PGD Trường Chinh-NG.H Đông Á",
        "latitude": 10.82674,
        "longitude": 106.62601,
        "address": "PGD Trường Chinh-NG.H Đông Á, Đường Trường Chinh, Phường Tân Hưng Thuận, Quận 12, Hồ Chí Minh, Việt Nam",
        "country_code": "VNM",
        "country_name": "Việt Nam",
        "city": "Hồ Chí Minh",
        "district": "Quận 12",
        "ward": "Phường Tân Hưng Thuận",
        "street": "Đường Trường Chinh",
        "postal_code": "71509",
        "categories": [
            {
                "name": "Ngân hàng"
            }
        ]
    },
    {
        "name": "Ngân Hàng NN & PT Nông Thôn",
        "latitude": 10.8267,
        "longitude": 106.6262,
        "address": "Ngân Hàng NN & PT Nông Thôn, 1/17BIS Đường Nguyễn Văn Quá, Phường Tân Hưng Thuận, Quận 12, Hồ Chí Minh, Việt Nam",
        "country_code": "VNM",
        "country_name": "Việt Nam",
        "city": "Hồ Chí Minh",
        "district": "Quận 12",
        "ward": "Phường Tân Hưng Thuận",
        "street": "Đường Nguyễn Văn Quá",
        "postal_code": "71509",
        "categories": [
            {
                "name": "Ngân hàng"
            },
            {
                "name": "Máy rút tiền ATM"
            }
        ]
    },
    {
        "name": "Ngân Hàng TMCP Đông Á - CN TP. Hồ Chí Minh",
        "latitude": 10.82685,
        "longitude": 106.62612,
        "address": "Ngân Hàng TMCP Đông Á - CN TP. Hồ Chí Minh, Đường Trường Chinh, Phường Tân Hưng Thuận, Quận 12, Hồ Chí Minh, Việt Nam",
        "country_code": "VNM",
        "country_name": "Việt Nam",
        "city": "Hồ Chí Minh",
        "district": "Quận 12",
        "ward": "Phường Tân Hưng Thuận",
        "street": "Đường Trường Chinh",
        "postal_code": "71509",
        "categories": [
            {
                "name": "Ngân hàng"
            }
        ]
    },
    {
        "name": "Á Châu",
        "latitude": 10.82485,
        "longitude": 106.6274,
        "address": "Á Châu, Cầu Tham Lương 2, Phường Tân Thới Nhất, Quận 12, Hồ Chí Minh, Việt Nam",
        "country_code": "VNM",
        "country_name": "Việt Nam",
        "city": "Hồ Chí Minh",
        "district": "Quận 12",
        "ward": "Phường Tân Thới Nhất",
        "street": "Cầu Tham Lương 2",
        "postal_code": "71510",
        "categories": [
            {
                "name": "Ngân hàng"
            }
        ]
    },
    {
        "name": "Ngân Hàng Chính Sách Xã Hội-Quận 12-Điểm Giao Dịch Tân Thới Nhất",
        "latitude": 10.82743,
        "longitude": 106.62331,
        "address": "Ngân Hàng Chính Sách Xã Hội-Quận 12-Điểm Giao Dịch Tân Thới Nhất, Đường Phan Văn Hớn, Phường Tân Thới Nhất, Quận 12, Hồ Chí Minh, Việt Nam",
        "country_code": "VNM",
        "country_name": "Việt Nam",
        "city": "Hồ Chí Minh",
        "district": "Quận 12",
        "ward": "Phường Tân Thới Nhất",
        "street": "Đường Phan Văn Hớn",
        "postal_code": "71510",
        "categories": [
            {
                "name": "Ngân hàng"
            }
        ]
    },
    {
        "name": "Ngân Hàng Nông Nghiệp & Phát Triển Nông Thôn Việt Nam (AgriBank) - Phòng Giao Dịch Số 3",
        "latitude": 10.82521,
        "longitude": 106.62769,
        "address": "Ngân Hàng Nông Nghiệp & Phát Triển Nông Thôn Việt Nam (AgriBank) - Phòng Giao Dịch Số 3, Đường Trường Chinh, Phường Đông Hưng Thuận, Quận 12, Hồ Chí Minh, Việt Nam",
        "country_code": "VNM",
        "country_name": "Việt Nam",
        "city": "Hồ Chí Minh",
        "district": "Quận 12",
        "ward": "Phường Đông Hưng Thuận",
        "street": "Đường Trường Chinh",
        "postal_code": "71508",
        "categories": [
            {
                "name": "Ngân hàng"
            }
        ]
    },
    {
        "name": "Ngân Hàng Phương Đông",
        "latitude": 10.82783,
        "longitude": 106.62457,
        "address": "Ngân Hàng Phương Đông, Đường Trường Chinh, Phường Tân Thới Nhất, Quận 12, Hồ Chí Minh, Việt Nam",
        "country_code": "VNM",
        "country_name": "Việt Nam",
        "city": "Hồ Chí Minh",
        "district": "Quận 12",
        "ward": "Phường Tân Thới Nhất",
        "street": "Đường Trường Chinh",
        "postal_code": "71510",
        "categories": [
            {
                "name": "Ngân hàng"
            }
        ]
    },
    {
        "name": "Pgbank",
        "latitude": 10.8278,
        "longitude": 106.62506,
        "address": "Pgbank, 106 Đường Trường Chinh, Phường Tân Hưng Thuận, Quận 12, Hồ Chí Minh, Việt Nam",
        "country_code": "VNM",
        "country_name": "Việt Nam",
        "city": "Hồ Chí Minh",
        "district": "Quận 12",
        "ward": "Phường Tân Hưng Thuận",
        "street": "Đường Trường Chinh",
        "postal_code": "71509",
        "categories": [
            {
                "name": "Ngân hàng"
            }
        ]
    },
    {
        "name": "Ngân Hàng Sài Gòn Thương Tín",
        "latitude": 10.82782,
        "longitude": 106.62518,
        "address": "Ngân Hàng Sài Gòn Thương Tín, Đường Trường Chinh, Phường Tân Hưng Thuận, Quận 12, Hồ Chí Minh, Việt Nam",
        "country_code": "VNM",
        "country_name": "Việt Nam",
        "city": "Hồ Chí Minh",
        "district": "Quận 12",
        "ward": "Phường Tân Hưng Thuận",
        "street": "Đường Trường Chinh",
        "postal_code": "71509",
        "categories": [
            {
                "name": "Ngân hàng"
            },
            {
                "name": "Máy rút tiền ATM"
            }
        ]
    },
    {
        "name": "Vietcombank",
        "latitude": 10.82783,
        "longitude": 106.62518,
        "address": "Vietcombank, Đường Trường Chinh, Phường Tân Hưng Thuận, Quận 12, Hồ Chí Minh, Việt Nam",
        "country_code": "VNM",
        "country_name": "Việt Nam",
        "city": "Hồ Chí Minh",
        "district": "Quận 12",
        "ward": "Phường Tân Hưng Thuận",
        "street": "Đường Trường Chinh",
        "postal_code": "71509",
        "categories": [
            {
                "name": "Ngân hàng"
            },
            {
                "name": "Máy rút tiền ATM"
            }
        ]
    },
    {
        "name": "Ngân Hàng TMCP Xăng Dầu Petrolimex-Phòng Giao Dịch Trường Chinh",
        "latitude": 10.82787,
        "longitude": 106.62515,
        "address": "Ngân Hàng TMCP Xăng Dầu Petrolimex-Phòng Giao Dịch Trường Chinh, Đường Trường Chinh, Phường Tân Hưng Thuận, Quận 12, Hồ Chí Minh, Việt Nam",
        "country_code": "VNM",
        "country_name": "Việt Nam",
        "city": "Hồ Chí Minh",
        "district": "Quận 12",
        "ward": "Phường Tân Hưng Thuận",
        "street": "Đường Trường Chinh",
        "postal_code": "71509",
        "categories": [
            {
                "name": "Ngân hàng"
            }
        ]
    },
    {
        "name": "Phương Nam",
        "latitude": 10.82804,
        "longitude": 106.62502,
        "address": "Phương Nam, 110 Đường Trường Chinh, Phường Tân Hưng Thuận, Quận 12, Hồ Chí Minh, Việt Nam",
        "country_code": "VNM",
        "country_name": "Việt Nam",
        "city": "Hồ Chí Minh",
        "district": "Quận 12",
        "ward": "Phường Tân Hưng Thuận",
        "street": "Đường Trường Chinh",
        "postal_code": "71509",
        "categories": [
            {
                "name": "Ngân hàng"
            }
        ]
    },
    {
        "name": "Ngân Hàng TMCP Quốc Tế Việt Nam-Chi Nhánh Quận 12",
        "latitude": 10.82845,
        "longitude": 106.62416,
        "address": "Ngân Hàng TMCP Quốc Tế Việt Nam-Chi Nhánh Quận 12, Đường Trường Chinh, Phường Tân Thới Nhất, Quận 12, Hồ Chí Minh, Việt Nam",
        "country_code": "VNM",
        "country_name": "Việt Nam",
        "city": "Hồ Chí Minh",
        "district": "Quận 12",
        "ward": "Phường Tân Thới Nhất",
        "street": "Đường Trường Chinh",
        "postal_code": "71510",
        "categories": [
            {
                "name": "Ngân hàng"
            }
        ]
    },
    {
        "name": "Ngân Hàng Phương Tây",
        "latitude": 10.82853,
        "longitude": 106.62411,
        "address": "Ngân Hàng Phương Tây, Đường Trường Chinh, Phường Tân Thới Nhất, Quận 12, Hồ Chí Minh, Việt Nam",
        "country_code": "VNM",
        "country_name": "Việt Nam",
        "city": "Hồ Chí Minh",
        "district": "Quận 12",
        "ward": "Phường Tân Thới Nhất",
        "street": "Đường Trường Chinh",
        "postal_code": "71510",
        "categories": [
            {
                "name": "Ngân hàng"
            }
        ]
    },
    {
        "name": "Vib",
        "latitude": 10.82868,
        "longitude": 106.62401,
        "address": "Vib, 97 Đường Trường Chinh, Phường Tân Thới Nhất, Quận 12, Hồ Chí Minh, Việt Nam",
        "country_code": "VNM",
        "country_name": "Việt Nam",
        "city": "Hồ Chí Minh",
        "district": "Quận 12",
        "ward": "Phường Tân Thới Nhất",
        "street": "Đường Trường Chinh",
        "postal_code": "71510",
        "categories": [
            {
                "name": "Ngân hàng"
            }
        ]
    },
    {
        "name": "Ngh Southembank",
        "latitude": 10.82877,
        "longitude": 106.62442,
        "address": "Ngh Southembank, Đường Trường Chinh, Phường Tân Hưng Thuận, Quận 12, Hồ Chí Minh, Việt Nam",
        "country_code": "VNM",
        "country_name": "Việt Nam",
        "city": "Hồ Chí Minh",
        "district": "Quận 12",
        "ward": "Phường Tân Hưng Thuận",
        "street": "Đường Trường Chinh",
        "postal_code": "71509",
        "categories": [
            {
                "name": "Ngân hàng"
            }
        ]
    },
    {
        "name": "56 Nguyễn Văn Quá",
        "latitude": 10.82862,
        "longitude": 106.62676,
        "address": "56 Nguyễn Văn Quá, Đường Nguyễn Văn Quá, Phường Tân Hưng Thuận, Quận 12, Hồ Chí Minh, Việt Nam",
        "country_code": "VNM",
        "country_name": "Việt Nam",
        "city": "Hồ Chí Minh",
        "district": "Quận 12",
        "ward": "Phường Tân Hưng Thuận",
        "street": "Đường Nguyễn Văn Quá",
        "postal_code": "71509",
        "categories": [
            {
                "name": "Ngân hàng"
            },
            {
                "name": "Nhà hàng"
            }
        ]
    },
    {
        "name": "Ngân Hàng Đông Á",
        "latitude": 10.82964,
        "longitude": 106.62387,
        "address": "Ngân Hàng Đông Á, Đường Trường Chinh, Phường Tân Hưng Thuận, Quận 12, Hồ Chí Minh, Việt Nam",
        "country_code": "VNM",
        "country_name": "Việt Nam",
        "city": "Hồ Chí Minh",
        "district": "Quận 12",
        "ward": "Phường Tân Hưng Thuận",
        "street": "Đường Trường Chinh",
        "postal_code": "71509",
        "categories": [
            {
                "name": "Ngân hàng"
            },
            {
                "name": "Máy rút tiền ATM"
            }
        ]
    },
    {
        "name": "Ngân Hàng TM CP Phương Nam (Southern Bank) - Phòng Giao Dịch Trường Chinh",
        "latitude": 10.8231,
        "longitude": 106.62948,
        "address": "Ngân Hàng TM CP Phương Nam (Southern Bank) - Phòng Giao Dịch Trường Chinh, Giao Lộ Ngã Ba Trường Chinh-Phan Huy Ích, Phường Tây Thạnh, Quận Tân Phú, Hồ Chí Minh, Việt Nam",
        "country_code": "VNM",
        "country_name": "Việt Nam",
        "city": "Hồ Chí Minh",
        "district": "Quận Tân Phú",
        "ward": "Phường Tây Thạnh",
        "street": "Giao Lộ Ngã Ba Trường Chinh-Phan Huy Ích",
        "postal_code": "72009",
        "categories": [
            {
                "name": "Ngân hàng"
            }
        ]
    },
    {
        "name": "Nhà Hàng Tiệc Cưới 156",
        "latitude": 10.82922,
        "longitude": 106.62684,
        "address": "Nhà Hàng Tiệc Cưới 156, Đường Nguyễn Văn Quá, Phường Tân Hưng Thuận, Quận 12, Hồ Chí Minh, Việt Nam",
        "country_code": "VNM",
        "country_name": "Việt Nam",
        "city": "Hồ Chí Minh",
        "district": "Quận 12",
        "ward": "Phường Tân Hưng Thuận",
        "street": "Đường Nguyễn Văn Quá",
        "postal_code": "71509",
        "categories": [
            {
                "name": "Ngân hàng"
            },
            {
                "name": "Trung tâm hội nghị"
            }
        ]
    },
    {
        "name": "Ngân Hàng TMCP Công Thương Việt Nam-Chi Nhánh 1-Phòng Giao Dịch Tân Định",
        "latitude": 10.8228,
        "longitude": 106.6294,
        "address": "Ngân Hàng TMCP Công Thương Việt Nam-Chi Nhánh 1-Phòng Giao Dịch Tân Định, Đường Trường Chinh, Phường Tây Thạnh, Quận Tân Phú, Hồ Chí Minh, Việt Nam",
        "country_code": "VNM",
        "country_name": "Việt Nam",
        "city": "Hồ Chí Minh",
        "district": "Quận Tân Phú",
        "ward": "Phường Tây Thạnh",
        "street": "Đường Trường Chinh",
        "postal_code": "72009",
        "categories": [
            {
                "name": "Ngân hàng"
            }
        ]
    },
    {
        "name": "Ngân Hàng TMCP Đông Á - TTGD 24H Số 09",
        "latitude": 10.82979,
        "longitude": 106.62386,
        "address": "Ngân Hàng TMCP Đông Á - TTGD 24H Số 09, 183/4 Hẻm 154 Trường Chinh, Phường Tân Hưng Thuận, Quận 12, Hồ Chí Minh, Việt Nam",
        "country_code": "VNM",
        "country_name": "Việt Nam",
        "city": "Hồ Chí Minh",
        "district": "Quận 12",
        "ward": "Phường Tân Hưng Thuận",
        "street": "Hẻm 154 Trường Chinh",
        "postal_code": "71509",
        "categories": [
            {
                "name": "Ngân hàng"
            },
            {
                "name": "Máy rút tiền ATM"
            }
        ]
    },
    {
        "name": "Ngân Hàng TMCP Sài Gòn Thương Tín",
        "latitude": 10.8231,
        "longitude": 106.62967,
        "address": "Ngân Hàng TMCP Sài Gòn Thương Tín, Đường Trường Chinh, Phường 15, Quận Tân Bình, Hồ Chí Minh, Việt Nam",
        "country_code": "VNM",
        "country_name": "Việt Nam",
        "city": "Hồ Chí Minh",
        "district": "Quận Tân Bình",
        "ward": "Phường 15",
        "street": "Đường Trường Chinh",
        "postal_code": "72109",
        "categories": [
            {
                "name": "Ngân hàng"
            }
        ]
    },
    {
        "name": "Ngân Hàng Nông Nghiệp & Phát Triển Nông Thôn Việt Nam (AgriBank) - CN Đông Sài Gòn",
        "latitude": 10.8231,
        "longitude": 106.62967,
        "address": "Ngân Hàng Nông Nghiệp & Phát Triển Nông Thôn Việt Nam (AgriBank) - CN Đông Sài Gòn, Đường Trường Chinh, Phường 15, Quận Tân Bình, Hồ Chí Minh, Việt Nam",
        "country_code": "VNM",
        "country_name": "Việt Nam",
        "city": "Hồ Chí Minh",
        "district": "Quận Tân Bình",
        "ward": "Phường 15",
        "street": "Đường Trường Chinh",
        "postal_code": "72109",
        "categories": [
            {
                "name": "Ngân hàng"
            }
        ]
    },
    {
        "name": "Giải Pháp Thanh Toán Việt Nam (Vnpay) TP. Hà Nội - VPĐD",
        "latitude": 10.8231,
        "longitude": 106.62967,
        "address": "Giải Pháp Thanh Toán Việt Nam (Vnpay) TP. Hà Nội - VPĐD, Đường Trường Chinh, Phường 15, Quận Tân Bình, Hồ Chí Minh, Việt Nam",
        "country_code": "VNM",
        "country_name": "Việt Nam",
        "city": "Hồ Chí Minh",
        "district": "Quận Tân Bình",
        "ward": "Phường 15",
        "street": "Đường Trường Chinh",
        "postal_code": "72109",
        "categories": [
            {
                "name": "Ngân hàng"
            }
        ]
    },
    {
        "name": "Ngh Southerbank",
        "latitude": 10.82282,
        "longitude": 106.63008,
        "address": "Ngh Southerbank, Đường Trường Chinh, Phường 15, Quận Tân Bình, Hồ Chí Minh, Việt Nam",
        "country_code": "VNM",
        "country_name": "Việt Nam",
        "city": "Hồ Chí Minh",
        "district": "Quận Tân Bình",
        "ward": "Phường 15",
        "street": "Đường Trường Chinh",
        "postal_code": "72109",
        "categories": [
            {
                "name": "Ngân hàng"
            }
        ]
    },
    {
        "name": "Ngân Hàng TMCP Sài Gòn-Phòng Giao Dịch An Sương",
        "latitude": 10.83063,
        "longitude": 106.62268,
        "address": "Ngân Hàng TMCP Sài Gòn-Phòng Giao Dịch An Sương, Đường Trường Chinh, Phường Tân Thới Nhất, Quận 12, Hồ Chí Minh, Việt Nam",
        "country_code": "VNM",
        "country_name": "Việt Nam",
        "city": "Hồ Chí Minh",
        "district": "Quận 12",
        "ward": "Phường Tân Thới Nhất",
        "street": "Đường Trường Chinh",
        "postal_code": "71510",
        "categories": [
            {
                "name": "Ngân hàng"
            }
        ]
    },
    {
        "name": "ATM SCB - Quận 12",
        "latitude": 10.83099,
        "longitude": 106.62312,
        "address": "ATM SCB - Quận 12, 220 Đường Trường Chinh, Phường Tân Hưng Thuận, Quận 12, Hồ Chí Minh, Việt Nam",
        "country_code": "VNM",
        "country_name": "Việt Nam",
        "city": "Hồ Chí Minh",
        "district": "Quận 12",
        "ward": "Phường Tân Hưng Thuận",
        "street": "Đường Trường Chinh",
        "postal_code": "71509",
        "categories": [
            {
                "name": "Ngân hàng"
            }
        ]
    },
    {
        "name": "Ngân Hàng Ngoại Thương Việt Nam",
        "latitude": 10.83099,
        "longitude": 106.62312,
        "address": "Ngân Hàng Ngoại Thương Việt Nam, 220 Đường Trường Chinh, Phường Tân Hưng Thuận, Quận 12, Hồ Chí Minh, Việt Nam",
        "country_code": "VNM",
        "country_name": "Việt Nam",
        "city": "Hồ Chí Minh",
        "district": "Quận 12",
        "ward": "Phường Tân Hưng Thuận",
        "street": "Đường Trường Chinh",
        "postal_code": "71509",
        "categories": [
            {
                "name": "Ngân hàng"
            },
            {
                "name": "Máy rút tiền ATM"
            }
        ]
    },
    {
        "name": "MSB An Sương",
        "latitude": 10.831,
        "longitude": 106.623,
        "address": "MSB An Sương, 207 Đường Trường Chinh, Phường Tân Hưng Thuận, Quận 12, Hồ Chí Minh, Việt Nam",
        "country_code": "VNM",
        "country_name": "Việt Nam",
        "city": "Hồ Chí Minh",
        "district": "Quận 12",
        "ward": "Phường Tân Hưng Thuận",
        "street": "Đường Trường Chinh",
        "postal_code": "71509",
        "categories": [
            {
                "name": "Ngân hàng"
            },
            {
                "name": "Máy rút tiền ATM"
            }
        ]
    },
    {
        "name": "Ngân Hàng TMCP Ngoại Thương Việt Nam",
        "latitude": 10.83106,
        "longitude": 106.62309,
        "address": "Ngân Hàng TMCP Ngoại Thương Việt Nam, Đường Trường Chinh, Phường Tân Hưng Thuận, Quận 12, Hồ Chí Minh, Việt Nam",
        "country_code": "VNM",
        "country_name": "Việt Nam",
        "city": "Hồ Chí Minh",
        "district": "Quận 12",
        "ward": "Phường Tân Hưng Thuận",
        "street": "Đường Trường Chinh",
        "postal_code": "71509",
        "categories": [
            {
                "name": "Ngân hàng"
            }
        ]
    },
    {
        "name": "Saigonbank",
        "latitude": 10.83112,
        "longitude": 106.62302,
        "address": "Saigonbank, 218 Đường Trường Chinh, Phường Tân Hưng Thuận, Quận 12, Hồ Chí Minh, Việt Nam",
        "country_code": "VNM",
        "country_name": "Việt Nam",
        "city": "Hồ Chí Minh",
        "district": "Quận 12",
        "ward": "Phường Tân Hưng Thuận",
        "street": "Đường Trường Chinh",
        "postal_code": "71509",
        "categories": [
            {
                "name": "Ngân hàng"
            },
            {
                "name": "Máy rút tiền ATM"
            }
        ]
    },
    {
        "name": "Ngh Vcb",
        "latitude": 10.83115,
        "longitude": 106.62288,
        "address": "Ngh Vcb, Đường Trường Chinh, Phường Tân Hưng Thuận, Quận 12, Hồ Chí Minh, Việt Nam",
        "country_code": "VNM",
        "country_name": "Việt Nam",
        "city": "Hồ Chí Minh",
        "district": "Quận 12",
        "ward": "Phường Tân Hưng Thuận",
        "street": "Đường Trường Chinh",
        "postal_code": "71509",
        "categories": [
            {
                "name": "Ngân hàng"
            }
        ]
    },
    {
        "name": "Ngân Hàng Việt Nam Thịnh Vượng",
        "latitude": 10.83119,
        "longitude": 106.62225,
        "address": "Ngân Hàng Việt Nam Thịnh Vượng, Đường Trường Chinh, Phường Tân Thới Nhất, Quận 12, Hồ Chí Minh, Việt Nam",
        "country_code": "VNM",
        "country_name": "Việt Nam",
        "city": "Hồ Chí Minh",
        "district": "Quận 12",
        "ward": "Phường Tân Thới Nhất",
        "street": "Đường Trường Chinh",
        "postal_code": "71510",
        "categories": [
            {
                "name": "Ngân hàng"
            },
            {
                "name": "Máy rút tiền ATM"
            }
        ]
    },
    {
        "name": "Ngh Abb",
        "latitude": 10.8312,
        "longitude": 106.62228,
        "address": "Ngh Abb, Đường Trường Chinh, Phường Tân Thới Nhất, Quận 12, Hồ Chí Minh, Việt Nam",
        "country_code": "VNM",
        "country_name": "Việt Nam",
        "city": "Hồ Chí Minh",
        "district": "Quận 12",
        "ward": "Phường Tân Thới Nhất",
        "street": "Đường Trường Chinh",
        "postal_code": "71510",
        "categories": [
            {
                "name": "Ngân hàng"
            }
        ]
    },
    {
        "name": "NGH AgriBank PGD Tân Bình",
        "latitude": 10.81781,
        "longitude": 106.62593,
        "address": "NGH AgriBank PGD Tân Bình, Đường CN3, Phường Tây Thạnh, Quận Tân Phú, Hồ Chí Minh, Việt Nam",
        "country_code": "VNM",
        "country_name": "Việt Nam",
        "city": "Hồ Chí Minh",
        "district": "Quận Tân Phú",
        "ward": "Phường Tây Thạnh",
        "street": "Đường CN3",
        "postal_code": "72009",
        "categories": [
            {
                "name": "Ngân hàng"
            }
        ]
    },
    {
        "name": "Vpbank",
        "latitude": 10.83128,
        "longitude": 106.62228,
        "address": "Vpbank, Đường Trường Chinh, Phường Tân Thới Nhất, Quận 12, Hồ Chí Minh, Việt Nam",
        "country_code": "VNM",
        "country_name": "Việt Nam",
        "city": "Hồ Chí Minh",
        "district": "Quận 12",
        "ward": "Phường Tân Thới Nhất",
        "street": "Đường Trường Chinh",
        "postal_code": "71510",
        "categories": [
            {
                "name": "Ngân hàng"
            }
        ]
    },
    {
        "name": "Ngh Southernbank",
        "latitude": 10.8315,
        "longitude": 106.62277,
        "address": "Ngh Southernbank, Đường Trường Chinh, Phường Tân Hưng Thuận, Quận 12, Hồ Chí Minh, Việt Nam",
        "country_code": "VNM",
        "country_name": "Việt Nam",
        "city": "Hồ Chí Minh",
        "district": "Quận 12",
        "ward": "Phường Tân Hưng Thuận",
        "street": "Đường Trường Chinh",
        "postal_code": "71509",
        "categories": [
            {
                "name": "Ngân hàng"
            }
        ]
    },
    {
        "name": "Sacombank",
        "latitude": 10.8315,
        "longitude": 106.62277,
        "address": "Sacombank, 230 Đường Trường Chinh, Phường Tân Hưng Thuận, Quận 12, Hồ Chí Minh, Việt Nam",
        "country_code": "VNM",
        "country_name": "Việt Nam",
        "city": "Hồ Chí Minh",
        "district": "Quận 12",
        "ward": "Phường Tân Hưng Thuận",
        "street": "Đường Trường Chinh",
        "postal_code": "71509",
        "categories": [
            {
                "name": "Ngân hàng"
            },
            {
                "name": "Máy rút tiền ATM"
            }
        ]
    },
    {
        "name": "Ngân Hàng Sài Gòn Thương Tín",
        "latitude": 10.8315,
        "longitude": 106.62277,
        "address": "Ngân Hàng Sài Gòn Thương Tín, 230 Đường Trường Chinh, Phường Tân Hưng Thuận, Quận 12, Hồ Chí Minh, Việt Nam",
        "country_code": "VNM",
        "country_name": "Việt Nam",
        "city": "Hồ Chí Minh",
        "district": "Quận 12",
        "ward": "Phường Tân Hưng Thuận",
        "street": "Đường Trường Chinh",
        "postal_code": "71509",
        "categories": [
            {
                "name": "Ngân hàng"
            },
            {
                "name": "Máy rút tiền ATM"
            }
        ]
    },
    {
        "name": "Ngân Hàng TMCP Kỹ Thương Việt Nam",
        "latitude": 10.81832,
        "longitude": 106.62787,
        "address": "Ngân Hàng TMCP Kỹ Thương Việt Nam, Hẻm 32 Tây Thạnh, Phường Tây Thạnh, Quận Tân Phú, Hồ Chí Minh, Việt Nam",
        "country_code": "VNM",
        "country_name": "Việt Nam",
        "city": "Hồ Chí Minh",
        "district": "Quận Tân Phú",
        "ward": "Phường Tây Thạnh",
        "street": "Hẻm 32 Tây Thạnh",
        "postal_code": "72009",
        "categories": [
            {
                "name": "Ngân hàng"
            }
        ]
    },
    {
        "name": "Ngân Hàng TM CP An Bình (Abbank) - Phòng Giao Dịch Trường Chinh",
        "latitude": 10.83144,
        "longitude": 106.62213,
        "address": "Ngân Hàng TM CP An Bình (Abbank) - Phòng Giao Dịch Trường Chinh, Đường Trường Chinh, Phường Tân Thới Nhất, Quận 12, Hồ Chí Minh, Việt Nam",
        "country_code": "VNM",
        "country_name": "Việt Nam",
        "city": "Hồ Chí Minh",
        "district": "Quận 12",
        "ward": "Phường Tân Thới Nhất",
        "street": "Đường Trường Chinh",
        "postal_code": "71510",
        "categories": [
            {
                "name": "Ngân hàng"
            }
        ]
    },
    {
        "name": "HSBC",
        "latitude": 10.82037,
        "longitude": 106.63068,
        "address": "HSBC, Đường Trường Chinh, Phường Tây Thạnh, Quận Tân Phú, Hồ Chí Minh, Việt Nam",
        "country_code": "VNM",
        "country_name": "Việt Nam",
        "city": "Hồ Chí Minh",
        "district": "Quận Tân Phú",
        "ward": "Phường Tây Thạnh",
        "street": "Đường Trường Chinh",
        "postal_code": "72009",
        "categories": [
            {
                "name": "Ngân hàng"
            },
            {
                "name": "Máy rút tiền ATM"
            }
        ]
    },
    {
        "name": "Shinhan Bank Vietnam",
        "latitude": 10.82903,
        "longitude": 106.61771,
        "address": "Shinhan Bank Vietnam, 116 Đường Phan Văn Hớn, Phường Tân Thới Nhất, Quận 12, Hồ Chí Minh, Việt Nam",
        "country_code": "VNM",
        "country_name": "Việt Nam",
        "city": "Hồ Chí Minh",
        "district": "Quận 12",
        "ward": "Phường Tân Thới Nhất",
        "street": "Đường Phan Văn Hớn",
        "postal_code": "71510",
        "categories": [
            {
                "name": "Ngân hàng"
            }
        ]
    },
    {
        "name": "Ngân Hàng TMCP Công Thương Việt Nam-Chi Nhánh 12-Phòng Giao Dịch Phan Huy Ích",
        "latitude": 10.82803,
        "longitude": 106.63185,
        "address": "Ngân Hàng TMCP Công Thương Việt Nam-Chi Nhánh 12-Phòng Giao Dịch Phan Huy Ích, Đường Phan Huy Ích, Phường 15, Quận Tân Bình, Hồ Chí Minh, Việt Nam",
        "country_code": "VNM",
        "country_name": "Việt Nam",
        "city": "Hồ Chí Minh",
        "district": "Quận Tân Bình",
        "ward": "Phường 15",
        "street": "Đường Phan Huy Ích",
        "postal_code": "72109",
        "categories": [
            {
                "name": "Ngân hàng"
            }
        ]
    },
    {
        "name": "Ngân Hàng Công Thương Việt Nam",
        "latitude": 10.82872,
        "longitude": 106.61749,
        "address": "Ngân Hàng Công Thương Việt Nam, 145 Đường Phan Văn Hớn, Phường Tân Thới Nhất, Quận 12, Hồ Chí Minh, Việt Nam",
        "country_code": "VNM",
        "country_name": "Việt Nam",
        "city": "Hồ Chí Minh",
        "district": "Quận 12",
        "ward": "Phường Tân Thới Nhất",
        "street": "Đường Phan Văn Hớn",
        "postal_code": "71510",
        "categories": [
            {
                "name": "Ngân hàng"
            },
            {
                "name": "Máy rút tiền ATM"
            }
        ]
    },
    {
        "name": "Ngân Hàng Công Thương Việt Nam",
        "latitude": 10.82818,
        "longitude": 106.63179,
        "address": "Ngân Hàng Công Thương Việt Nam, 89 Đường Phan Huy Ích, Phường 15, Quận Tân Bình, Hồ Chí Minh, Việt Nam",
        "country_code": "VNM",
        "country_name": "Việt Nam",
        "city": "Hồ Chí Minh",
        "district": "Quận Tân Bình",
        "ward": "Phường 15",
        "street": "Đường Phan Huy Ích",
        "postal_code": "72109",
        "categories": [
            {
                "name": "Ngân hàng"
            },
            {
                "name": "Máy rút tiền ATM"
            }
        ]
    },
    {
        "name": "Shb",
        "latitude": 10.81963,
        "longitude": 106.63118,
        "address": "Shb, Đường Trường Chinh, Phường 15, Quận Tân Bình, Hồ Chí Minh, Việt Nam",
        "country_code": "VNM",
        "country_name": "Việt Nam",
        "city": "Hồ Chí Minh",
        "district": "Quận Tân Bình",
        "ward": "Phường 15",
        "street": "Đường Trường Chinh",
        "postal_code": "72109",
        "categories": [
            {
                "name": "Ngân hàng"
            },
            {
                "name": "Máy rút tiền ATM"
            }
        ]
    },
    {
        "name": "Habubank",
        "latitude": 10.81956,
        "longitude": 106.63117,
        "address": "Habubank, 852 Đường Trường Chinh, Phường 15, Quận Tân Bình, Hồ Chí Minh, Việt Nam",
        "country_code": "VNM",
        "country_name": "Việt Nam",
        "city": "Hồ Chí Minh",
        "district": "Quận Tân Bình",
        "ward": "Phường 15",
        "street": "Đường Trường Chinh",
        "postal_code": "72109",
        "categories": [
            {
                "name": "Ngân hàng"
            },
            {
                "name": "Máy rút tiền ATM"
            }
        ]
    },
    {
        "name": "Ngân Hàng TMCP Nhà Hà Nội-PGD Tân Bình",
        "latitude": 10.81956,
        "longitude": 106.63117,
        "address": "Ngân Hàng TMCP Nhà Hà Nội-PGD Tân Bình, 852 Đường Trường Chinh, Phường 15, Quận Tân Bình, Hồ Chí Minh, Việt Nam",
        "country_code": "VNM",
        "country_name": "Việt Nam",
        "city": "Hồ Chí Minh",
        "district": "Quận Tân Bình",
        "ward": "Phường 15",
        "street": "Đường Trường Chinh",
        "postal_code": "72109",
        "categories": [
            {
                "name": "Ngân hàng"
            }
        ]
    },
    {
        "name": "NGH Huba PGD Tân Phú",
        "latitude": 10.81949,
        "longitude": 106.63119,
        "address": "NGH Huba PGD Tân Phú, Đường Trường Chinh, Phường 15, Quận Tân Bình, Hồ Chí Minh, Việt Nam",
        "country_code": "VNM",
        "country_name": "Việt Nam",
        "city": "Hồ Chí Minh",
        "district": "Quận Tân Bình",
        "ward": "Phường 15",
        "street": "Đường Trường Chinh",
        "postal_code": "72109",
        "categories": [
            {
                "name": "Ngân hàng"
            }
        ]
    },
    {
        "name": "Chi Nhánh An Sương-Ngân Hàng Á Châu",
        "latitude": 10.83247,
        "longitude": 106.62143,
        "address": "Chi Nhánh An Sương-Ngân Hàng Á Châu, Đường Trường Chinh, Phường Tân Thới Nhất, Quận 12, Hồ Chí Minh, Việt Nam",
        "country_code": "VNM",
        "country_name": "Việt Nam",
        "city": "Hồ Chí Minh",
        "district": "Quận 12",
        "ward": "Phường Tân Thới Nhất",
        "street": "Đường Trường Chinh",
        "postal_code": "71510",
        "categories": [
            {
                "name": "Ngân hàng"
            }
        ]
    },
    {
        "name": "TMDV XNK Hoàng Quân Phát",
        "latitude": 10.81621,
        "longitude": 106.62559,
        "address": "TMDV XNK Hoàng Quân Phát, Đường Tây Thạnh, Phường Tây Thạnh, Quận Tân Phú, Hồ Chí Minh, Việt Nam",
        "country_code": "VNM",
        "country_name": "Việt Nam",
        "city": "Hồ Chí Minh",
        "district": "Quận Tân Phú",
        "ward": "Phường Tây Thạnh",
        "street": "Đường Tây Thạnh",
        "postal_code": "72009",
        "categories": [
            {
                "name": "Ngân hàng"
            }
        ]
    },
    {
        "name": "Ngân Hàng Á Châu",
        "latitude": 10.83263,
        "longitude": 106.62132,
        "address": "Ngân Hàng Á Châu, Đường Trường Chinh, Phường Tân Thới Nhất, Quận 12, Hồ Chí Minh, Việt Nam",
        "country_code": "VNM",
        "country_name": "Việt Nam",
        "city": "Hồ Chí Minh",
        "district": "Quận 12",
        "ward": "Phường Tân Thới Nhất",
        "street": "Đường Trường Chinh",
        "postal_code": "71510",
        "categories": [
            {
                "name": "Ngân hàng"
            },
            {
                "name": "Máy rút tiền ATM"
            }
        ]
    },
    {
        "name": "ACB",
        "latitude": 10.83265,
        "longitude": 106.62131,
        "address": "ACB, Đường Trường Chinh, Phường Tân Thới Nhất, Quận 12, Hồ Chí Minh, Việt Nam",
        "country_code": "VNM",
        "country_name": "Việt Nam",
        "city": "Hồ Chí Minh",
        "district": "Quận 12",
        "ward": "Phường Tân Thới Nhất",
        "street": "Đường Trường Chinh",
        "postal_code": "71510",
        "categories": [
            {
                "name": "Ngân hàng"
            },
            {
                "name": "Máy rút tiền ATM"
            }
        ]
    },
    {
        "name": "Ngân Hàng TMCP Sài Gòn Thương Tín-Phòng Giao Dịch Khu Công Nghiệp Tân Bình",
        "latitude": 10.81571,
        "longitude": 106.62415,
        "address": "Ngân Hàng TMCP Sài Gòn Thương Tín-Phòng Giao Dịch Khu Công Nghiệp Tân Bình, Đường CN2, Phường Tây Thạnh, Quận Tân Phú, Hồ Chí Minh, Việt Nam",
        "country_code": "VNM",
        "country_name": "Việt Nam",
        "city": "Hồ Chí Minh",
        "district": "Quận Tân Phú",
        "ward": "Phường Tây Thạnh",
        "street": "Đường CN2",
        "postal_code": "72009",
        "categories": [
            {
                "name": "Ngân hàng"
            }
        ]
    },
    {
        "name": "Ngân Hàng Nông Nghiệp Và Phát Triển Nông Thôn Việt Nam-Chi Nhánh Bình Phú",
        "latitude": 10.81652,
        "longitude": 106.62039,
        "address": "Ngân Hàng Nông Nghiệp Và Phát Triển Nông Thôn Việt Nam-Chi Nhánh Bình Phú, Đường 19/5A, Phường Tây Thạnh, Quận Tân Phú, Hồ Chí Minh, Việt Nam",
        "country_code": "VNM",
        "country_name": "Việt Nam",
        "city": "Hồ Chí Minh",
        "district": "Quận Tân Phú",
        "ward": "Phường Tây Thạnh",
        "street": "Đường 19/5A",
        "postal_code": "72009",
        "categories": [
            {
                "name": "Ngân hàng"
            }
        ]
    },
    {
        "name": "Ngân Hàng Kỹ Thương Việt Nam",
        "latitude": 10.81863,
        "longitude": 106.63146,
        "address": "Ngân Hàng Kỹ Thương Việt Nam, 826 Đường Trường Chinh, Phường 15, Quận Tân Bình, Hồ Chí Minh, Việt Nam",
        "country_code": "VNM",
        "country_name": "Việt Nam",
        "city": "Hồ Chí Minh",
        "district": "Quận Tân Bình",
        "ward": "Phường 15",
        "street": "Đường Trường Chinh",
        "postal_code": "72109",
        "categories": [
            {
                "name": "Ngân hàng"
            },
            {
                "name": "Máy rút tiền ATM"
            }
        ]
    },
    {
        "name": "Ngân Hàng Bản Việt",
        "latitude": 10.81856,
        "longitude": 106.63148,
        "address": "Ngân Hàng Bản Việt, 824 Đường Trường Chinh, Phường 15, Quận Tân Bình, Hồ Chí Minh, Việt Nam",
        "country_code": "VNM",
        "country_name": "Việt Nam",
        "city": "Hồ Chí Minh",
        "district": "Quận Tân Bình",
        "ward": "Phường 15",
        "street": "Đường Trường Chinh",
        "postal_code": "72109",
        "categories": [
            {
                "name": "Ngân hàng"
            },
            {
                "name": "Máy rút tiền ATM"
            }
        ]
    },
    {
        "name": "PGD Trường Chinh-NG.H Nam Á",
        "latitude": 10.83317,
        "longitude": 106.62096,
        "address": "PGD Trường Chinh-NG.H Nam Á, Đường Trường Chinh, Phường Tân Thới Nhất, Quận 12, Hồ Chí Minh, Việt Nam",
        "country_code": "VNM",
        "country_name": "Việt Nam",
        "city": "Hồ Chí Minh",
        "district": "Quận 12",
        "ward": "Phường Tân Thới Nhất",
        "street": "Đường Trường Chinh",
        "postal_code": "71510",
        "categories": [
            {
                "name": "Ngân hàng"
            }
        ]
    },
    {
        "name": "Ngân Hàng TM CP Sài Gòn Hà Nội (SHB) - Phòng Giao Dịch Trường Chinh",
        "latitude": 10.81849,
        "longitude": 106.6315,
        "address": "Ngân Hàng TM CP Sài Gòn Hà Nội (SHB) - Phòng Giao Dịch Trường Chinh, 822 Đường Trường Chinh, Phường 15, Quận Tân Bình, Hồ Chí Minh, Việt Nam",
        "country_code": "VNM",
        "country_name": "Việt Nam",
        "city": "Hồ Chí Minh",
        "district": "Quận Tân Bình",
        "ward": "Phường 15",
        "street": "Đường Trường Chinh",
        "postal_code": "72109",
        "categories": [
            {
                "name": "Ngân hàng"
            },
            {
                "name": "Máy rút tiền ATM"
            }
        ]
    },
    {
        "name": "Ngân Hàng Chính Sách Xã Hội",
        "latitude": 10.81849,
        "longitude": 106.6315,
        "address": "Ngân Hàng Chính Sách Xã Hội, 822 Đường Trường Chinh, Phường 15, Quận Tân Bình, Hồ Chí Minh, Việt Nam",
        "country_code": "VNM",
        "country_name": "Việt Nam",
        "city": "Hồ Chí Minh",
        "district": "Quận Tân Bình",
        "ward": "Phường 15",
        "street": "Đường Trường Chinh",
        "postal_code": "72109",
        "categories": [
            {
                "name": "Ngân hàng"
            }
        ]
    },
    {
        "name": "Vietcombank Vietcombank",
        "latitude": 10.83337,
        "longitude": 106.62146,
        "address": "Vietcombank Vietcombank, 330 Đường Trường Chinh, Phường Tân Hưng Thuận, Quận 12, Hồ Chí Minh, Việt Nam",
        "country_code": "VNM",
        "country_name": "Việt Nam",
        "city": "Hồ Chí Minh",
        "district": "Quận 12",
        "ward": "Phường Tân Hưng Thuận",
        "street": "Đường Trường Chinh",
        "postal_code": "71509",
        "categories": [
            {
                "name": "Ngân hàng"
            }
        ]
    },
    {
        "name": "Ngân Hàng Phương Đông",
        "latitude": 10.83337,
        "longitude": 106.62146,
        "address": "Ngân Hàng Phương Đông, 330 Đường Trường Chinh, Phường Tân Hưng Thuận, Quận 12, Hồ Chí Minh, Việt Nam",
        "country_code": "VNM",
        "country_name": "Việt Nam",
        "city": "Hồ Chí Minh",
        "district": "Quận 12",
        "ward": "Phường Tân Hưng Thuận",
        "street": "Đường Trường Chinh",
        "postal_code": "71509",
        "categories": [
            {
                "name": "Ngân hàng"
            }
        ]
    },
    {
        "name": "Vietcombank 24h ATM",
        "latitude": 10.81541,
        "longitude": 106.62392,
        "address": "Vietcombank 24h ATM, Đường Lưu Chí Hiếu, Phường Tây Thạnh, Quận Tân Phú, Hồ Chí Minh, Việt Nam",
        "country_code": "VNM",
        "country_name": "Việt Nam",
        "city": "Hồ Chí Minh",
        "district": "Quận Tân Phú",
        "ward": "Phường Tây Thạnh",
        "street": "Đường Lưu Chí Hiếu",
        "postal_code": "72009",
        "categories": [
            {
                "name": "Ngân hàng"
            },
            {
                "name": "Máy rút tiền ATM"
            }
        ]
    },
    {
        "name": "Ngân Hàng TMCP Bản Việt",
        "latitude": 10.81847,
        "longitude": 106.63152,
        "address": "Ngân Hàng TMCP Bản Việt, Đường Trường Chinh, Phường 15, Quận Tân Bình, Hồ Chí Minh, Việt Nam",
        "country_code": "VNM",
        "country_name": "Việt Nam",
        "city": "Hồ Chí Minh",
        "district": "Quận Tân Bình",
        "ward": "Phường 15",
        "street": "Đường Trường Chinh",
        "postal_code": "72109",
        "categories": [
            {
                "name": "Ngân hàng"
            }
        ]
    },
    {
        "name": "Ngân Hàng Nam Á",
        "latitude": 10.83326,
        "longitude": 106.62105,
        "address": "Ngân Hàng Nam Á, 191 Đường Trường Chinh, Phường Tân Thới Nhất, Quận 12, Hồ Chí Minh, Việt Nam",
        "country_code": "VNM",
        "country_name": "Việt Nam",
        "city": "Hồ Chí Minh",
        "district": "Quận 12",
        "ward": "Phường Tân Thới Nhất",
        "street": "Đường Trường Chinh",
        "postal_code": "71510",
        "categories": [
            {
                "name": "Ngân hàng"
            },
            {
                "name": "Máy rút tiền ATM"
            }
        ]
    },
    {
        "name": "Seabank",
        "latitude": 10.81821,
        "longitude": 106.63159,
        "address": "Seabank, 814 Đường Trường Chinh, Phường 15, Quận Tân Bình, Hồ Chí Minh, Việt Nam",
        "country_code": "VNM",
        "country_name": "Việt Nam",
        "city": "Hồ Chí Minh",
        "district": "Quận Tân Bình",
        "ward": "Phường 15",
        "street": "Đường Trường Chinh",
        "postal_code": "72109",
        "categories": [
            {
                "name": "Ngân hàng"
            }
        ]
    },
    {
        "name": "Ngân Hàng NN & PT Nông Thôn",
        "latitude": 10.81621,
        "longitude": 106.62,
        "address": "Ngân Hàng NN & PT Nông Thôn, Đường 19/5A, Phường Tây Thạnh, Quận Tân Phú, Hồ Chí Minh, Việt Nam",
        "country_code": "VNM",
        "country_name": "Việt Nam",
        "city": "Hồ Chí Minh",
        "district": "Quận Tân Phú",
        "ward": "Phường Tây Thạnh",
        "street": "Đường 19/5A",
        "postal_code": "72009",
        "categories": [
            {
                "name": "Ngân hàng"
            },
            {
                "name": "Máy rút tiền ATM"
            }
        ]
    },
    {
        "name": "PGD An Sương-NG.H Hàng Hải",
        "latitude": 10.83346,
        "longitude": 106.62077,
        "address": "PGD An Sương-NG.H Hàng Hải, Đường Trường Chinh, Phường Tân Thới Nhất, Quận 12, Hồ Chí Minh, Việt Nam",
        "country_code": "VNM",
        "country_name": "Việt Nam",
        "city": "Hồ Chí Minh",
        "district": "Quận 12",
        "ward": "Phường Tân Thới Nhất",
        "street": "Đường Trường Chinh",
        "postal_code": "71510",
        "categories": [
            {
                "name": "Ngân hàng"
            }
        ]
    },
    {
        "name": "Ngân Hàng Hàng Hải Việt Nam",
        "latitude": 10.83353,
        "longitude": 106.62088,
        "address": "Ngân Hàng Hàng Hải Việt Nam, 207 Đường Trường Chinh, Phường Tân Thới Nhất, Quận 12, Hồ Chí Minh, Việt Nam",
        "country_code": "VNM",
        "country_name": "Việt Nam",
        "city": "Hồ Chí Minh",
        "district": "Quận 12",
        "ward": "Phường Tân Thới Nhất",
        "street": "Đường Trường Chinh",
        "postal_code": "71510",
        "categories": [
            {
                "name": "Ngân hàng"
            },
            {
                "name": "Máy rút tiền ATM"
            }
        ]
    },
    {
        "name": "Ngân Hàng TMCP Ngoại Thương Việt Nam-Chi Nhánh Tân Bình",
        "latitude": 10.81503,
        "longitude": 106.62418,
        "address": "Ngân Hàng TMCP Ngoại Thương Việt Nam-Chi Nhánh Tân Bình, Đường Tây Thạnh, Phường Tây Thạnh, Quận Tân Phú, Hồ Chí Minh, Việt Nam",
        "country_code": "VNM",
        "country_name": "Việt Nam",
        "city": "Hồ Chí Minh",
        "district": "Quận Tân Phú",
        "ward": "Phường Tây Thạnh",
        "street": "Đường Tây Thạnh",
        "postal_code": "72009",
        "categories": [
            {
                "name": "Ngân hàng"
            }
        ]
    },
    {
        "name": "Ngân Hàng Ngoại Thương Việt Nam",
        "latitude": 10.81503,
        "longitude": 106.62418,
        "address": "Ngân Hàng Ngoại Thương Việt Nam, 108 Đường Tây Thạnh, Phường Tây Thạnh, Quận Tân Phú, Hồ Chí Minh, Việt Nam",
        "country_code": "VNM",
        "country_name": "Việt Nam",
        "city": "Hồ Chí Minh",
        "district": "Quận Tân Phú",
        "ward": "Phường Tây Thạnh",
        "street": "Đường Tây Thạnh",
        "postal_code": "72009",
        "categories": [
            {
                "name": "Ngân hàng"
            },
            {
                "name": "Máy rút tiền ATM"
            }
        ]
    },
    {
        "name": "Msb",
        "latitude": 10.83358,
        "longitude": 106.62072,
        "address": "Msb, Đường Trường Chinh, Phường Tân Thới Nhất, Quận 12, Hồ Chí Minh, Việt Nam",
        "country_code": "VNM",
        "country_name": "Việt Nam",
        "city": "Hồ Chí Minh",
        "district": "Quận 12",
        "ward": "Phường Tân Thới Nhất",
        "street": "Đường Trường Chinh",
        "postal_code": "71510",
        "categories": [
            {
                "name": "Ngân hàng"
            },
            {
                "name": "Máy rút tiền ATM"
            }
        ]
    },
    {
        "name": "NGH VCB PGD KCN Tân Bình",
        "latitude": 10.81492,
        "longitude": 106.62426,
        "address": "NGH VCB PGD KCN Tân Bình, Đường Tây Thạnh, Phường Tây Thạnh, Quận Tân Phú, Hồ Chí Minh, Việt Nam",
        "country_code": "VNM",
        "country_name": "Việt Nam",
        "city": "Hồ Chí Minh",
        "district": "Quận Tân Phú",
        "ward": "Phường Tây Thạnh",
        "street": "Đường Tây Thạnh",
        "postal_code": "72009",
        "categories": [
            {
                "name": "Ngân hàng"
            },
            {
                "name": "Máy rút tiền ATM"
            }
        ]
    },
    {
        "name": "Ngh Scb",
        "latitude": 10.83374,
        "longitude": 106.62076,
        "address": "Ngh Scb, Đường Trường Chinh, Phường Tân Thới Nhất, Quận 12, Hồ Chí Minh, Việt Nam",
        "country_code": "VNM",
        "country_name": "Việt Nam",
        "city": "Hồ Chí Minh",
        "district": "Quận 12",
        "ward": "Phường Tân Thới Nhất",
        "street": "Đường Trường Chinh",
        "postal_code": "71510",
        "categories": [
            {
                "name": "Ngân hàng"
            }
        ]
    },
    {
        "name": "Ngân Hàng Việt Nam Thương Tín",
        "latitude": 10.81505,
        "longitude": 106.62201,
        "address": "Ngân Hàng Việt Nam Thương Tín, Đường C2, Phường Tây Thạnh, Quận Tân Phú, Hồ Chí Minh, Việt Nam",
        "country_code": "VNM",
        "country_name": "Việt Nam",
        "city": "Hồ Chí Minh",
        "district": "Quận Tân Phú",
        "ward": "Phường Tây Thạnh",
        "street": "Đường C2",
        "postal_code": "72009",
        "categories": [
            {
                "name": "Ngân hàng"
            }
        ]
    },
    {
        "name": "Vietinbank",
        "latitude": 10.81476,
        "longitude": 106.6238,
        "address": "Vietinbank, Đường Tây Thạnh, Phường Tây Thạnh, Quận Tân Phú, Hồ Chí Minh, Việt Nam",
        "country_code": "VNM",
        "country_name": "Việt Nam",
        "city": "Hồ Chí Minh",
        "district": "Quận Tân Phú",
        "ward": "Phường Tây Thạnh",
        "street": "Đường Tây Thạnh",
        "postal_code": "72009",
        "categories": [
            {
                "name": "Ngân hàng"
            }
        ]
    },
    {
        "name": "Ngân Hàng Sài Gòn Thương Tín",
        "latitude": 10.81476,
        "longitude": 106.6238,
        "address": "Ngân Hàng Sài Gòn Thương Tín, 62-64 Đường Tây Thạnh, Phường Tây Thạnh, Quận Tân Phú, Hồ Chí Minh, Việt Nam",
        "country_code": "VNM",
        "country_name": "Việt Nam",
        "city": "Hồ Chí Minh",
        "district": "Quận Tân Phú",
        "ward": "Phường Tây Thạnh",
        "street": "Đường Tây Thạnh",
        "postal_code": "72009",
        "categories": [
            {
                "name": "Ngân hàng"
            },
            {
                "name": "Máy rút tiền ATM"
            }
        ]
    },
    {
        "name": "Ngân Hàng Sài Gòn Thương Tín",
        "latitude": 10.83409,
        "longitude": 106.6205,
        "address": "Ngân Hàng Sài Gòn Thương Tín, 132/7 Đường Trường Chinh, Phường Tân Thới Nhất, Quận 12, Hồ Chí Minh, Việt Nam",
        "country_code": "VNM",
        "country_name": "Việt Nam",
        "city": "Hồ Chí Minh",
        "district": "Quận 12",
        "ward": "Phường Tân Thới Nhất",
        "street": "Đường Trường Chinh",
        "postal_code": "71510",
        "categories": [
            {
                "name": "Ngân hàng"
            },
            {
                "name": "Máy rút tiền ATM"
            }
        ]
    },
    {
        "name": "Gà Ta Cây Sộp",
        "latitude": 10.83424,
        "longitude": 106.62843,
        "address": "Gà Ta Cây Sộp, 253 Hẻm 2 Đường Nguyễn Văn Quá, Phường Đông Hưng Thuận, Quận 12, Hồ Chí Minh, Việt Nam",
        "country_code": "VNM",
        "country_name": "Việt Nam",
        "city": "Hồ Chí Minh",
        "district": "Quận 12",
        "ward": "Phường Đông Hưng Thuận",
        "street": "Hẻm 2 Đường Nguyễn Văn Quá",
        "postal_code": "71508",
        "categories": [
            {
                "name": "Ngân hàng"
            },
            {
                "name": "Nhà hàng"
            }
        ]
    },
    {
        "name": "TPBank",
        "latitude": 10.81843,
        "longitude": 106.63312,
        "address": "TPBank, Đường Nguyễn Sỹ Sách, Phường 15, Quận Tân Bình, Hồ Chí Minh, Việt Nam",
        "country_code": "VNM",
        "country_name": "Việt Nam",
        "city": "Hồ Chí Minh",
        "district": "Quận Tân Bình",
        "ward": "Phường 15",
        "street": "Đường Nguyễn Sỹ Sách",
        "postal_code": "72109",
        "categories": [
            {
                "name": "Ngân hàng"
            }
        ]
    },
    {
        "name": "The Coffee & Milktea Plus 18 Cộng",
        "latitude": 10.81871,
        "longitude": 106.63339,
        "address": "The Coffee & Milktea Plus 18 Cộng, Đường Nguyễn Sỹ Sách, Phường 15, Quận Tân Bình, Hồ Chí Minh, Việt Nam",
        "country_code": "VNM",
        "country_name": "Việt Nam",
        "city": "Hồ Chí Minh",
        "district": "Quận Tân Bình",
        "ward": "Phường 15",
        "street": "Đường Nguyễn Sỹ Sách",
        "postal_code": "72109",
        "categories": [
            {
                "name": "Ngân hàng"
            },
            {
                "name": "Cà Phê/Trà"
            },
            {
                "name": "Quán cà phê"
            }
        ]
    },
    {
        "name": "Ngân Hàng Á Châu ACB PGD Tây Thạnh",
        "latitude": 10.81399,
        "longitude": 106.62347,
        "address": "Ngân Hàng Á Châu ACB PGD Tây Thạnh, 183 Đường Tây Thạnh, Phường Tây Thạnh, Quận Tân Phú, Hồ Chí Minh, Việt Nam",
        "country_code": "VNM",
        "country_name": "Việt Nam",
        "city": "Hồ Chí Minh",
        "district": "Quận Tân Phú",
        "ward": "Phường Tây Thạnh",
        "street": "Đường Tây Thạnh",
        "postal_code": "72009",
        "categories": [
            {
                "name": "Ngân hàng"
            },
            {
                "name": "Máy rút tiền ATM"
            }
        ]
    },
    {
        "name": "Tiên Phong",
        "latitude": 10.83495,
        "longitude": 106.62044,
        "address": "Tiên Phong, Đường Trường Chinh, Phường Tân Hưng Thuận, Quận 12, Hồ Chí Minh, Việt Nam",
        "country_code": "VNM",
        "country_name": "Việt Nam",
        "city": "Hồ Chí Minh",
        "district": "Quận 12",
        "ward": "Phường Tân Hưng Thuận",
        "street": "Đường Trường Chinh",
        "postal_code": "71509",
        "categories": [
            {
                "name": "Ngân hàng"
            }
        ]
    },
    {
        "name": "Ngân Hàng TMCP Ngoại Thương Việt Nam-Chi Nhánh Tân Bình-Phòng Giao Dịch K",
        "latitude": 10.81366,
        "longitude": 106.62299,
        "address": "Ngân Hàng TMCP Ngoại Thương Việt Nam-Chi Nhánh Tân Bình-Phòng Giao Dịch K, Đường Tây Thạnh, Phường Tây Thạnh, Quận Tân Phú, Hồ Chí Minh, Việt Nam",
        "country_code": "VNM",
        "country_name": "Việt Nam",
        "city": "Hồ Chí Minh",
        "district": "Quận Tân Phú",
        "ward": "Phường Tây Thạnh",
        "street": "Đường Tây Thạnh",
        "postal_code": "72009",
        "categories": [
            {
                "name": "Ngân hàng"
            }
        ]
    },
    {
        "name": "ACB",
        "latitude": 10.83116,
        "longitude": 106.63378,
        "address": "ACB, Đường Phan Huy Ích, Phường 15, Quận Tân Bình, Hồ Chí Minh, Việt Nam",
        "country_code": "VNM",
        "country_name": "Việt Nam",
        "city": "Hồ Chí Minh",
        "district": "Quận Tân Bình",
        "ward": "Phường 15",
        "street": "Đường Phan Huy Ích",
        "postal_code": "72109",
        "categories": [
            {
                "name": "Ngân hàng"
            },
            {
                "name": "Máy rút tiền ATM"
            }
        ]
    },
    {
        "name": "Hiệu Giày Đại Châu",
        "latitude": 10.83168,
        "longitude": 106.63355,
        "address": "Hiệu Giày Đại Châu, 157 Đường Phan Huy Ích, Phường 15, Quận Tân Bình, Hồ Chí Minh, Việt Nam",
        "country_code": "VNM",
        "country_name": "Việt Nam",
        "city": "Hồ Chí Minh",
        "district": "Quận Tân Bình",
        "ward": "Phường 15",
        "street": "Đường Phan Huy Ích",
        "postal_code": "72109",
        "categories": [
            {
                "name": "Quần áo & Phụ kiện"
            },
            {
                "name": "Giày dép"
            },
            {
                "name": "Ngân hàng"
            }
        ]
    },
    {
        "name": "PGD An Sương-NG.H SG",
        "latitude": 10.83534,
        "longitude": 106.61972,
        "address": "PGD An Sương-NG.H SG, Đường Trường Chinh, Phường Tân Thới Nhất, Quận 12, Hồ Chí Minh, Việt Nam",
        "country_code": "VNM",
        "country_name": "Việt Nam",
        "city": "Hồ Chí Minh",
        "district": "Quận 12",
        "ward": "Phường Tân Thới Nhất",
        "street": "Đường Trường Chinh",
        "postal_code": "71510",
        "categories": [
            {
                "name": "Ngân hàng"
            }
        ]
    },
    {
        "name": "Ngân Hàng Thương Mại Sài Gòn",
        "latitude": 10.83536,
        "longitude": 106.6197,
        "address": "Ngân Hàng Thương Mại Sài Gòn, 135/3 Đường Trường Chinh, Phường Tân Thới Nhất, Quận 12, Hồ Chí Minh, Việt Nam",
        "country_code": "VNM",
        "country_name": "Việt Nam",
        "city": "Hồ Chí Minh",
        "district": "Quận 12",
        "ward": "Phường Tân Thới Nhất",
        "street": "Đường Trường Chinh",
        "postal_code": "71510",
        "categories": [
            {
                "name": "Ngân hàng"
            },
            {
                "name": "Máy rút tiền ATM"
            }
        ]
    },
    {
        "name": "PGD Trường Chinh-NG.H Quân Đội",
        "latitude": 10.83536,
        "longitude": 106.6197,
        "address": "PGD Trường Chinh-NG.H Quân Đội, Đường Trường Chinh, Phường Tân Thới Nhất, Quận 12, Hồ Chí Minh, Việt Nam",
        "country_code": "VNM",
        "country_name": "Việt Nam",
        "city": "Hồ Chí Minh",
        "district": "Quận 12",
        "ward": "Phường Tân Thới Nhất",
        "street": "Đường Trường Chinh",
        "postal_code": "71510",
        "categories": [
            {
                "name": "Ngân hàng"
            }
        ]
    },
    {
        "name": "SCB",
        "latitude": 10.83536,
        "longitude": 106.6197,
        "address": "SCB, 135/3 Đường Trường Chinh, Phường Tân Thới Nhất, Quận 12, Hồ Chí Minh, Việt Nam",
        "country_code": "VNM",
        "country_name": "Việt Nam",
        "city": "Hồ Chí Minh",
        "district": "Quận 12",
        "ward": "Phường Tân Thới Nhất",
        "street": "Đường Trường Chinh",
        "postal_code": "71510",
        "categories": [
            {
                "name": "Ngân hàng"
            },
            {
                "name": "Máy rút tiền ATM"
            }
        ]
    },
    {
        "name": "Ngân Hàng Quân Đội",
        "latitude": 10.83538,
        "longitude": 106.6197,
        "address": "Ngân Hàng Quân Đội, Đường Trường Chinh, Phường Tân Thới Nhất, Quận 12, Hồ Chí Minh, Việt Nam",
        "country_code": "VNM",
        "country_name": "Việt Nam",
        "city": "Hồ Chí Minh",
        "district": "Quận 12",
        "ward": "Phường Tân Thới Nhất",
        "street": "Đường Trường Chinh",
        "postal_code": "71510",
        "categories": [
            {
                "name": "Máy rút tiền ATM"
            },
            {
                "name": "Ngân hàng"
            }
        ]
    }
]
