[
    {
        "name": "Billiard Hải Khanh",
        "latitude": 10.82401,
        "longitude": 106.62272,
        "address": "Billiard Hải Khanh, Đường Tân Thới Nhất 17, Phường Tân Thới Nhất, Quận 12, Hồ Chí Minh, Việt Nam",
        "country_code": "VNM",
        "country_name": "Việt Nam",
        "city": "Hồ Chí Minh",
        "district": "Quận 12",
        "ward": "Phường Tân Thới Nhất",
        "street": "Đường Tân Thới Nhất 17",
        "postal_code": "71510",
        "categories": [
            {
                "name": "Cơ sở hoặc địa điểm thể thao"
            }
        ]
    },
    {
        "name": "CLB Gym Tennis & Yoga Nga Việt",
        "latitude": 10.82264,
        "longitude": 106.62183,
        "address": "CLB Gym Tennis & Yoga Nga Việt, Hẻm 149/23 Tân Thới Nhất 17, Phường Tân Thới Nhất, Quận 12, Hồ Chí Minh, Việt Nam",
        "country_code": "VNM",
        "country_name": "Việt Nam",
        "city": "Hồ Chí Minh",
        "district": "Quận 12",
        "ward": "Phường Tân Thới Nhất",
        "street": "Hẻm 149/23 Tân Thới Nhất 17",
        "postal_code": "71510",
        "categories": [
            {
                "name": "Cơ sở hoặc địa điểm thể thao"
            }
        ]
    },
    {
        "name": "Yoga Sunshine",
        "latitude": 10.8276,
        "longitude": 106.62604,
        "address": "Yoga Sunshine, Đường Song Hành Quốc Lộ 22, Phường Tân Hưng Thuận, Quận 12, Hồ Chí Minh, Việt Nam",
        "country_code": "VNM",
        "country_name": "Việt Nam",
        "city": "Hồ Chí Minh",
        "district": "Quận 12",
        "ward": "Phường Tân Hưng Thuận",
        "street": "Đường Song Hành Quốc Lộ 22",
        "postal_code": "71509",
        "categories": [
            {
                "name": "Cơ sở hoặc địa điểm thể thao"
            }
        ]
    },
    {
        "name": "Câu Lạc Bộ Bi-A Thanh Tâm",
        "latitude": 10.82782,
        "longitude": 106.62251,
        "address": "Câu Lạc Bộ Bi-A Thanh Tâm, 54 Đường Phan Văn Hớn, Phường Tân Thới Nhất, Quận 12, Hồ Chí Minh, Việt Nam",
        "country_code": "VNM",
        "country_name": "Việt Nam",
        "city": "Hồ Chí Minh",
        "district": "Quận 12",
        "ward": "Phường Tân Thới Nhất",
        "street": "Đường Phan Văn Hớn",
        "postal_code": "71510",
        "categories": [
            {
                "name": "Cơ sở hoặc địa điểm thể thao"
            }
        ]
    },
    {
        "name": "Billiards Club D. K. T",
        "latitude": 10.82822,
        "longitude": 106.62568,
        "address": "Billiards Club D. K. T, Đường Song Hành Quốc Lộ 22, Phường Tân Hưng Thuận, Quận 12, Hồ Chí Minh, Việt Nam",
        "country_code": "VNM",
        "country_name": "Việt Nam",
        "city": "Hồ Chí Minh",
        "district": "Quận 12",
        "ward": "Phường Tân Hưng Thuận",
        "street": "Đường Song Hành Quốc Lộ 22",
        "postal_code": "71509",
        "categories": [
            {
                "name": "Cơ sở hoặc địa điểm thể thao"
            }
        ]
    },
    {
        "name": "Câu Lạc Bộ Thẩm Mỹ Hoàng Gia",
        "latitude": 10.82784,
        "longitude": 106.6224,
        "address": "Câu Lạc Bộ Thẩm Mỹ Hoàng Gia, Đường Phan Văn Hớn, Phường Tân Thới Nhất, Quận 12, Hồ Chí Minh, Việt Nam",
        "country_code": "VNM",
        "country_name": "Việt Nam",
        "city": "Hồ Chí Minh",
        "district": "Quận 12",
        "ward": "Phường Tân Thới Nhất",
        "street": "Đường Phan Văn Hớn",
        "postal_code": "71510",
        "categories": [
            {
                "name": "Cơ sở hoặc địa điểm thể thao"
            }
        ]
    },
    {
        "name": "Bi-A Phúc Thịnh",
        "latitude": 10.82802,
        "longitude": 106.62671,
        "address": "Bi-A Phúc Thịnh, Đường Nguyễn Văn Quá, Phường Tân Hưng Thuận, Quận 12, Hồ Chí Minh, Việt Nam",
        "country_code": "VNM",
        "country_name": "Việt Nam",
        "city": "Hồ Chí Minh",
        "district": "Quận 12",
        "ward": "Phường Tân Hưng Thuận",
        "street": "Đường Nguyễn Văn Quá",
        "postal_code": "71509",
        "categories": [
            {
                "name": "Cơ sở hoặc địa điểm thể thao"
            }
        ]
    },
    {
        "name": "Câu Lạc Bộ Bida Huynh Đệ",
        "latitude": 10.82447,
        "longitude": 106.62037,
        "address": "Câu Lạc Bộ Bida Huynh Đệ, Đường Thị Giang, Phường Tân Thới Nhất, Quận 12, Hồ Chí Minh, Việt Nam",
        "country_code": "VNM",
        "country_name": "Việt Nam",
        "city": "Hồ Chí Minh",
        "district": "Quận 12",
        "ward": "Phường Tân Thới Nhất",
        "street": "Đường Thị Giang",
        "postal_code": "71510",
        "categories": [
            {
                "name": "Cơ sở hoặc địa điểm thể thao"
            }
        ]
    },
    {
        "name": "Câu Lạc Bộ Billiard Thuận Kiều",
        "latitude": 10.82809,
        "longitude": 106.62054,
        "address": "Câu Lạc Bộ Billiard Thuận Kiều, Đường Phan Văn Hớn, Phường Tân Thới Nhất, Quận 12, Hồ Chí Minh, Việt Nam",
        "country_code": "VNM",
        "country_name": "Việt Nam",
        "city": "Hồ Chí Minh",
        "district": "Quận 12",
        "ward": "Phường Tân Thới Nhất",
        "street": "Đường Phan Văn Hớn",
        "postal_code": "71510",
        "categories": [
            {
                "name": "Cơ sở hoặc địa điểm thể thao"
            }
        ]
    },
    {
        "name": "Lớp Học Yoga",
        "latitude": 10.82825,
        "longitude": 106.62837,
        "address": "Lớp Học Yoga, Đường Nguyễn Văn Quá, Phường Đông Hưng Thuận, Quận 12, Hồ Chí Minh, Việt Nam",
        "country_code": "VNM",
        "country_name": "Việt Nam",
        "city": "Hồ Chí Minh",
        "district": "Quận 12",
        "ward": "Phường Đông Hưng Thuận",
        "street": "Đường Nguyễn Văn Quá",
        "postal_code": "71508",
        "categories": [
            {
                "name": "Cơ sở hoặc địa điểm thể thao"
            }
        ]
    },
    {
        "name": "Gyms 17 - Phúc Yên",
        "latitude": 10.82639,
        "longitude": 106.62975,
        "address": "Gyms 17 - Phúc Yên, Hẻm 31 Phan Huy Ích, Phường 15, Quận Tân Bình, Hồ Chí Minh, Việt Nam",
        "country_code": "VNM",
        "country_name": "Việt Nam",
        "city": "Hồ Chí Minh",
        "district": "Quận Tân Bình",
        "ward": "Phường 15",
        "street": "Hẻm 31 Phan Huy Ích",
        "postal_code": "72109",
        "categories": [
            {
                "name": "Cơ sở hoặc địa điểm thể thao"
            },
            {
                "name": "Câu lạc bộ thể dục hoặc sức khỏe"
            }
        ]
    },
    {
        "name": "Cao Gừng Tan Mỡ - Bí Quyết Giữ Dáng Cùng Sao Việt",
        "latitude": 10.82293,
        "longitude": 106.62987,
        "address": "Cao Gừng Tan Mỡ - Bí Quyết Giữ Dáng Cùng Sao Việt, Đường Trường Chinh, Phường 15, Quận Tân Bình, Hồ Chí Minh, Việt Nam",
        "country_code": "VNM",
        "country_name": "Việt Nam",
        "city": "Hồ Chí Minh",
        "district": "Quận Tân Bình",
        "ward": "Phường 15",
        "street": "Đường Trường Chinh",
        "postal_code": "72109",
        "categories": [
            {
                "name": "Cơ sở hoặc địa điểm thể thao"
            },
            {
                "name": "Cửa hàng bán buôn"
            },
            {
                "name": "Cắt tóc & Tạo mẫu"
            }
        ]
    },
    {
        "name": "Câu Lạc Bộ Bida Tân Bình",
        "latitude": 10.8283,
        "longitude": 106.61983,
        "address": "Câu Lạc Bộ Bida Tân Bình, 95 Đường Phan Văn Hớn, Phường Tân Thới Nhất, Quận 12, Hồ Chí Minh, Việt Nam",
        "country_code": "VNM",
        "country_name": "Việt Nam",
        "city": "Hồ Chí Minh",
        "district": "Quận 12",
        "ward": "Phường Tân Thới Nhất",
        "street": "Đường Phan Văn Hớn",
        "postal_code": "71510",
        "categories": [
            {
                "name": "Cơ sở hoặc địa điểm thể thao"
            },
            {
                "name": "Giải trí về đêm"
            }
        ]
    },
    {
        "name": "Tiger Gym Usa",
        "latitude": 10.82276,
        "longitude": 106.63034,
        "address": "Tiger Gym Usa, 938 Đường Trường Chinh, Phường 15, Quận Tân Bình, Hồ Chí Minh, Việt Nam",
        "country_code": "VNM",
        "country_name": "Việt Nam",
        "city": "Hồ Chí Minh",
        "district": "Quận Tân Bình",
        "ward": "Phường 15",
        "street": "Đường Trường Chinh",
        "postal_code": "72109",
        "categories": [
            {
                "name": "Cơ sở hoặc địa điểm thể thao"
            },
            {
                "name": "Câu lạc bộ thể dục hoặc sức khỏe"
            }
        ]
    },
    {
        "name": "Sân Bóng Đá Mini Phúc Yên",
        "latitude": 10.82628,
        "longitude": 106.63122,
        "address": "Sân Bóng Đá Mini Phúc Yên, Đường Phan Huy Ích, Phường 15, Quận Tân Bình, Hồ Chí Minh, Việt Nam",
        "country_code": "VNM",
        "country_name": "Việt Nam",
        "city": "Hồ Chí Minh",
        "district": "Quận Tân Bình",
        "ward": "Phường 15",
        "street": "Đường Phan Huy Ích",
        "postal_code": "72109",
        "categories": [
            {
                "name": "Cơ sở hoặc địa điểm thể thao"
            },
            {
                "name": "Khu liên hợp hoặc sân vận động thể thao"
            }
        ]
    },
    {
        "name": "Gym Đại Phú",
        "latitude": 10.82847,
        "longitude": 106.61857,
        "address": "Gym Đại Phú, Đường Phan Văn Hớn, Phường Tân Thới Nhất, Quận 12, Hồ Chí Minh, Việt Nam",
        "country_code": "VNM",
        "country_name": "Việt Nam",
        "city": "Hồ Chí Minh",
        "district": "Quận 12",
        "ward": "Phường Tân Thới Nhất",
        "street": "Đường Phan Văn Hớn",
        "postal_code": "71510",
        "categories": [
            {
                "name": "Cơ sở hoặc địa điểm thể thao"
            },
            {
                "name": "Câu lạc bộ thể dục hoặc sức khỏe"
            }
        ]
    },
    {
        "name": "Câu Lạc Bộ Thể Dục Thẩm Mỹ Dáng Ngọc",
        "latitude": 10.82116,
        "longitude": 106.63071,
        "address": "Câu Lạc Bộ Thể Dục Thẩm Mỹ Dáng Ngọc, Đường Trường Chinh, Phường 15, Quận Tân Bình, Hồ Chí Minh, Việt Nam",
        "country_code": "VNM",
        "country_name": "Việt Nam",
        "city": "Hồ Chí Minh",
        "district": "Quận Tân Bình",
        "ward": "Phường 15",
        "street": "Đường Trường Chinh",
        "postal_code": "72109",
        "categories": [
            {
                "name": "Cơ sở hoặc địa điểm thể thao"
            }
        ]
    },
    {
        "name": "Câu Lạc Bộ Thể Dục Thể Hình Xxmen",
        "latitude": 10.82396,
        "longitude": 106.61726,
        "address": "Câu Lạc Bộ Thể Dục Thể Hình Xxmen, Đường Tân Thới Nhất 17, Phường Tân Thới Nhất, Quận 12, Hồ Chí Minh, Việt Nam",
        "country_code": "VNM",
        "country_name": "Việt Nam",
        "city": "Hồ Chí Minh",
        "district": "Quận 12",
        "ward": "Phường Tân Thới Nhất",
        "street": "Đường Tân Thới Nhất 17",
        "postal_code": "71510",
        "categories": [
            {
                "name": "Cơ sở hoặc địa điểm thể thao"
            }
        ]
    },
    {
        "name": "Club Billiards Phi Hùng",
        "latitude": 10.82733,
        "longitude": 106.63153,
        "address": "Club Billiards Phi Hùng, 63 Đường Phan Huy Ích, Phường 15, Quận Tân Bình, Hồ Chí Minh, Việt Nam",
        "country_code": "VNM",
        "country_name": "Việt Nam",
        "city": "Hồ Chí Minh",
        "district": "Quận Tân Bình",
        "ward": "Phường 15",
        "street": "Đường Phan Huy Ích",
        "postal_code": "72109",
        "categories": [
            {
                "name": "Cơ sở hoặc địa điểm thể thao"
            }
        ]
    },
    {
        "name": "Bi-A Bố Già",
        "latitude": 10.82557,
        "longitude": 106.63216,
        "address": "Bi-A Bố Già, Đường Cống Lở, Phường 15, Quận Tân Bình, Hồ Chí Minh, Việt Nam",
        "country_code": "VNM",
        "country_name": "Việt Nam",
        "city": "Hồ Chí Minh",
        "district": "Quận Tân Bình",
        "ward": "Phường 15",
        "street": "Đường Cống Lở",
        "postal_code": "72109",
        "categories": [
            {
                "name": "Cơ sở hoặc địa điểm thể thao"
            }
        ]
    },
    {
        "name": "Câu Lạc Bộ Quần Vợt",
        "latitude": 10.81993,
        "longitude": 106.63063,
        "address": "Câu Lạc Bộ Quần Vợt, 887 Đường Trường Chinh, Phường Tây Thạnh, Quận Tân Phú, Hồ Chí Minh, Việt Nam",
        "country_code": "VNM",
        "country_name": "Việt Nam",
        "city": "Hồ Chí Minh",
        "district": "Quận Tân Phú",
        "ward": "Phường Tây Thạnh",
        "street": "Đường Trường Chinh",
        "postal_code": "72009",
        "categories": [
            {
                "name": "Cơ sở hoặc địa điểm thể thao"
            }
        ]
    },
    {
        "name": "Sân Tennis",
        "latitude": 10.81985,
        "longitude": 106.63061,
        "address": "Sân Tennis, Hẻm 885 Đường Trường Chinh, Phường Tây Thạnh, Quận Tân Phú, Hồ Chí Minh, Việt Nam",
        "country_code": "VNM",
        "country_name": "Việt Nam",
        "city": "Hồ Chí Minh",
        "district": "Quận Tân Phú",
        "ward": "Phường Tây Thạnh",
        "street": "Hẻm 885 Đường Trường Chinh",
        "postal_code": "72009",
        "categories": [
            {
                "name": "Cơ sở hoặc địa điểm thể thao"
            }
        ]
    },
    {
        "name": "Billiards Thùy Trang",
        "latitude": 10.82561,
        "longitude": 106.63227,
        "address": "Billiards Thùy Trang, 16 Đường Cống Lở, Phường 15, Quận Tân Bình, Hồ Chí Minh, Việt Nam",
        "country_code": "VNM",
        "country_name": "Việt Nam",
        "city": "Hồ Chí Minh",
        "district": "Quận Tân Bình",
        "ward": "Phường 15",
        "street": "Đường Cống Lở",
        "postal_code": "72109",
        "categories": [
            {
                "name": "Cơ sở hoặc địa điểm thể thao"
            }
        ]
    },
    {
        "name": "Câu Lạc Bộ Thể Hình Thẩm Mỹ Thành Đạt",
        "latitude": 10.82318,
        "longitude": 106.63251,
        "address": "Câu Lạc Bộ Thể Hình Thẩm Mỹ Thành Đạt, Hẻm 45 Tân Trụ, Phường 15, Quận Tân Bình, Hồ Chí Minh, Việt Nam",
        "country_code": "VNM",
        "country_name": "Việt Nam",
        "city": "Hồ Chí Minh",
        "district": "Quận Tân Bình",
        "ward": "Phường 15",
        "street": "Hẻm 45 Tân Trụ",
        "postal_code": "72109",
        "categories": [
            {
                "name": "Cơ sở hoặc địa điểm thể thao"
            }
        ]
    },
    {
        "name": "Bida Hải Âu",
        "latitude": 10.82277,
        "longitude": 106.63248,
        "address": "Bida Hải Âu, Đường Tân Trụ, Phường 15, Quận Tân Bình, Hồ Chí Minh, Việt Nam",
        "country_code": "VNM",
        "country_name": "Việt Nam",
        "city": "Hồ Chí Minh",
        "district": "Quận Tân Bình",
        "ward": "Phường 15",
        "street": "Đường Tân Trụ",
        "postal_code": "72109",
        "categories": [
            {
                "name": "Cơ sở hoặc địa điểm thể thao"
            }
        ]
    },
    {
        "name": "Cửa Hàng Trường Chinh",
        "latitude": 10.83265,
        "longitude": 106.62362,
        "address": "Cửa Hàng Trường Chinh, Đường Song Hành, Phường Tân Hưng Thuận, Quận 12, Hồ Chí Minh, Việt Nam",
        "country_code": "VNM",
        "country_name": "Việt Nam",
        "city": "Hồ Chí Minh",
        "district": "Quận 12",
        "ward": "Phường Tân Hưng Thuận",
        "street": "Đường Song Hành",
        "postal_code": "71509",
        "categories": [
            {
                "name": "Cửa hàng chuyên dụng"
            },
            {
                "name": "Cửa hàng tiện lợi"
            },
            {
                "name": "Cơ sở hoặc địa điểm thể thao"
            }
        ]
    },
    {
        "name": "Phòng Gym",
        "latitude": 10.82587,
        "longitude": 106.6327,
        "address": "Phòng Gym, Đường Cống Lở, Phường 15, Quận Tân Bình, Hồ Chí Minh, Việt Nam",
        "country_code": "VNM",
        "country_name": "Việt Nam",
        "city": "Hồ Chí Minh",
        "district": "Quận Tân Bình",
        "ward": "Phường 15",
        "street": "Đường Cống Lở",
        "postal_code": "72109",
        "categories": [
            {
                "name": "Cơ sở hoặc địa điểm thể thao"
            }
        ]
    },
    {
        "name": "Câu Lạc Bộ Bida 91",
        "latitude": 10.82836,
        "longitude": 106.63189,
        "address": "Câu Lạc Bộ Bida 91, 91 Đường Phan Huy Ích, Phường 15, Quận Tân Bình, Hồ Chí Minh, Việt Nam",
        "country_code": "VNM",
        "country_name": "Việt Nam",
        "city": "Hồ Chí Minh",
        "district": "Quận Tân Bình",
        "ward": "Phường 15",
        "street": "Đường Phan Huy Ích",
        "postal_code": "72109",
        "categories": [
            {
                "name": "Cơ sở hoặc địa điểm thể thao"
            }
        ]
    },
    {
        "name": "Sân Bóng Đá Mini Cây Sộp",
        "latitude": 10.83274,
        "longitude": 106.62276,
        "address": "Sân Bóng Đá Mini Cây Sộp, Đường Trường Chinh, Phường Tân Hưng Thuận, Quận 12, Hồ Chí Minh, Việt Nam",
        "country_code": "VNM",
        "country_name": "Việt Nam",
        "city": "Hồ Chí Minh",
        "district": "Quận 12",
        "ward": "Phường Tân Hưng Thuận",
        "street": "Đường Trường Chinh",
        "postal_code": "71509",
        "categories": [
            {
                "name": "Cơ sở hoặc địa điểm thể thao"
            }
        ]
    },
    {
        "name": "Billiards Club Hoàng Long",
        "latitude": 10.83194,
        "longitude": 106.62034,
        "address": "Billiards Club Hoàng Long, Đường Tân Thới Nhất 13C, Phường Tân Thới Nhất, Quận 12, Hồ Chí Minh, Việt Nam",
        "country_code": "VNM",
        "country_name": "Việt Nam",
        "city": "Hồ Chí Minh",
        "district": "Quận 12",
        "ward": "Phường Tân Thới Nhất",
        "street": "Đường Tân Thới Nhất 13C",
        "postal_code": "71510",
        "categories": [
            {
                "name": "Cơ sở hoặc địa điểm thể thao"
            }
        ]
    },
    {
        "name": "Câu Lạc Bộ Yoga Hatha",
        "latitude": 10.83267,
        "longitude": 106.62015,
        "address": "Câu Lạc Bộ Yoga Hatha, Hẻm 8 Đường Tân Thới Nhất 13, Phường Tân Thới Nhất, Quận 12, Hồ Chí Minh, Việt Nam",
        "country_code": "VNM",
        "country_name": "Việt Nam",
        "city": "Hồ Chí Minh",
        "district": "Quận 12",
        "ward": "Phường Tân Thới Nhất",
        "street": "Hẻm 8 Đường Tân Thới Nhất 13",
        "postal_code": "71510",
        "categories": [
            {
                "name": "Cơ sở hoặc địa điểm thể thao"
            }
        ]
    },
    {
        "name": "Câu Lạc Bộ Bóng Đá Cây Sộp",
        "latitude": 10.83315,
        "longitude": 106.62817,
        "address": "Câu Lạc Bộ Bóng Đá Cây Sộp, Đường Nguyễn Văn Quá, Phường Đông Hưng Thuận, Quận 12, Hồ Chí Minh, Việt Nam",
        "country_code": "VNM",
        "country_name": "Việt Nam",
        "city": "Hồ Chí Minh",
        "district": "Quận 12",
        "ward": "Phường Đông Hưng Thuận",
        "street": "Đường Nguyễn Văn Quá",
        "postal_code": "71508",
        "categories": [
            {
                "name": "Cơ sở hoặc địa điểm thể thao"
            }
        ]
    },
    {
        "name": "Câu Lạc Bộ Thể Hình-Gym Thành Đạt",
        "latitude": 10.82466,
        "longitude": 106.63398,
        "address": "Câu Lạc Bộ Thể Hình-Gym Thành Đạt, Hẻm 45/18 Nguyễn Phúc Chu, Phường 15, Quận Tân Bình, Hồ Chí Minh, Việt Nam",
        "country_code": "VNM",
        "country_name": "Việt Nam",
        "city": "Hồ Chí Minh",
        "district": "Quận Tân Bình",
        "ward": "Phường 15",
        "street": "Hẻm 45/18 Nguyễn Phúc Chu",
        "postal_code": "72109",
        "categories": [
            {
                "name": "Cơ sở hoặc địa điểm thể thao"
            },
            {
                "name": "Câu lạc bộ thể dục hoặc sức khỏe"
            }
        ]
    },
    {
        "name": "Victory Club",
        "latitude": 10.82926,
        "longitude": 106.61596,
        "address": "Victory Club, Đường Phan Văn Hớn, Phường Tân Thới Nhất, Quận 12, Hồ Chí Minh, Việt Nam",
        "country_code": "VNM",
        "country_name": "Việt Nam",
        "city": "Hồ Chí Minh",
        "district": "Quận 12",
        "ward": "Phường Tân Thới Nhất",
        "street": "Đường Phan Văn Hớn",
        "postal_code": "71510",
        "categories": [
            {
                "name": "Cơ sở hoặc địa điểm thể thao"
            }
        ]
    },
    {
        "name": "Vic Sport",
        "latitude": 10.8333,
        "longitude": 106.61976,
        "address": "Vic Sport, Đường Trường Chinh, Phường Tân Thới Nhất, Quận 12, Hồ Chí Minh, Việt Nam",
        "country_code": "VNM",
        "country_name": "Việt Nam",
        "city": "Hồ Chí Minh",
        "district": "Quận 12",
        "ward": "Phường Tân Thới Nhất",
        "street": "Đường Trường Chinh",
        "postal_code": "71510",
        "categories": [
            {
                "name": "Cơ sở hoặc địa điểm thể thao"
            }
        ]
    },
    {
        "name": "Billiards Tân Bình",
        "latitude": 10.81477,
        "longitude": 106.62429,
        "address": "Billiards Tân Bình, Đường Tây Thạnh, Phường Tây Thạnh, Quận Tân Phú, Hồ Chí Minh, Việt Nam",
        "country_code": "VNM",
        "country_name": "Việt Nam",
        "city": "Hồ Chí Minh",
        "district": "Quận Tân Phú",
        "ward": "Phường Tây Thạnh",
        "street": "Đường Tây Thạnh",
        "postal_code": "72009",
        "categories": [
            {
                "name": "Cơ sở hoặc địa điểm thể thao"
            }
        ]
    },
    {
        "name": "Câu Lạc Bộ Billiard Thanh Hùng",
        "latitude": 10.81792,
        "longitude": 106.63206,
        "address": "Câu Lạc Bộ Billiard Thanh Hùng, Đường Trường Chinh, Phường 15, Quận Tân Bình, Hồ Chí Minh, Việt Nam",
        "country_code": "VNM",
        "country_name": "Việt Nam",
        "city": "Hồ Chí Minh",
        "district": "Quận Tân Bình",
        "ward": "Phường 15",
        "street": "Đường Trường Chinh",
        "postal_code": "72109",
        "categories": [
            {
                "name": "Cơ sở hoặc địa điểm thể thao"
            }
        ]
    },
    {
        "name": "Câu Lạc Bộ Bida",
        "latitude": 10.8146,
        "longitude": 106.62398,
        "address": "Câu Lạc Bộ Bida, 157 Đường Tây Thạnh, Phường Tây Thạnh, Quận Tân Phú, Hồ Chí Minh, Việt Nam",
        "country_code": "VNM",
        "country_name": "Việt Nam",
        "city": "Hồ Chí Minh",
        "district": "Quận Tân Phú",
        "ward": "Phường Tây Thạnh",
        "street": "Đường Tây Thạnh",
        "postal_code": "72009",
        "categories": [
            {
                "name": "Cơ sở hoặc địa điểm thể thao"
            },
            {
                "name": "Giải trí về đêm"
            }
        ]
    },
    {
        "name": "Câu Lạc Bộ Bida Cafe T&T",
        "latitude": 10.83214,
        "longitude": 106.61757,
        "address": "Câu Lạc Bộ Bida Cafe T&T, Hẻm 41 Đường Tân Thới Nhất 13, Phường Tân Thới Nhất, Quận 12, Hồ Chí Minh, Việt Nam",
        "country_code": "VNM",
        "country_name": "Việt Nam",
        "city": "Hồ Chí Minh",
        "district": "Quận 12",
        "ward": "Phường Tân Thới Nhất",
        "street": "Hẻm 41 Đường Tân Thới Nhất 13",
        "postal_code": "71510",
        "categories": [
            {
                "name": "Cơ sở hoặc địa điểm thể thao"
            }
        ]
    },
    {
        "name": "Quán Bida",
        "latitude": 10.83477,
        "longitude": 106.6237,
        "address": "Quán Bida, Đường ĐHT 42, Phường Tân Hưng Thuận, Quận 12, Hồ Chí Minh, Việt Nam",
        "country_code": "VNM",
        "country_name": "Việt Nam",
        "city": "Hồ Chí Minh",
        "district": "Quận 12",
        "ward": "Phường Tân Hưng Thuận",
        "street": "Đường ĐHT 42",
        "postal_code": "71509",
        "categories": [
            {
                "name": "Cơ sở hoặc địa điểm thể thao"
            }
        ]
    },
    {
        "name": "Billiards The World",
        "latitude": 10.81446,
        "longitude": 106.62527,
        "address": "Billiards The World, 17 Đường D9, Phường Tây Thạnh, Quận Tân Phú, Hồ Chí Minh, Việt Nam",
        "country_code": "VNM",
        "country_name": "Việt Nam",
        "city": "Hồ Chí Minh",
        "district": "Quận Tân Phú",
        "ward": "Phường Tây Thạnh",
        "street": "Đường D9",
        "postal_code": "72009",
        "categories": [
            {
                "name": "Cơ sở hoặc địa điểm thể thao"
            }
        ]
    },
    {
        "name": "Câu Lạc Bộ Thể Hình Phan Huy Ích",
        "latitude": 10.8308,
        "longitude": 106.63328,
        "address": "Câu Lạc Bộ Thể Hình Phan Huy Ích, 106 Đường Phan Huy Ích, Phường 15, Quận Tân Bình, Hồ Chí Minh, Việt Nam",
        "country_code": "VNM",
        "country_name": "Việt Nam",
        "city": "Hồ Chí Minh",
        "district": "Quận Tân Bình",
        "ward": "Phường 15",
        "street": "Đường Phan Huy Ích",
        "postal_code": "72109",
        "categories": [
            {
                "name": "Cơ sở hoặc địa điểm thể thao"
            }
        ]
    },
    {
        "name": "Gym Đại Phú",
        "latitude": 10.83506,
        "longitude": 106.62248,
        "address": "Gym Đại Phú, Đường Song Hành, Phường Tân Hưng Thuận, Quận 12, Hồ Chí Minh, Việt Nam",
        "country_code": "VNM",
        "country_name": "Việt Nam",
        "city": "Hồ Chí Minh",
        "district": "Quận 12",
        "ward": "Phường Tân Hưng Thuận",
        "street": "Đường Song Hành",
        "postal_code": "71509",
        "categories": [
            {
                "name": "Cơ sở hoặc địa điểm thể thao"
            }
        ]
    },
    {
        "name": "Billiards Hoàng An",
        "latitude": 10.8139,
        "longitude": 106.62566,
        "address": "Billiards Hoàng An, 35 Đường D9, Phường Tây Thạnh, Quận Tân Phú, Hồ Chí Minh, Việt Nam",
        "country_code": "VNM",
        "country_name": "Việt Nam",
        "city": "Hồ Chí Minh",
        "district": "Quận Tân Phú",
        "ward": "Phường Tây Thạnh",
        "street": "Đường D9",
        "postal_code": "72009",
        "categories": [
            {
                "name": "Cơ sở hoặc địa điểm thể thao"
            }
        ]
    },
    {
        "name": "Câu Lạc Bộ Bida Bin Bin",
        "latitude": 10.82366,
        "longitude": 106.63548,
        "address": "Câu Lạc Bộ Bida Bin Bin, Đường Hoàng Bật Đạt, Phường 15, Quận Tân Bình, Hồ Chí Minh, Việt Nam",
        "country_code": "VNM",
        "country_name": "Việt Nam",
        "city": "Hồ Chí Minh",
        "district": "Quận Tân Bình",
        "ward": "Phường 15",
        "street": "Đường Hoàng Bật Đạt",
        "postal_code": "72109",
        "categories": [
            {
                "name": "Cơ sở hoặc địa điểm thể thao"
            }
        ]
    },
    {
        "name": "Hecos Gym",
        "latitude": 10.81834,
        "longitude": 106.63355,
        "address": "Hecos Gym, 58 Hẻm 93 Trần Thái Tông, Phường 15, Quận Tân Bình, Hồ Chí Minh, Việt Nam",
        "country_code": "VNM",
        "country_name": "Việt Nam",
        "city": "Hồ Chí Minh",
        "district": "Quận Tân Bình",
        "ward": "Phường 15",
        "street": "Hẻm 93 Trần Thái Tông",
        "postal_code": "72109",
        "categories": [
            {
                "name": "Cơ sở hoặc địa điểm thể thao"
            },
            {
                "name": "Khu liên hợp hoặc sân vận động thể thao"
            },
            {
                "name": "Câu lạc bộ thể dục hoặc sức khỏe"
            }
        ]
    },
    {
        "name": "Câu Lạc Bộ Cử Tạ Thể Hình Thắng Lợi",
        "latitude": 10.81664,
        "longitude": 106.63208,
        "address": "Câu Lạc Bộ Cử Tạ Thể Hình Thắng Lợi, 770 Đường Trường Chinh, Phường 15, Quận Tân Bình, Hồ Chí Minh, Việt Nam",
        "country_code": "VNM",
        "country_name": "Việt Nam",
        "city": "Hồ Chí Minh",
        "district": "Quận Tân Bình",
        "ward": "Phường 15",
        "street": "Đường Trường Chinh",
        "postal_code": "72109",
        "categories": [
            {
                "name": "Cơ sở hoặc địa điểm thể thao"
            }
        ]
    },
    {
        "name": "Billiards 9999",
        "latitude": 10.81448,
        "longitude": 106.62012,
        "address": "Billiards 9999, Đường S11, Phường Tây Thạnh, Quận Tân Phú, Hồ Chí Minh, Việt Nam",
        "country_code": "VNM",
        "country_name": "Việt Nam",
        "city": "Hồ Chí Minh",
        "district": "Quận Tân Phú",
        "ward": "Phường Tây Thạnh",
        "street": "Đường S11",
        "postal_code": "72009",
        "categories": [
            {
                "name": "Cơ sở hoặc địa điểm thể thao"
            }
        ]
    },
    {
        "name": "Câu Lạc Bộ Bida Viva",
        "latitude": 10.81441,
        "longitude": 106.62024,
        "address": "Câu Lạc Bộ Bida Viva, Đường S11, Phường Tây Thạnh, Quận Tân Phú, Hồ Chí Minh, Việt Nam",
        "country_code": "VNM",
        "country_name": "Việt Nam",
        "city": "Hồ Chí Minh",
        "district": "Quận Tân Phú",
        "ward": "Phường Tây Thạnh",
        "street": "Đường S11",
        "postal_code": "72009",
        "categories": [
            {
                "name": "Cơ sở hoặc địa điểm thể thao"
            }
        ]
    },
    {
        "name": "Spa Salon Minh Thư",
        "latitude": 10.81353,
        "longitude": 106.62308,
        "address": "Spa Salon Minh Thư, 203 Đường Tây Thạnh, Phường Tây Thạnh, Quận Tân Phú, Hồ Chí Minh, Việt Nam",
        "country_code": "VNM",
        "country_name": "Việt Nam",
        "city": "Hồ Chí Minh",
        "district": "Quận Tân Phú",
        "ward": "Phường Tây Thạnh",
        "street": "Đường Tây Thạnh",
        "postal_code": "72009",
        "categories": [
            {
                "name": "Cơ sở hoặc địa điểm thể thao"
            },
            {
                "name": "Cắt tóc & Tạo mẫu"
            }
        ]
    },
    {
        "name": "Câu Lạc Bộ Thể Hình Lan Anh",
        "latitude": 10.8325,
        "longitude": 106.6162,
        "address": "Câu Lạc Bộ Thể Hình Lan Anh, Hẻm 6 Đường Tân Thới Nhất 13, Phường Tân Thới Nhất, Quận 12, Hồ Chí Minh, Việt Nam",
        "country_code": "VNM",
        "country_name": "Việt Nam",
        "city": "Hồ Chí Minh",
        "district": "Quận 12",
        "ward": "Phường Tân Thới Nhất",
        "street": "Hẻm 6 Đường Tân Thới Nhất 13",
        "postal_code": "71510",
        "categories": [
            {
                "name": "Câu lạc bộ thể dục hoặc sức khỏe"
            },
            {
                "name": "Cơ sở hoặc địa điểm thể thao"
            }
        ]
    },
    {
        "name": "Câu Lạc Bộ Thể Dục Thẩm Mỹ Dáng Ngọc Da Ngà",
        "latitude": 10.8133,
        "longitude": 106.62609,
        "address": "Câu Lạc Bộ Thể Dục Thẩm Mỹ Dáng Ngọc Da Ngà, 52 Đường D9, Phường Tây Thạnh, Quận Tân Phú, Hồ Chí Minh, Việt Nam",
        "country_code": "VNM",
        "country_name": "Việt Nam",
        "city": "Hồ Chí Minh",
        "district": "Quận Tân Phú",
        "ward": "Phường Tây Thạnh",
        "street": "Đường D9",
        "postal_code": "72009",
        "categories": [
            {
                "name": "Cơ sở hoặc địa điểm thể thao"
            },
            {
                "name": "Địa điểm chơi thể thao"
            }
        ]
    },
    {
        "name": "Ballroom Khiêu Vũ Trí Thanh",
        "latitude": 10.83608,
        "longitude": 106.6249,
        "address": "Ballroom Khiêu Vũ Trí Thanh, Hẻm 15 Đường ĐHT 3, Phường Tân Hưng Thuận, Quận 12, Hồ Chí Minh, Việt Nam",
        "country_code": "VNM",
        "country_name": "Việt Nam",
        "city": "Hồ Chí Minh",
        "district": "Quận 12",
        "ward": "Phường Tân Hưng Thuận",
        "street": "Hẻm 15 Đường ĐHT 3",
        "postal_code": "71509",
        "categories": [
            {
                "name": "Cơ sở hoặc địa điểm thể thao"
            }
        ]
    },
    {
        "name": "Câu Lạc Bộ Cầu Lông 98",
        "latitude": 10.82567,
        "longitude": 106.63616,
        "address": "Câu Lạc Bộ Cầu Lông 98, Hẻm 98 Đường Cống Lở, Phường 15, Quận Tân Bình, Hồ Chí Minh, Việt Nam",
        "country_code": "VNM",
        "country_name": "Việt Nam",
        "city": "Hồ Chí Minh",
        "district": "Quận Tân Bình",
        "ward": "Phường 15",
        "street": "Hẻm 98 Đường Cống Lở",
        "postal_code": "72109",
        "categories": [
            {
                "name": "Cơ sở hoặc địa điểm thể thao"
            }
        ]
    },
    {
        "name": "Quán Cafe Bida",
        "latitude": 10.83608,
        "longitude": 106.62282,
        "address": "Quán Cafe Bida, Đường ĐHT 42, Phường Tân Hưng Thuận, Quận 12, Hồ Chí Minh, Việt Nam",
        "country_code": "VNM",
        "country_name": "Việt Nam",
        "city": "Hồ Chí Minh",
        "district": "Quận 12",
        "ward": "Phường Tân Hưng Thuận",
        "street": "Đường ĐHT 42",
        "postal_code": "71509",
        "categories": [
            {
                "name": "Cơ sở hoặc địa điểm thể thao"
            }
        ]
    },
    {
        "name": "Xông Hơi Xoa Bóp Huyền Linh",
        "latitude": 10.83185,
        "longitude": 106.63373,
        "address": "Xông Hơi Xoa Bóp Huyền Linh, 128 Đường Phan Huy Ích, Phường 15, Quận Tân Bình, Hồ Chí Minh, Việt Nam",
        "country_code": "VNM",
        "country_name": "Việt Nam",
        "city": "Hồ Chí Minh",
        "district": "Quận Tân Bình",
        "ward": "Phường 15",
        "street": "Đường Phan Huy Ích",
        "postal_code": "72109",
        "categories": [
            {
                "name": "Cơ sở hoặc địa điểm thể thao"
            },
            {
                "name": "Cắt tóc & Tạo mẫu"
            }
        ]
    },
    {
        "name": "Hưng Thịnh",
        "latitude": 10.83192,
        "longitude": 106.6339,
        "address": "Hưng Thịnh, Đường Phan Huy Ích, Phường 15, Quận Tân Bình, Hồ Chí Minh, Việt Nam",
        "country_code": "VNM",
        "country_name": "Việt Nam",
        "city": "Hồ Chí Minh",
        "district": "Quận Tân Bình",
        "ward": "Phường 15",
        "street": "Đường Phan Huy Ích",
        "postal_code": "72109",
        "categories": [
            {
                "name": "Cơ sở hoặc địa điểm thể thao"
            },
            {
                "name": "Dịch vụ kinh doanh"
            }
        ]
    },
    {
        "name": "Sân Bóng Đá Mini Lê Lợi",
        "latitude": 10.81312,
        "longitude": 106.62188,
        "address": "Sân Bóng Đá Mini Lê Lợi, Đường S11, Phường Tây Thạnh, Quận Tân Phú, Hồ Chí Minh, Việt Nam",
        "country_code": "VNM",
        "country_name": "Việt Nam",
        "city": "Hồ Chí Minh",
        "district": "Quận Tân Phú",
        "ward": "Phường Tây Thạnh",
        "street": "Đường S11",
        "postal_code": "72009",
        "categories": [
            {
                "name": "Cơ sở hoặc địa điểm thể thao"
            }
        ]
    },
    {
        "name": "Sakura",
        "latitude": 10.83214,
        "longitude": 106.63376,
        "address": "Sakura, Đường Phan Huy Ích, Phường 15, Quận Tân Bình, Hồ Chí Minh, Việt Nam",
        "country_code": "VNM",
        "country_name": "Việt Nam",
        "city": "Hồ Chí Minh",
        "district": "Quận Tân Bình",
        "ward": "Phường 15",
        "street": "Đường Phan Huy Ích",
        "postal_code": "72109",
        "categories": [
            {
                "name": "Cơ sở hoặc địa điểm thể thao"
            }
        ]
    },
    {
        "name": "BillardClub Thanh Minh",
        "latitude": 10.82067,
        "longitude": 106.63582,
        "address": "BillardClub Thanh Minh, Hẻm 87 Đường Nguyễn Sỹ Sách, Phường 15, Quận Tân Bình, Hồ Chí Minh, Việt Nam",
        "country_code": "VNM",
        "country_name": "Việt Nam",
        "city": "Hồ Chí Minh",
        "district": "Quận Tân Bình",
        "ward": "Phường 15",
        "street": "Hẻm 87 Đường Nguyễn Sỹ Sách",
        "postal_code": "72109",
        "categories": [
            {
                "name": "Cơ sở hoặc địa điểm thể thao"
            }
        ]
    },
    {
        "name": "Trung Tâm Học Tập Cộng Đồng Phường",
        "latitude": 10.8125,
        "longitude": 106.62195,
        "address": "Trung Tâm Học Tập Cộng Đồng Phường, Đường Tây Thạnh, Phường Tây Thạnh, Quận Tân Phú, Hồ Chí Minh, Việt Nam",
        "country_code": "VNM",
        "country_name": "Việt Nam",
        "city": "Hồ Chí Minh",
        "district": "Quận Tân Phú",
        "ward": "Phường Tây Thạnh",
        "street": "Đường Tây Thạnh",
        "postal_code": "72009",
        "categories": [
            {
                "name": "Cơ sở hoặc địa điểm thể thao"
            }
        ]
    },
    {
        "name": "Câu Lạc Bộ Billiards Việt Hùng",
        "latitude": 10.8124,
        "longitude": 106.62207,
        "address": "Câu Lạc Bộ Billiards Việt Hùng, 241 Đường Tây Thạnh, Phường Tây Thạnh, Quận Tân Phú, Hồ Chí Minh, Việt Nam",
        "country_code": "VNM",
        "country_name": "Việt Nam",
        "city": "Hồ Chí Minh",
        "district": "Quận Tân Phú",
        "ward": "Phường Tây Thạnh",
        "street": "Đường Tây Thạnh",
        "postal_code": "72009",
        "categories": [
            {
                "name": "Cơ sở hoặc địa điểm thể thao"
            }
        ]
    },
    {
        "name": "Yoga Hương Thảo",
        "latitude": 10.81195,
        "longitude": 106.62318,
        "address": "Yoga Hương Thảo, Hẻm 229 Tây Thạnh, Phường Tây Thạnh, Quận Tân Phú, Hồ Chí Minh, Việt Nam",
        "country_code": "VNM",
        "country_name": "Việt Nam",
        "city": "Hồ Chí Minh",
        "district": "Quận Tân Phú",
        "ward": "Phường Tây Thạnh",
        "street": "Hẻm 229 Tây Thạnh",
        "postal_code": "72009",
        "categories": [
            {
                "name": "Cơ sở hoặc địa điểm thể thao"
            }
        ]
    },
    {
        "name": "Sân Bóng Đá Mini Hồng Trí",
        "latitude": 10.82843,
        "longitude": 106.61204,
        "address": "Sân Bóng Đá Mini Hồng Trí, Đường Tổ 62-KP-5, Phường Tân Thới Nhất, Quận 12, Hồ Chí Minh, Việt Nam",
        "country_code": "VNM",
        "country_name": "Việt Nam",
        "city": "Hồ Chí Minh",
        "district": "Quận 12",
        "ward": "Phường Tân Thới Nhất",
        "street": "Đường Tổ 62-KP-5",
        "postal_code": "71510",
        "categories": [
            {
                "name": "Cơ sở hoặc địa điểm thể thao"
            },
            {
                "name": "Sân bóng đá"
            }
        ]
    },
    {
        "name": "Câu Lạc Bộ Thể Dục Thể Hình Sport",
        "latitude": 10.82388,
        "longitude": 106.63764,
        "address": "Câu Lạc Bộ Thể Dục Thể Hình Sport, Đường Nguyễn Phúc Chu, Phường 15, Quận Tân Bình, Hồ Chí Minh, Việt Nam",
        "country_code": "VNM",
        "country_name": "Việt Nam",
        "city": "Hồ Chí Minh",
        "district": "Quận Tân Bình",
        "ward": "Phường 15",
        "street": "Đường Nguyễn Phúc Chu",
        "postal_code": "72109",
        "categories": [
            {
                "name": "Cơ sở hoặc địa điểm thể thao"
            }
        ]
    },
    {
        "name": "Phòng Tập Yogi",
        "latitude": 10.83725,
        "longitude": 106.62751,
        "address": "Phòng Tập Yogi, Đường Đông Hưng Thuận 2, Phường Tân Hưng Thuận, Quận 12, Hồ Chí Minh, Việt Nam",
        "country_code": "VNM",
        "country_name": "Việt Nam",
        "city": "Hồ Chí Minh",
        "district": "Quận 12",
        "ward": "Phường Tân Hưng Thuận",
        "street": "Đường Đông Hưng Thuận 2",
        "postal_code": "71509",
        "categories": [
            {
                "name": "Cơ sở hoặc địa điểm thể thao"
            }
        ]
    },
    {
        "name": "Happy Spa",
        "latitude": 10.83648,
        "longitude": 106.6185,
        "address": "Happy Spa, Đường Trường Chinh, Phường Tân Thới Nhất, Quận 12, Hồ Chí Minh, Việt Nam",
        "country_code": "VNM",
        "country_name": "Việt Nam",
        "city": "Hồ Chí Minh",
        "district": "Quận 12",
        "ward": "Phường Tân Thới Nhất",
        "street": "Đường Trường Chinh",
        "postal_code": "71510",
        "categories": [
            {
                "name": "Cơ sở hoặc địa điểm thể thao"
            },
            {
                "name": "Cắt tóc & Tạo mẫu"
            }
        ]
    },
    {
        "name": "Trung Tâm Thể Dục Thẩm Mỹ Nữ Dáng Ngọc Da Ngà",
        "latitude": 10.81162,
        "longitude": 106.62727,
        "address": "Trung Tâm Thể Dục Thẩm Mỹ Nữ Dáng Ngọc Da Ngà, Đường Chế Lan Viên, Phường Tây Thạnh, Quận Tân Phú, Hồ Chí Minh, Việt Nam",
        "country_code": "VNM",
        "country_name": "Việt Nam",
        "city": "Hồ Chí Minh",
        "district": "Quận Tân Phú",
        "ward": "Phường Tây Thạnh",
        "street": "Đường Chế Lan Viên",
        "postal_code": "72009",
        "categories": [
            {
                "name": "Cơ sở hoặc địa điểm thể thao"
            }
        ]
    },
    {
        "name": "Câu Lạc Bộ Billiards Thành Nhân 1",
        "latitude": 10.83239,
        "longitude": 106.63551,
        "address": "Câu Lạc Bộ Billiards Thành Nhân 1, Hẻm 160 Phan Huy Ích, Phường 12, Quận Gò Vấp, Hồ Chí Minh, Việt Nam",
        "country_code": "VNM",
        "country_name": "Việt Nam",
        "city": "Hồ Chí Minh",
        "district": "Quận Gò Vấp",
        "ward": "Phường 12",
        "street": "Hẻm 160 Phan Huy Ích",
        "postal_code": "71420",
        "categories": [
            {
                "name": "Cơ sở hoặc địa điểm thể thao"
            }
        ]
    },
    {
        "name": "TT GD Thể Chất & Quốc Phòng",
        "latitude": 10.83268,
        "longitude": 106.63534,
        "address": "TT GD Thể Chất & Quốc Phòng, Hẻm 160 Phan Huy Ích, Phường 12, Quận Gò Vấp, Hồ Chí Minh, Việt Nam",
        "country_code": "VNM",
        "country_name": "Việt Nam",
        "city": "Hồ Chí Minh",
        "district": "Quận Gò Vấp",
        "ward": "Phường 12",
        "street": "Hẻm 160 Phan Huy Ích",
        "postal_code": "71420",
        "categories": [
            {
                "name": "Cơ sở hoặc địa điểm thể thao"
            }
        ]
    },
    {
        "name": "Billiard Cường Phát",
        "latitude": 10.83233,
        "longitude": 106.63564,
        "address": "Billiard Cường Phát, Hẻm 160 Phan Huy Ích, Phường 12, Quận Gò Vấp, Hồ Chí Minh, Việt Nam",
        "country_code": "VNM",
        "country_name": "Việt Nam",
        "city": "Hồ Chí Minh",
        "district": "Quận Gò Vấp",
        "ward": "Phường 12",
        "street": "Hẻm 160 Phan Huy Ích",
        "postal_code": "71420",
        "categories": [
            {
                "name": "Cơ sở hoặc địa điểm thể thao"
            }
        ]
    },
    {
        "name": "Nhà Văn Hóa Khu Phố 6",
        "latitude": 10.81132,
        "longitude": 106.62673,
        "address": "Nhà Văn Hóa Khu Phố 6, Đường Chế Lan Viên, Phường Tây Thạnh, Quận Tân Phú, Hồ Chí Minh, Việt Nam",
        "country_code": "VNM",
        "country_name": "Việt Nam",
        "city": "Hồ Chí Minh",
        "district": "Quận Tân Phú",
        "ward": "Phường Tây Thạnh",
        "street": "Đường Chế Lan Viên",
        "postal_code": "72009",
        "categories": [
            {
                "name": "Cơ sở hoặc địa điểm thể thao"
            }
        ]
    },
    {
        "name": "Câu Lạc Bộ Thể Dục Dáng Ngọc",
        "latitude": 10.81692,
        "longitude": 106.63584,
        "address": "Câu Lạc Bộ Thể Dục Dáng Ngọc, 123 Đường Trần Thái Tông, Phường 15, Quận Tân Bình, Hồ Chí Minh, Việt Nam",
        "country_code": "VNM",
        "country_name": "Việt Nam",
        "city": "Hồ Chí Minh",
        "district": "Quận Tân Bình",
        "ward": "Phường 15",
        "street": "Đường Trần Thái Tông",
        "postal_code": "72109",
        "categories": [
            {
                "name": "Cơ sở hoặc địa điểm thể thao"
            },
            {
                "name": "Khu liên hợp hoặc sân vận động thể thao"
            }
        ]
    },
    {
        "name": "Câu Lạc Bộ Billiards 206",
        "latitude": 10.81127,
        "longitude": 106.62082,
        "address": "Câu Lạc Bộ Billiards 206, 206 Đường Tây Thạnh, Phường Tây Thạnh, Quận Tân Phú, Hồ Chí Minh, Việt Nam",
        "country_code": "VNM",
        "country_name": "Việt Nam",
        "city": "Hồ Chí Minh",
        "district": "Quận Tân Phú",
        "ward": "Phường Tây Thạnh",
        "street": "Đường Tây Thạnh",
        "postal_code": "72009",
        "categories": [
            {
                "name": "Cơ sở hoặc địa điểm thể thao"
            }
        ]
    },
    {
        "name": "Câu Lạc Bộ Billiards Hoa Sen",
        "latitude": 10.81116,
        "longitude": 106.62091,
        "address": "Câu Lạc Bộ Billiards Hoa Sen, 293 Đường Tây Thạnh, Phường Tây Thạnh, Quận Tân Phú, Hồ Chí Minh, Việt Nam",
        "country_code": "VNM",
        "country_name": "Việt Nam",
        "city": "Hồ Chí Minh",
        "district": "Quận Tân Phú",
        "ward": "Phường Tây Thạnh",
        "street": "Đường Tây Thạnh",
        "postal_code": "72009",
        "categories": [
            {
                "name": "Cơ sở hoặc địa điểm thể thao"
            }
        ]
    },
    {
        "name": "Trung Tâm Thể Dục Thể Thao Quận Tân Phú",
        "latitude": 10.81074,
        "longitude": 106.62599,
        "address": "Trung Tâm Thể Dục Thể Thao Quận Tân Phú, Đường Chế Lan Viên, Phường Tây Thạnh, Quận Tân Phú, Hồ Chí Minh, Việt Nam",
        "country_code": "VNM",
        "country_name": "Việt Nam",
        "city": "Hồ Chí Minh",
        "district": "Quận Tân Phú",
        "ward": "Phường Tây Thạnh",
        "street": "Đường Chế Lan Viên",
        "postal_code": "72009",
        "categories": [
            {
                "name": "Cơ sở hoặc địa điểm thể thao"
            }
        ]
    },
    {
        "name": "Câu Lạc Bộ Bida Hoa Sen 2",
        "latitude": 10.81099,
        "longitude": 106.62078,
        "address": "Câu Lạc Bộ Bida Hoa Sen 2, Đường Tây Thạnh, Phường Tây Thạnh, Quận Tân Phú, Hồ Chí Minh, Việt Nam",
        "country_code": "VNM",
        "country_name": "Việt Nam",
        "city": "Hồ Chí Minh",
        "district": "Quận Tân Phú",
        "ward": "Phường Tây Thạnh",
        "street": "Đường Tây Thạnh",
        "postal_code": "72009",
        "categories": [
            {
                "name": "Cơ sở hoặc địa điểm thể thao"
            }
        ]
    },
    {
        "name": "DV Cho Thuê Sân Bóng Đá Thanh Thảo",
        "latitude": 10.81055,
        "longitude": 106.62566,
        "address": "DV Cho Thuê Sân Bóng Đá Thanh Thảo, Đường Chế Lan Viên, Phường Tây Thạnh, Quận Tân Phú, Hồ Chí Minh, Việt Nam",
        "country_code": "VNM",
        "country_name": "Việt Nam",
        "city": "Hồ Chí Minh",
        "district": "Quận Tân Phú",
        "ward": "Phường Tây Thạnh",
        "street": "Đường Chế Lan Viên",
        "postal_code": "72009",
        "categories": [
            {
                "name": "Cơ sở hoặc địa điểm thể thao"
            }
        ]
    },
    {
        "name": "Câu Lạc Bộ Thể Hình Ngọc Hùng",
        "latitude": 10.83792,
        "longitude": 106.62942,
        "address": "Câu Lạc Bộ Thể Hình Ngọc Hùng, Đường Nguyễn Văn Quá, Phường Đông Hưng Thuận, Quận 12, Hồ Chí Minh, Việt Nam",
        "country_code": "VNM",
        "country_name": "Việt Nam",
        "city": "Hồ Chí Minh",
        "district": "Quận 12",
        "ward": "Phường Đông Hưng Thuận",
        "street": "Đường Nguyễn Văn Quá",
        "postal_code": "71508",
        "categories": [
            {
                "name": "Cơ sở hoặc địa điểm thể thao"
            }
        ]
    },
    {
        "name": "Billiards Club P8",
        "latitude": 10.81879,
        "longitude": 106.6377,
        "address": "Billiards Club P8, 243 Đường Phạm Văn Bạch, Phường 15, Quận Tân Bình, Hồ Chí Minh, Việt Nam",
        "country_code": "VNM",
        "country_name": "Việt Nam",
        "city": "Hồ Chí Minh",
        "district": "Quận Tân Bình",
        "ward": "Phường 15",
        "street": "Đường Phạm Văn Bạch",
        "postal_code": "72109",
        "categories": [
            {
                "name": "Cơ sở hoặc địa điểm thể thao"
            }
        ]
    },
    {
        "name": "Vũ My Center",
        "latitude": 10.82067,
        "longitude": 106.63842,
        "address": "Vũ My Center, 317 Đường Phạm Văn Bạch, Phường 15, Quận Tân Bình, Hồ Chí Minh, Việt Nam",
        "country_code": "VNM",
        "country_name": "Việt Nam",
        "city": "Hồ Chí Minh",
        "district": "Quận Tân Bình",
        "ward": "Phường 15",
        "street": "Đường Phạm Văn Bạch",
        "postal_code": "72109",
        "categories": [
            {
                "name": "Cơ sở hoặc địa điểm thể thao"
            },
            {
                "name": "Giải trí hoặc âm nhạc sống"
            }
        ]
    },
    {
        "name": "Câu Lạc Bộ Bida Đến",
        "latitude": 10.83215,
        "longitude": 106.63692,
        "address": "Câu Lạc Bộ Bida Đến, Hẻm 160 Phan Huy Ích, Phường 12, Quận Gò Vấp, Hồ Chí Minh, Việt Nam",
        "country_code": "VNM",
        "country_name": "Việt Nam",
        "city": "Hồ Chí Minh",
        "district": "Quận Gò Vấp",
        "ward": "Phường 12",
        "street": "Hẻm 160 Phan Huy Ích",
        "postal_code": "71420",
        "categories": [
            {
                "name": "Cơ sở hoặc địa điểm thể thao"
            }
        ]
    },
    {
        "name": "Câu Lạc Bộ Bida 54",
        "latitude": 10.82042,
        "longitude": 106.63856,
        "address": "Câu Lạc Bộ Bida 54, Đường Phạm Văn Bạch, Phường 15, Quận Tân Bình, Hồ Chí Minh, Việt Nam",
        "country_code": "VNM",
        "country_name": "Việt Nam",
        "city": "Hồ Chí Minh",
        "district": "Quận Tân Bình",
        "ward": "Phường 15",
        "street": "Đường Phạm Văn Bạch",
        "postal_code": "72109",
        "categories": [
            {
                "name": "Cơ sở hoặc địa điểm thể thao"
            },
            {
                "name": "Giải trí về đêm"
            }
        ]
    },
    {
        "name": "Thể Hình Cao Quốc Phú",
        "latitude": 10.81041,
        "longitude": 106.62711,
        "address": "Thể Hình Cao Quốc Phú, Đường Dương Đức Hiền, Phường Tây Thạnh, Quận Tân Phú, Hồ Chí Minh, Việt Nam",
        "country_code": "VNM",
        "country_name": "Việt Nam",
        "city": "Hồ Chí Minh",
        "district": "Quận Tân Phú",
        "ward": "Phường Tây Thạnh",
        "street": "Đường Dương Đức Hiền",
        "postal_code": "72009",
        "categories": [
            {
                "name": "Cơ sở hoặc địa điểm thể thao"
            }
        ]
    },
    {
        "name": "Hồ Bơi Tây Thạnh",
        "latitude": 10.81041,
        "longitude": 106.62711,
        "address": "Hồ Bơi Tây Thạnh, Đường Dương Đức Hiền, Phường Tây Thạnh, Quận Tân Phú, Hồ Chí Minh, Việt Nam",
        "country_code": "VNM",
        "country_name": "Việt Nam",
        "city": "Hồ Chí Minh",
        "district": "Quận Tân Phú",
        "ward": "Phường Tây Thạnh",
        "street": "Đường Dương Đức Hiền",
        "postal_code": "72009",
        "categories": [
            {
                "name": "Cơ sở hoặc địa điểm thể thao"
            }
        ]
    },
    {
        "name": "Billiards Sỹ Phú",
        "latitude": 10.83419,
        "longitude": 106.61345,
        "address": "Billiards Sỹ Phú, Đường Tân Thới Nhất 8, Phường Tân Thới Nhất, Quận 12, Hồ Chí Minh, Việt Nam",
        "country_code": "VNM",
        "country_name": "Việt Nam",
        "city": "Hồ Chí Minh",
        "district": "Quận 12",
        "ward": "Phường Tân Thới Nhất",
        "street": "Đường Tân Thới Nhất 8",
        "postal_code": "71510",
        "categories": [
            {
                "name": "Cơ sở hoặc địa điểm thể thao"
            }
        ]
    },
    {
        "name": "Phòng Tập Gym Quang Thái",
        "latitude": 10.81035,
        "longitude": 106.62706,
        "address": "Phòng Tập Gym Quang Thái, Đường Dương Đức Hiền, Phường Tây Thạnh, Quận Tân Phú, Hồ Chí Minh, Việt Nam",
        "country_code": "VNM",
        "country_name": "Việt Nam",
        "city": "Hồ Chí Minh",
        "district": "Quận Tân Phú",
        "ward": "Phường Tây Thạnh",
        "street": "Đường Dương Đức Hiền",
        "postal_code": "72009",
        "categories": [
            {
                "name": "Cơ sở hoặc địa điểm thể thao"
            }
        ]
    },
    {
        "name": "Câu Lạc Bộ Thể Dục Thể Hình Quang Thái",
        "latitude": 10.81031,
        "longitude": 106.62706,
        "address": "Câu Lạc Bộ Thể Dục Thể Hình Quang Thái, 80 Đường Dương Đức Hiền, Phường Tây Thạnh, Quận Tân Phú, Hồ Chí Minh, Việt Nam",
        "country_code": "VNM",
        "country_name": "Việt Nam",
        "city": "Hồ Chí Minh",
        "district": "Quận Tân Phú",
        "ward": "Phường Tây Thạnh",
        "street": "Đường Dương Đức Hiền",
        "postal_code": "72009",
        "categories": [
            {
                "name": "Cơ sở hoặc địa điểm thể thao"
            }
        ]
    },
    {
        "name": "Câu Lạc Bộ Thể Dục Thể Thao Tây Thanh",
        "latitude": 10.81027,
        "longitude": 106.62707,
        "address": "Câu Lạc Bộ Thể Dục Thể Thao Tây Thanh, Đường Dương Đức Hiền, Phường Tây Thạnh, Quận Tân Phú, Hồ Chí Minh, Việt Nam",
        "country_code": "VNM",
        "country_name": "Việt Nam",
        "city": "Hồ Chí Minh",
        "district": "Quận Tân Phú",
        "ward": "Phường Tây Thạnh",
        "street": "Đường Dương Đức Hiền",
        "postal_code": "72009",
        "categories": [
            {
                "name": "Cơ sở hoặc địa điểm thể thao"
            },
            {
                "name": "Vui chơi & Giải trí"
            }
        ]
    },
    {
        "name": "Câu Lạc Bộ Bóng Đá Quang Tuyến 3",
        "latitude": 10.83219,
        "longitude": 106.6373,
        "address": "Câu Lạc Bộ Bóng Đá Quang Tuyến 3, Hẻm 160 Phan Huy Ích, Phường 12, Quận Gò Vấp, Hồ Chí Minh, Việt Nam",
        "country_code": "VNM",
        "country_name": "Việt Nam",
        "city": "Hồ Chí Minh",
        "district": "Quận Gò Vấp",
        "ward": "Phường 12",
        "street": "Hẻm 160 Phan Huy Ích",
        "postal_code": "71420",
        "categories": [
            {
                "name": "Cơ sở hoặc địa điểm thể thao"
            }
        ]
    },
    {
        "name": "Sân Vận Động Tây Thạnh",
        "latitude": 10.81015,
        "longitude": 106.62701,
        "address": "Sân Vận Động Tây Thạnh, Đường Dương Đức Hiền, Phường Tây Thạnh, Quận Tân Phú, Hồ Chí Minh, Việt Nam",
        "country_code": "VNM",
        "country_name": "Việt Nam",
        "city": "Hồ Chí Minh",
        "district": "Quận Tân Phú",
        "ward": "Phường Tây Thạnh",
        "street": "Đường Dương Đức Hiền",
        "postal_code": "72009",
        "categories": [
            {
                "name": "Cơ sở hoặc địa điểm thể thao"
            },
            {
                "name": "Khu liên hợp hoặc sân vận động thể thao"
            }
        ]
    },
    {
        "name": "Câu Lạc Bộ Billiards Phúc Thịnh",
        "latitude": 10.83433,
        "longitude": 106.63593,
        "address": "Câu Lạc Bộ Billiards Phúc Thịnh, Hẻm 17 Nguyễn Tư Giản, Phường 12, Quận Gò Vấp, Hồ Chí Minh, Việt Nam",
        "country_code": "VNM",
        "country_name": "Việt Nam",
        "city": "Hồ Chí Minh",
        "district": "Quận Gò Vấp",
        "ward": "Phường 12",
        "street": "Hẻm 17 Nguyễn Tư Giản",
        "postal_code": "71420",
        "categories": [
            {
                "name": "Cơ sở hoặc địa điểm thể thao"
            },
            {
                "name": "Giải trí về đêm"
            }
        ]
    },
    {
        "name": "Sân Tennis Nam Phương",
        "latitude": 10.80999,
        "longitude": 106.62701,
        "address": "Sân Tennis Nam Phương, Đường Dương Đức Hiền, Phường Tây Thạnh, Quận Tân Phú, Hồ Chí Minh, Việt Nam",
        "country_code": "VNM",
        "country_name": "Việt Nam",
        "city": "Hồ Chí Minh",
        "district": "Quận Tân Phú",
        "ward": "Phường Tây Thạnh",
        "street": "Đường Dương Đức Hiền",
        "postal_code": "72009",
        "categories": [
            {
                "name": "Cơ sở hoặc địa điểm thể thao"
            }
        ]
    },
    {
        "name": "Thể Hình Huy Long",
        "latitude": 10.83666,
        "longitude": 106.61561,
        "address": "Thể Hình Huy Long, Đường Tân Thới Nhất 1, Phường Tân Thới Nhất, Quận 12, Hồ Chí Minh, Việt Nam",
        "country_code": "VNM",
        "country_name": "Việt Nam",
        "city": "Hồ Chí Minh",
        "district": "Quận 12",
        "ward": "Phường Tân Thới Nhất",
        "street": "Đường Tân Thới Nhất 1",
        "postal_code": "71510",
        "categories": [
            {
                "name": "Cơ sở hoặc địa điểm thể thao"
            },
            {
                "name": "Câu lạc bộ thể dục hoặc sức khỏe"
            }
        ]
    },
    {
        "name": "Phòng Tập Thể Dục Gia Đình",
        "latitude": 10.83927,
        "longitude": 106.62763,
        "address": "Phòng Tập Thể Dục Gia Đình, Đường ĐHT 2, Phường Tân Hưng Thuận, Quận 12, Hồ Chí Minh, Việt Nam",
        "country_code": "VNM",
        "country_name": "Việt Nam",
        "city": "Hồ Chí Minh",
        "district": "Quận 12",
        "ward": "Phường Tân Hưng Thuận",
        "street": "Đường ĐHT 2",
        "postal_code": "71509",
        "categories": [
            {
                "name": "Cơ sở hoặc địa điểm thể thao"
            },
            {
                "name": "Câu lạc bộ thể dục hoặc sức khỏe"
            }
        ]
    },
    {
        "name": "Sân Bóng Đá Cỏ Nhân Tạo Thanh Thảo",
        "latitude": 10.8102,
        "longitude": 106.6295,
        "address": "Sân Bóng Đá Cỏ Nhân Tạo Thanh Thảo, Hẻm 103 Nguyễn Hữu Dật, Phường Tây Thạnh, Quận Tân Phú, Hồ Chí Minh, Việt Nam",
        "country_code": "VNM",
        "country_name": "Việt Nam",
        "city": "Hồ Chí Minh",
        "district": "Quận Tân Phú",
        "ward": "Phường Tây Thạnh",
        "street": "Hẻm 103 Nguyễn Hữu Dật",
        "postal_code": "72009",
        "categories": [
            {
                "name": "Cơ sở hoặc địa điểm thể thao"
            }
        ]
    },
    {
        "name": "Sân Tennis Và Bóng Đá",
        "latitude": 10.82009,
        "longitude": 106.63936,
        "address": "Sân Tennis Và Bóng Đá, Đường Tân Sơn, Phường 15, Quận Tân Bình, Hồ Chí Minh, Việt Nam",
        "country_code": "VNM",
        "country_name": "Việt Nam",
        "city": "Hồ Chí Minh",
        "district": "Quận Tân Bình",
        "ward": "Phường 15",
        "street": "Đường Tân Sơn",
        "postal_code": "72109",
        "categories": [
            {
                "name": "Cơ sở hoặc địa điểm thể thao"
            }
        ]
    }
]
