[
    {
        "name": "Kim Ngân Cơm",
        "latitude": 10.91583,
        "longitude": 106.79224,
        "address": "Kim Ngân Cơm, Đường Mỹ Phước-Tân Vạn, Phường Tân Đông Hiệp, Dĩ An, Bình Dương, Việt Nam",
        "country_code": "VNM",
        "country_name": "Việt Nam",
        "city": "Bình Dương",
        "district": "Dĩ An",
        "ward": "Phường Tân Đông Hiệp",
        "street": "Đường Mỹ Phước-Tân Vạn",
        "postal_code": "75311",
        "categories": [
            {
                "name": "Nhà hàng"
            }
        ]
    },
    {
        "name": "Thái Sơn 38",
        "latitude": 10.91603,
        "longitude": 106.79177,
        "address": "Thái Sơn 38, Đường Mỹ Phước-Tân Vạn, Phường Tân Đông Hiệp, Dĩ An, Bình Dương, Việt Nam",
        "country_code": "VNM",
        "country_name": "Việt Nam",
        "city": "Bình Dương",
        "district": "Dĩ An",
        "ward": "Phường Tân Đông Hiệp",
        "street": "Đường Mỹ Phước-Tân Vạn",
        "postal_code": "75311",
        "categories": [
            {
                "name": "Nhà hàng"
            }
        ]
    },
    {
        "name": "Quần Vải Nổi Cộm",
        "latitude": 10.91603,
        "longitude": 106.79162,
        "address": "Quần Vải Nổi Cộm, Đường Mỹ Phước-Tân Vạn, Phường Tân Đông Hiệp, Dĩ An, Bình Dương, Việt Nam",
        "country_code": "VNM",
        "country_name": "Việt Nam",
        "city": "Bình Dương",
        "district": "Dĩ An",
        "ward": "Phường Tân Đông Hiệp",
        "street": "Đường Mỹ Phước-Tân Vạn",
        "postal_code": "75311",
        "categories": [
            {
                "name": "Nhà hàng"
            }
        ]
    },
    {
        "name": "Miền Trung Quán",
        "latitude": 10.91517,
        "longitude": 106.79349,
        "address": "Miền Trung Quán, Đường Mỹ Phước-Tân Vạn, Phường Tân Đông Hiệp, Dĩ An, Bình Dương, Việt Nam",
        "country_code": "VNM",
        "country_name": "Việt Nam",
        "city": "Bình Dương",
        "district": "Dĩ An",
        "ward": "Phường Tân Đông Hiệp",
        "street": "Đường Mỹ Phước-Tân Vạn",
        "postal_code": "75311",
        "categories": [
            {
                "name": "Nhà hàng"
            }
        ]
    },
    {
        "name": "Phong Ký",
        "latitude": 10.91432,
        "longitude": 106.79497,
        "address": "Phong Ký, Đường Mỹ Phước-Tân Vạn, Phường Tân Đông Hiệp, Dĩ An, Bình Dương, Việt Nam",
        "country_code": "VNM",
        "country_name": "Việt Nam",
        "city": "Bình Dương",
        "district": "Dĩ An",
        "ward": "Phường Tân Đông Hiệp",
        "street": "Đường Mỹ Phước-Tân Vạn",
        "postal_code": "75311",
        "categories": [
            {
                "name": "Nhà hàng"
            }
        ]
    },
    {
        "name": "Phở Hùng",
        "latitude": 10.91202,
        "longitude": 106.79627,
        "address": "Phở Hùng, Quốc Lộ 1K, Phường Tân Đông Hiệp, Dĩ An, Bình Dương, Việt Nam",
        "country_code": "VNM",
        "country_name": "Việt Nam",
        "city": "Bình Dương",
        "district": "Dĩ An",
        "ward": "Phường Tân Đông Hiệp",
        "street": "Quốc Lộ 1K",
        "postal_code": "75311",
        "categories": [
            {
                "name": "Nhà hàng"
            }
        ]
    },
    {
        "name": "Song Phố Cafe",
        "latitude": 10.91436,
        "longitude": 106.79794,
        "address": "Song Phố Cafe, QL.1K, Phường Tân Đông Hiệp, Dĩ An, Bình Dương, Việt Nam",
        "country_code": "VNM",
        "country_name": "Việt Nam",
        "city": "Bình Dương",
        "district": "Dĩ An",
        "ward": "Phường Tân Đông Hiệp",
        "street": "QL.1K",
        "postal_code": "75311",
        "categories": [
            {
                "name": "Nhà hàng"
            },
            {
                "name": "Quán cà phê"
            }
        ]
    },
    {
        "name": "Chè Huế 75",
        "latitude": 10.9083,
        "longitude": 106.78886,
        "address": "Chè Huế 75, TL.743, Phường Tân Đông Hiệp, Dĩ An, Bình Dương, Việt Nam",
        "country_code": "VNM",
        "country_name": "Việt Nam",
        "city": "Bình Dương",
        "district": "Dĩ An",
        "ward": "Phường Tân Đông Hiệp",
        "street": "TL.743",
        "postal_code": "75311",
        "categories": [
            {
                "name": "Nhà hàng"
            },
            {
                "name": "Quán cà phê"
            }
        ]
    },
    {
        "name": "Quán 68",
        "latitude": 10.90774,
        "longitude": 106.79059,
        "address": "Quán 68, TL.743, Phường Tân Đông Hiệp, Dĩ An, Bình Dương, Việt Nam",
        "country_code": "VNM",
        "country_name": "Việt Nam",
        "city": "Bình Dương",
        "district": "Dĩ An",
        "ward": "Phường Tân Đông Hiệp",
        "street": "TL.743",
        "postal_code": "75311",
        "categories": [
            {
                "name": "Nhà hàng"
            }
        ]
    },
    {
        "name": "Lẩu Dê Tư Vân",
        "latitude": 10.90774,
        "longitude": 106.79059,
        "address": "Lẩu Dê Tư Vân, TL.743, Phường Tân Đông Hiệp, Dĩ An, Bình Dương, Việt Nam",
        "country_code": "VNM",
        "country_name": "Việt Nam",
        "city": "Bình Dương",
        "district": "Dĩ An",
        "ward": "Phường Tân Đông Hiệp",
        "street": "TL.743",
        "postal_code": "75311",
        "categories": [
            {
                "name": "Quán ăn bình dân"
            },
            {
                "name": "Nhà hàng"
            }
        ]
    },
    {
        "name": "Phở Tú Hà Nội",
        "latitude": 10.90774,
        "longitude": 106.79059,
        "address": "Phở Tú Hà Nội, TL.743, Phường Tân Đông Hiệp, Dĩ An, Bình Dương, Việt Nam",
        "country_code": "VNM",
        "country_name": "Việt Nam",
        "city": "Bình Dương",
        "district": "Dĩ An",
        "ward": "Phường Tân Đông Hiệp",
        "street": "TL.743",
        "postal_code": "75311",
        "categories": [
            {
                "name": "Nhà hàng"
            }
        ]
    },
    {
        "name": "Cơm Sườn Nướng",
        "latitude": 10.90774,
        "longitude": 106.79059,
        "address": "Cơm Sườn Nướng, TL.743, Phường Tân Đông Hiệp, Dĩ An, Bình Dương, Việt Nam",
        "country_code": "VNM",
        "country_name": "Việt Nam",
        "city": "Bình Dương",
        "district": "Dĩ An",
        "ward": "Phường Tân Đông Hiệp",
        "street": "TL.743",
        "postal_code": "75311",
        "categories": [
            {
                "name": "Nhà hàng"
            }
        ]
    },
    {
        "name": "Quán Dì Bảy 4",
        "latitude": 10.90773,
        "longitude": 106.79062,
        "address": "Quán Dì Bảy 4, TL.743, Phường Tân Đông Hiệp, Dĩ An, Bình Dương, Việt Nam",
        "country_code": "VNM",
        "country_name": "Việt Nam",
        "city": "Bình Dương",
        "district": "Dĩ An",
        "ward": "Phường Tân Đông Hiệp",
        "street": "TL.743",
        "postal_code": "75311",
        "categories": [
            {
                "name": "Nhà hàng"
            }
        ]
    },
    {
        "name": "Cơm Gà Xối Mở Mì Xào Bò Xào",
        "latitude": 10.90794,
        "longitude": 106.78958,
        "address": "Cơm Gà Xối Mở Mì Xào Bò Xào, ĐT.743B, Phường Tân Đông Hiệp, Dĩ An, Bình Dương, Việt Nam",
        "country_code": "VNM",
        "country_name": "Việt Nam",
        "city": "Bình Dương",
        "district": "Dĩ An",
        "ward": "Phường Tân Đông Hiệp",
        "street": "ĐT.743B",
        "postal_code": "75311",
        "categories": [
            {
                "name": "Nhà hàng"
            }
        ]
    },
    {
        "name": "Phở Gia Truyền Trần Gia",
        "latitude": 10.90798,
        "longitude": 106.78943,
        "address": "Phở Gia Truyền Trần Gia, ĐT.743B, Phường Tân Đông Hiệp, Dĩ An, Bình Dương, Việt Nam",
        "country_code": "VNM",
        "country_name": "Việt Nam",
        "city": "Bình Dương",
        "district": "Dĩ An",
        "ward": "Phường Tân Đông Hiệp",
        "street": "ĐT.743B",
        "postal_code": "75311",
        "categories": [
            {
                "name": "Nhà hàng"
            }
        ]
    },
    {
        "name": "Cầy Mái Lá 9 Món",
        "latitude": 10.90888,
        "longitude": 106.7875,
        "address": "Cầy Mái Lá 9 Món, TL.743, Phường Tân Đông Hiệp, Dĩ An, Bình Dương, Việt Nam",
        "country_code": "VNM",
        "country_name": "Việt Nam",
        "city": "Bình Dương",
        "district": "Dĩ An",
        "ward": "Phường Tân Đông Hiệp",
        "street": "TL.743",
        "postal_code": "75311",
        "categories": [
            {
                "name": "Nhà hàng"
            }
        ]
    },
    {
        "name": "Cơm Tấm, Bún Riêu & Bún Thịt Nướng",
        "latitude": 10.90825,
        "longitude": 106.79502,
        "address": "Cơm Tấm, Bún Riêu & Bún Thịt Nướng, Xa Lộ Hà Nội, Phường Tân Đông Hiệp, Dĩ An, Bình Dương, Việt Nam",
        "country_code": "VNM",
        "country_name": "Việt Nam",
        "city": "Bình Dương",
        "district": "Dĩ An",
        "ward": "Phường Tân Đông Hiệp",
        "street": "Xa Lộ Hà Nội",
        "postal_code": "75311",
        "categories": [
            {
                "name": "Nhà hàng"
            }
        ]
    },
    {
        "name": "Phở Hồng",
        "latitude": 10.90736,
        "longitude": 106.79157,
        "address": "Phở Hồng, TL.743, Phường Tân Đông Hiệp, Dĩ An, Bình Dương, Việt Nam",
        "country_code": "VNM",
        "country_name": "Việt Nam",
        "city": "Bình Dương",
        "district": "Dĩ An",
        "ward": "Phường Tân Đông Hiệp",
        "street": "TL.743",
        "postal_code": "75311",
        "categories": [
            {
                "name": "Nhà hàng"
            }
        ]
    },
    {
        "name": "Cháo Lòng Bánh Cuốn Nóng",
        "latitude": 10.90852,
        "longitude": 106.78773,
        "address": "Cháo Lòng Bánh Cuốn Nóng, TL.743, Phường Tân Đông Hiệp, Dĩ An, Bình Dương, Việt Nam",
        "country_code": "VNM",
        "country_name": "Việt Nam",
        "city": "Bình Dương",
        "district": "Dĩ An",
        "ward": "Phường Tân Đông Hiệp",
        "street": "TL.743",
        "postal_code": "75311",
        "categories": [
            {
                "name": "Nhà hàng"
            }
        ]
    },
    {
        "name": "Cơm Tấm Bún Thịt Nướng",
        "latitude": 10.90858,
        "longitude": 106.78754,
        "address": "Cơm Tấm Bún Thịt Nướng, ĐT.743B, Phường Tân Đông Hiệp, Dĩ An, Bình Dương, Việt Nam",
        "country_code": "VNM",
        "country_name": "Việt Nam",
        "city": "Bình Dương",
        "district": "Dĩ An",
        "ward": "Phường Tân Đông Hiệp",
        "street": "ĐT.743B",
        "postal_code": "75311",
        "categories": [
            {
                "name": "Nhà hàng"
            }
        ]
    },
    {
        "name": "Hệ Thống Lẩu Bò Năm Cường 5",
        "latitude": 10.90706,
        "longitude": 106.79283,
        "address": "Hệ Thống Lẩu Bò Năm Cường 5, TL.743, Phường Tân Đông Hiệp, Dĩ An, Bình Dương, Việt Nam",
        "country_code": "VNM",
        "country_name": "Việt Nam",
        "city": "Bình Dương",
        "district": "Dĩ An",
        "ward": "Phường Tân Đông Hiệp",
        "street": "TL.743",
        "postal_code": "75311",
        "categories": [
            {
                "name": "Nhà hàng"
            }
        ]
    },
    {
        "name": "Quán Cơm Thu",
        "latitude": 10.90865,
        "longitude": 106.78699,
        "address": "Quán Cơm Thu, TL.743, Phường Tân Đông Hiệp, Dĩ An, Bình Dương, Việt Nam",
        "country_code": "VNM",
        "country_name": "Việt Nam",
        "city": "Bình Dương",
        "district": "Dĩ An",
        "ward": "Phường Tân Đông Hiệp",
        "street": "TL.743",
        "postal_code": "75311",
        "categories": [
            {
                "name": "Nhà hàng"
            }
        ]
    },
    {
        "name": "Quán Thăng Long",
        "latitude": 10.90699,
        "longitude": 106.79304,
        "address": "Quán Thăng Long, TL.743, Phường Tân Đông Hiệp, Dĩ An, Bình Dương, Việt Nam",
        "country_code": "VNM",
        "country_name": "Việt Nam",
        "city": "Bình Dương",
        "district": "Dĩ An",
        "ward": "Phường Tân Đông Hiệp",
        "street": "TL.743",
        "postal_code": "75311",
        "categories": [
            {
                "name": "Nhà hàng"
            }
        ]
    },
    {
        "name": "Lẩu Vịt Quán Ní Ơi",
        "latitude": 10.90914,
        "longitude": 106.78632,
        "address": "Lẩu Vịt Quán Ní Ơi, Đường Tỉnh 743B, Phường Tân Đông Hiệp, Dĩ An, Bình Dương, Việt Nam",
        "country_code": "VNM",
        "country_name": "Việt Nam",
        "city": "Bình Dương",
        "district": "Dĩ An",
        "ward": "Phường Tân Đông Hiệp",
        "street": "Đường Tỉnh 743B",
        "postal_code": "75311",
        "categories": [
            {
                "name": "Nhà hàng"
            }
        ]
    },
    {
        "name": "Bún Chả Hà Nội Bánh Cuốn Nóng",
        "latitude": 10.90892,
        "longitude": 106.7864,
        "address": "Bún Chả Hà Nội Bánh Cuốn Nóng, TL.743, Phường Tân Đông Hiệp, Dĩ An, Bình Dương, Việt Nam",
        "country_code": "VNM",
        "country_name": "Việt Nam",
        "city": "Bình Dương",
        "district": "Dĩ An",
        "ward": "Phường Tân Đông Hiệp",
        "street": "TL.743",
        "postal_code": "75311",
        "categories": [
            {
                "name": "Nhà hàng"
            }
        ]
    },
    {
        "name": "Tiệm Mì Gia Ký",
        "latitude": 10.90907,
        "longitude": 106.78607,
        "address": "Tiệm Mì Gia Ký, Đường Tỉnh 743B, Phường Tân Đông Hiệp, Dĩ An, Bình Dương, Việt Nam",
        "country_code": "VNM",
        "country_name": "Việt Nam",
        "city": "Bình Dương",
        "district": "Dĩ An",
        "ward": "Phường Tân Đông Hiệp",
        "street": "Đường Tỉnh 743B",
        "postal_code": "75311",
        "categories": [
            {
                "name": "Nhà hàng"
            }
        ]
    },
    {
        "name": "Quán Ăn Bảo Huy",
        "latitude": 10.90723,
        "longitude": 106.79502,
        "address": "Quán Ăn Bảo Huy, Xa Lộ Hà Nội, Phường Bình Thắng, Dĩ An, Bình Dương, Việt Nam",
        "country_code": "VNM",
        "country_name": "Việt Nam",
        "city": "Bình Dương",
        "district": "Dĩ An",
        "ward": "Phường Bình Thắng",
        "street": "Xa Lộ Hà Nội",
        "postal_code": "75309",
        "categories": [
            {
                "name": "Nhà hàng"
            }
        ]
    },
    {
        "name": "Quán Hải Anh",
        "latitude": 10.90907,
        "longitude": 106.78574,
        "address": "Quán Hải Anh, TL.743, Phường Tân Đông Hiệp, Dĩ An, Bình Dương, Việt Nam",
        "country_code": "VNM",
        "country_name": "Việt Nam",
        "city": "Bình Dương",
        "district": "Dĩ An",
        "ward": "Phường Tân Đông Hiệp",
        "street": "TL.743",
        "postal_code": "75311",
        "categories": [
            {
                "name": "Quán ăn bình dân"
            },
            {
                "name": "Nhà hàng"
            }
        ]
    },
    {
        "name": "Sâm Lạnh Bông Cúc",
        "latitude": 10.90657,
        "longitude": 106.79429,
        "address": "Sâm Lạnh Bông Cúc, ĐT.743B, Phường Bình Thắng, Dĩ An, Bình Dương, Việt Nam",
        "country_code": "VNM",
        "country_name": "Việt Nam",
        "city": "Bình Dương",
        "district": "Dĩ An",
        "ward": "Phường Bình Thắng",
        "street": "ĐT.743B",
        "postal_code": "75309",
        "categories": [
            {
                "name": "Nhà hàng"
            }
        ]
    },
    {
        "name": "Bánh Xèo Miền Tây",
        "latitude": 10.90949,
        "longitude": 106.7843,
        "address": "Bánh Xèo Miền Tây, TL.743, Phường Tân Đông Hiệp, Dĩ An, Bình Dương, Việt Nam",
        "country_code": "VNM",
        "country_name": "Việt Nam",
        "city": "Bình Dương",
        "district": "Dĩ An",
        "ward": "Phường Tân Đông Hiệp",
        "street": "TL.743",
        "postal_code": "75311",
        "categories": [
            {
                "name": "Nhà hàng"
            }
        ]
    },
    {
        "name": "Cháo Lòng-Bò Kho-Bún Mộc",
        "latitude": 10.90589,
        "longitude": 106.79463,
        "address": "Cháo Lòng-Bò Kho-Bún Mộc, Xa Lộ Hà Nội, Phường Bình Thắng, Dĩ An, Bình Dương, Việt Nam",
        "country_code": "VNM",
        "country_name": "Việt Nam",
        "city": "Bình Dương",
        "district": "Dĩ An",
        "ward": "Phường Bình Thắng",
        "street": "Xa Lộ Hà Nội",
        "postal_code": "75309",
        "categories": [
            {
                "name": "Nhà hàng"
            }
        ]
    },
    {
        "name": "Quán Ăn Sân Vườn Hải Sản Sáu Dinh",
        "latitude": 10.9054,
        "longitude": 106.7941,
        "address": "Quán Ăn Sân Vườn Hải Sản Sáu Dinh, Xa Lộ Hà Nội, Phường Bình Thắng, Dĩ An, Bình Dương, Việt Nam",
        "country_code": "VNM",
        "country_name": "Việt Nam",
        "city": "Bình Dương",
        "district": "Dĩ An",
        "ward": "Phường Bình Thắng",
        "street": "Xa Lộ Hà Nội",
        "postal_code": "75309",
        "categories": [
            {
                "name": "Nhà hàng"
            }
        ]
    },
    {
        "name": "Cơm Tấm Dĩ An",
        "latitude": 10.9164,
        "longitude": 106.78276,
        "address": "Cơm Tấm Dĩ An, Đường Đồng An, Phường Tân Đông Hiệp, Dĩ An, Bình Dương, Việt Nam",
        "country_code": "VNM",
        "country_name": "Việt Nam",
        "city": "Bình Dương",
        "district": "Dĩ An",
        "ward": "Phường Tân Đông Hiệp",
        "street": "Đường Đồng An",
        "postal_code": "75311",
        "categories": [
            {
                "name": "Nhà hàng"
            }
        ]
    },
    {
        "name": "Cơm Hồng Phát",
        "latitude": 10.91302,
        "longitude": 106.78227,
        "address": "Cơm Hồng Phát, Đường D1, Phường Tân Đông Hiệp, Dĩ An, Bình Dương, Việt Nam",
        "country_code": "VNM",
        "country_name": "Việt Nam",
        "city": "Bình Dương",
        "district": "Dĩ An",
        "ward": "Phường Tân Đông Hiệp",
        "street": "Đường D1",
        "postal_code": "75311",
        "categories": [
            {
                "name": "Nhà hàng"
            }
        ]
    },
    {
        "name": "Quán Thanh Ngọc",
        "latitude": 10.9155,
        "longitude": 106.7823,
        "address": "Quán Thanh Ngọc, Đường D1, Phường Tân Đông Hiệp, Dĩ An, Bình Dương, Việt Nam",
        "country_code": "VNM",
        "country_name": "Việt Nam",
        "city": "Bình Dương",
        "district": "Dĩ An",
        "ward": "Phường Tân Đông Hiệp",
        "street": "Đường D1",
        "postal_code": "75311",
        "categories": [
            {
                "name": "Nhà hàng"
            }
        ]
    },
    {
        "name": "Bún Lá Bắc Bún Chả Thịt Nướng Hà Nội",
        "latitude": 10.91367,
        "longitude": 106.7822,
        "address": "Bún Lá Bắc Bún Chả Thịt Nướng Hà Nội, Đường D1, Phường Tân Đông Hiệp, Dĩ An, Bình Dương, Việt Nam",
        "country_code": "VNM",
        "country_name": "Việt Nam",
        "city": "Bình Dương",
        "district": "Dĩ An",
        "ward": "Phường Tân Đông Hiệp",
        "street": "Đường D1",
        "postal_code": "75311",
        "categories": [
            {
                "name": "Nhà hàng"
            }
        ]
    },
    {
        "name": "Quán Cơm Tấm Bún Bì Bún Thịt Nướng Ngọc Hà",
        "latitude": 10.91367,
        "longitude": 106.7822,
        "address": "Quán Cơm Tấm Bún Bì Bún Thịt Nướng Ngọc Hà, Đường D1, Phường Tân Đông Hiệp, Dĩ An, Bình Dương, Việt Nam",
        "country_code": "VNM",
        "country_name": "Việt Nam",
        "city": "Bình Dương",
        "district": "Dĩ An",
        "ward": "Phường Tân Đông Hiệp",
        "street": "Đường D1",
        "postal_code": "75311",
        "categories": [
            {
                "name": "Nhà hàng"
            }
        ]
    },
    {
        "name": "Bia Tươi Biva",
        "latitude": 10.91367,
        "longitude": 106.7822,
        "address": "Bia Tươi Biva, 50 Đường D1, Phường Tân Đông Hiệp, Dĩ An, Bình Dương, Việt Nam",
        "country_code": "VNM",
        "country_name": "Việt Nam",
        "city": "Bình Dương",
        "district": "Dĩ An",
        "ward": "Phường Tân Đông Hiệp",
        "street": "Đường D1",
        "postal_code": "75311",
        "categories": [
            {
                "name": "Nhà hàng"
            }
        ]
    },
    {
        "name": "Quán Đầu Bạc",
        "latitude": 10.91458,
        "longitude": 106.78219,
        "address": "Quán Đầu Bạc, Đường D1, Phường Tân Đông Hiệp, Dĩ An, Bình Dương, Việt Nam",
        "country_code": "VNM",
        "country_name": "Việt Nam",
        "city": "Bình Dương",
        "district": "Dĩ An",
        "ward": "Phường Tân Đông Hiệp",
        "street": "Đường D1",
        "postal_code": "75311",
        "categories": [
            {
                "name": "Nhà hàng"
            }
        ]
    },
    {
        "name": "Bê Thui 79",
        "latitude": 10.9161,
        "longitude": 106.78226,
        "address": "Bê Thui 79, Đường D1, Phường Tân Đông Hiệp, Dĩ An, Bình Dương, Việt Nam",
        "country_code": "VNM",
        "country_name": "Việt Nam",
        "city": "Bình Dương",
        "district": "Dĩ An",
        "ward": "Phường Tân Đông Hiệp",
        "street": "Đường D1",
        "postal_code": "75311",
        "categories": [
            {
                "name": "Nhà hàng"
            }
        ]
    },
    {
        "name": "Bánh Đa Cá Rô Đồng Lan Anh",
        "latitude": 10.91286,
        "longitude": 106.78212,
        "address": "Bánh Đa Cá Rô Đồng Lan Anh, Đường D1, Phường Tân Đông Hiệp, Dĩ An, Bình Dương, Việt Nam",
        "country_code": "VNM",
        "country_name": "Việt Nam",
        "city": "Bình Dương",
        "district": "Dĩ An",
        "ward": "Phường Tân Đông Hiệp",
        "street": "Đường D1",
        "postal_code": "75311",
        "categories": [
            {
                "name": "Nhà hàng"
            }
        ]
    },
    {
        "name": "Ẩm Thực Xứ Nghệ Lam Hồng 6",
        "latitude": 10.91619,
        "longitude": 106.78227,
        "address": "Ẩm Thực Xứ Nghệ Lam Hồng 6, Đường D1, Phường Tân Đông Hiệp, Dĩ An, Bình Dương, Việt Nam",
        "country_code": "VNM",
        "country_name": "Việt Nam",
        "city": "Bình Dương",
        "district": "Dĩ An",
        "ward": "Phường Tân Đông Hiệp",
        "street": "Đường D1",
        "postal_code": "75311",
        "categories": [
            {
                "name": "Nhà hàng"
            }
        ]
    },
    {
        "name": "Quán 75 Bún Bò Gốc Huế",
        "latitude": 10.91666,
        "longitude": 106.78234,
        "address": "Quán 75 Bún Bò Gốc Huế, Đường D1, Phường Tân Đông Hiệp, Dĩ An, Bình Dương, Việt Nam",
        "country_code": "VNM",
        "country_name": "Việt Nam",
        "city": "Bình Dương",
        "district": "Dĩ An",
        "ward": "Phường Tân Đông Hiệp",
        "street": "Đường D1",
        "postal_code": "75311",
        "categories": [
            {
                "name": "Nhà hàng"
            }
        ]
    },
    {
        "name": "Quán Trâu Tươi",
        "latitude": 10.91384,
        "longitude": 106.78197,
        "address": "Quán Trâu Tươi, Đường D1, Phường Tân Đông Hiệp, Dĩ An, Bình Dương, Việt Nam",
        "country_code": "VNM",
        "country_name": "Việt Nam",
        "city": "Bình Dương",
        "district": "Dĩ An",
        "ward": "Phường Tân Đông Hiệp",
        "street": "Đường D1",
        "postal_code": "75311",
        "categories": [
            {
                "name": "Nhà hàng"
            }
        ]
    },
    {
        "name": "Quán Minh Thái",
        "latitude": 10.91491,
        "longitude": 106.78199,
        "address": "Quán Minh Thái, Đường D1, Phường Tân Đông Hiệp, Dĩ An, Bình Dương, Việt Nam",
        "country_code": "VNM",
        "country_name": "Việt Nam",
        "city": "Bình Dương",
        "district": "Dĩ An",
        "ward": "Phường Tân Đông Hiệp",
        "street": "Đường D1",
        "postal_code": "75311",
        "categories": [
            {
                "name": "Nhà hàng"
            }
        ]
    },
    {
        "name": "Quán 286 Đặc Sản Đồng Quê",
        "latitude": 10.90812,
        "longitude": 106.7994,
        "address": "Quán 286 Đặc Sản Đồng Quê, Đường Bình Thung, Phường Bình Thắng, Dĩ An, Bình Dương, Việt Nam",
        "country_code": "VNM",
        "country_name": "Việt Nam",
        "city": "Bình Dương",
        "district": "Dĩ An",
        "ward": "Phường Bình Thắng",
        "street": "Đường Bình Thung",
        "postal_code": "75309",
        "categories": [
            {
                "name": "Nhà hàng"
            }
        ]
    },
    {
        "name": "Quán Ăn Gia Đình 286",
        "latitude": 10.90812,
        "longitude": 106.7994,
        "address": "Quán Ăn Gia Đình 286, Đường Bình Thung, Phường Bình Thắng, Dĩ An, Bình Dương, Việt Nam",
        "country_code": "VNM",
        "country_name": "Việt Nam",
        "city": "Bình Dương",
        "district": "Dĩ An",
        "ward": "Phường Bình Thắng",
        "street": "Đường Bình Thung",
        "postal_code": "75309",
        "categories": [
            {
                "name": "Nhà hàng"
            }
        ]
    },
    {
        "name": "Kim Huệ - Bánh Mì Thổ Nhĩ Kỳ",
        "latitude": 10.91413,
        "longitude": 106.78194,
        "address": "Kim Huệ - Bánh Mì Thổ Nhĩ Kỳ, Đường D1, Phường Tân Đông Hiệp, Dĩ An, Bình Dương, Việt Nam",
        "country_code": "VNM",
        "country_name": "Việt Nam",
        "city": "Bình Dương",
        "district": "Dĩ An",
        "ward": "Phường Tân Đông Hiệp",
        "street": "Đường D1",
        "postal_code": "75311",
        "categories": [
            {
                "name": "Nhà hàng"
            }
        ]
    },
    {
        "name": "Anh Tư Quán",
        "latitude": 10.91315,
        "longitude": 106.78198,
        "address": "Anh Tư Quán, Đường D1, Phường Tân Đông Hiệp, Dĩ An, Bình Dương, Việt Nam",
        "country_code": "VNM",
        "country_name": "Việt Nam",
        "city": "Bình Dương",
        "district": "Dĩ An",
        "ward": "Phường Tân Đông Hiệp",
        "street": "Đường D1",
        "postal_code": "75311",
        "categories": [
            {
                "name": "Nhà hàng"
            }
        ]
    },
    {
        "name": "Cháo Lươn Xứ Nghệ",
        "latitude": 10.91636,
        "longitude": 106.78218,
        "address": "Cháo Lươn Xứ Nghệ, Đường D1, Phường Tân Đông Hiệp, Dĩ An, Bình Dương, Việt Nam",
        "country_code": "VNM",
        "country_name": "Việt Nam",
        "city": "Bình Dương",
        "district": "Dĩ An",
        "ward": "Phường Tân Đông Hiệp",
        "street": "Đường D1",
        "postal_code": "75311",
        "categories": [
            {
                "name": "Nhà hàng"
            },
            {
                "name": "Đặc sản & Đồ uống"
            }
        ]
    },
    {
        "name": "Quán 142",
        "latitude": 10.91709,
        "longitude": 106.78237,
        "address": "Quán 142, Đường D1, Phường Tân Đông Hiệp, Dĩ An, Bình Dương, Việt Nam",
        "country_code": "VNM",
        "country_name": "Việt Nam",
        "city": "Bình Dương",
        "district": "Dĩ An",
        "ward": "Phường Tân Đông Hiệp",
        "street": "Đường D1",
        "postal_code": "75311",
        "categories": [
            {
                "name": "Nhà hàng"
            }
        ]
    },
    {
        "name": "Phở Minh Thu",
        "latitude": 10.90999,
        "longitude": 106.78281,
        "address": "Phở Minh Thu, TL.743, Phường Tân Đông Hiệp, Dĩ An, Bình Dương, Việt Nam",
        "country_code": "VNM",
        "country_name": "Việt Nam",
        "city": "Bình Dương",
        "district": "Dĩ An",
        "ward": "Phường Tân Đông Hiệp",
        "street": "TL.743",
        "postal_code": "75311",
        "categories": [
            {
                "name": "Nhà hàng"
            }
        ]
    },
    {
        "name": "Bánh Cuốn Nam Định",
        "latitude": 10.9121,
        "longitude": 106.78203,
        "address": "Bánh Cuốn Nam Định, Đường D1, Phường Tân Đông Hiệp, Dĩ An, Bình Dương, Việt Nam",
        "country_code": "VNM",
        "country_name": "Việt Nam",
        "city": "Bình Dương",
        "district": "Dĩ An",
        "ward": "Phường Tân Đông Hiệp",
        "street": "Đường D1",
        "postal_code": "75311",
        "categories": [
            {
                "name": "Nhà hàng"
            }
        ]
    },
    {
        "name": "Quán Triều Dương",
        "latitude": 10.9121,
        "longitude": 106.78203,
        "address": "Quán Triều Dương, Đường D1, Phường Tân Đông Hiệp, Dĩ An, Bình Dương, Việt Nam",
        "country_code": "VNM",
        "country_name": "Việt Nam",
        "city": "Bình Dương",
        "district": "Dĩ An",
        "ward": "Phường Tân Đông Hiệp",
        "street": "Đường D1",
        "postal_code": "75311",
        "categories": [
            {
                "name": "Nhà hàng"
            }
        ]
    },
    {
        "name": "Cháo Lòng Thanh Bình",
        "latitude": 10.91236,
        "longitude": 106.78194,
        "address": "Cháo Lòng Thanh Bình, Đường D1, Phường Tân Đông Hiệp, Dĩ An, Bình Dương, Việt Nam",
        "country_code": "VNM",
        "country_name": "Việt Nam",
        "city": "Bình Dương",
        "district": "Dĩ An",
        "ward": "Phường Tân Đông Hiệp",
        "street": "Đường D1",
        "postal_code": "75311",
        "categories": [
            {
                "name": "Nhà hàng"
            }
        ]
    },
    {
        "name": "Lẩu Dê 668",
        "latitude": 10.91236,
        "longitude": 106.78194,
        "address": "Lẩu Dê 668, Đường D1, Phường Tân Đông Hiệp, Dĩ An, Bình Dương, Việt Nam",
        "country_code": "VNM",
        "country_name": "Việt Nam",
        "city": "Bình Dương",
        "district": "Dĩ An",
        "ward": "Phường Tân Đông Hiệp",
        "street": "Đường D1",
        "postal_code": "75311",
        "categories": [
            {
                "name": "Nhà hàng"
            }
        ]
    },
    {
        "name": "Quán Chè Nhớ",
        "latitude": 10.90454,
        "longitude": 106.79384,
        "address": "Quán Chè Nhớ, Xa Lộ Hà Nội, Phường Bình Thắng, Dĩ An, Bình Dương, Việt Nam",
        "country_code": "VNM",
        "country_name": "Việt Nam",
        "city": "Bình Dương",
        "district": "Dĩ An",
        "ward": "Phường Bình Thắng",
        "street": "Xa Lộ Hà Nội",
        "postal_code": "75309",
        "categories": [
            {
                "name": "Quán ăn bình dân"
            },
            {
                "name": "Nhà hàng"
            }
        ]
    },
    {
        "name": "Bún Chả Nha Trang - Đường D1",
        "latitude": 10.91734,
        "longitude": 106.78232,
        "address": "Bún Chả Nha Trang - Đường D1, 134 Đường D1, Phường Tân Đông Hiệp, Dĩ An, Bình Dương, Việt Nam",
        "country_code": "VNM",
        "country_name": "Việt Nam",
        "city": "Bình Dương",
        "district": "Dĩ An",
        "ward": "Phường Tân Đông Hiệp",
        "street": "Đường D1",
        "postal_code": "75311",
        "categories": [
            {
                "name": "Nhà hàng"
            }
        ]
    },
    {
        "name": "Hủ Tiếu 36",
        "latitude": 10.90452,
        "longitude": 106.79386,
        "address": "Hủ Tiếu 36, Xa Lộ Hà Nội, Phường Bình Thắng, Dĩ An, Bình Dương, Việt Nam",
        "country_code": "VNM",
        "country_name": "Việt Nam",
        "city": "Bình Dương",
        "district": "Dĩ An",
        "ward": "Phường Bình Thắng",
        "street": "Xa Lộ Hà Nội",
        "postal_code": "75309",
        "categories": [
            {
                "name": "Nhà hàng"
            }
        ]
    },
    {
        "name": "Quán Cơm Mỹ Huyền",
        "latitude": 10.91689,
        "longitude": 106.78212,
        "address": "Quán Cơm Mỹ Huyền, Đường D1, Phường Tân Đông Hiệp, Dĩ An, Bình Dương, Việt Nam",
        "country_code": "VNM",
        "country_name": "Việt Nam",
        "city": "Bình Dương",
        "district": "Dĩ An",
        "ward": "Phường Tân Đông Hiệp",
        "street": "Đường D1",
        "postal_code": "75311",
        "categories": [
            {
                "name": "Nhà hàng"
            }
        ]
    },
    {
        "name": "Cơm Tấm Đêm",
        "latitude": 10.91183,
        "longitude": 106.78196,
        "address": "Cơm Tấm Đêm, Đường D1, Phường Tân Đông Hiệp, Dĩ An, Bình Dương, Việt Nam",
        "country_code": "VNM",
        "country_name": "Việt Nam",
        "city": "Bình Dương",
        "district": "Dĩ An",
        "ward": "Phường Tân Đông Hiệp",
        "street": "Đường D1",
        "postal_code": "75311",
        "categories": [
            {
                "name": "Nhà hàng"
            }
        ]
    },
    {
        "name": "Quán Cơm Minh Thu",
        "latitude": 10.90444,
        "longitude": 106.79381,
        "address": "Quán Cơm Minh Thu, Xa Lộ Hà Nội, Phường Bình Thắng, Dĩ An, Bình Dương, Việt Nam",
        "country_code": "VNM",
        "country_name": "Việt Nam",
        "city": "Bình Dương",
        "district": "Dĩ An",
        "ward": "Phường Bình Thắng",
        "street": "Xa Lộ Hà Nội",
        "postal_code": "75309",
        "categories": [
            {
                "name": "Nhà hàng"
            }
        ]
    },
    {
        "name": "Quán Cơm Dì Bảy 4",
        "latitude": 10.91716,
        "longitude": 106.7821,
        "address": "Quán Cơm Dì Bảy 4, Đường D1, Phường Tân Đông Hiệp, Dĩ An, Bình Dương, Việt Nam",
        "country_code": "VNM",
        "country_name": "Việt Nam",
        "city": "Bình Dương",
        "district": "Dĩ An",
        "ward": "Phường Tân Đông Hiệp",
        "street": "Đường D1",
        "postal_code": "75311",
        "categories": [
            {
                "name": "Nhà hàng"
            }
        ]
    },
    {
        "name": "Quán Cháo Lòng Má Heo Thanh Nga",
        "latitude": 10.91716,
        "longitude": 106.7821,
        "address": "Quán Cháo Lòng Má Heo Thanh Nga, Đường D1, Phường Tân Đông Hiệp, Dĩ An, Bình Dương, Việt Nam",
        "country_code": "VNM",
        "country_name": "Việt Nam",
        "city": "Bình Dương",
        "district": "Dĩ An",
        "ward": "Phường Tân Đông Hiệp",
        "street": "Đường D1",
        "postal_code": "75311",
        "categories": [
            {
                "name": "Nhà hàng"
            }
        ]
    },
    {
        "name": "Điểm Tâm Sáng Cơm Tấm",
        "latitude": 10.91531,
        "longitude": 106.78144,
        "address": "Điểm Tâm Sáng Cơm Tấm, Đường Đông An, Phường Tân Đông Hiệp, Dĩ An, Bình Dương, Việt Nam",
        "country_code": "VNM",
        "country_name": "Việt Nam",
        "city": "Bình Dương",
        "district": "Dĩ An",
        "ward": "Phường Tân Đông Hiệp",
        "street": "Đường Đông An",
        "postal_code": "75311",
        "categories": [
            {
                "name": "Nhà hàng"
            }
        ]
    },
    {
        "name": "Tiệm Ăn Phong Ký",
        "latitude": 10.90404,
        "longitude": 106.79402,
        "address": "Tiệm Ăn Phong Ký, Xa Lộ Hà Nội, Phường Bình Thắng, Dĩ An, Bình Dương, Việt Nam",
        "country_code": "VNM",
        "country_name": "Việt Nam",
        "city": "Bình Dương",
        "district": "Dĩ An",
        "ward": "Phường Bình Thắng",
        "street": "Xa Lộ Hà Nội",
        "postal_code": "75309",
        "categories": [
            {
                "name": "Nhà hàng"
            }
        ]
    },
    {
        "name": "Quán Cơm Thanh Tùng",
        "latitude": 10.90388,
        "longitude": 106.79371,
        "address": "Quán Cơm Thanh Tùng, Xa Lộ Hà Nội, Phường Bình Thắng, Dĩ An, Bình Dương, Việt Nam",
        "country_code": "VNM",
        "country_name": "Việt Nam",
        "city": "Bình Dương",
        "district": "Dĩ An",
        "ward": "Phường Bình Thắng",
        "street": "Xa Lộ Hà Nội",
        "postal_code": "75309",
        "categories": [
            {
                "name": "Nhà hàng"
            }
        ]
    },
    {
        "name": "A Đây Rồi Cơm Như Ý",
        "latitude": 10.91897,
        "longitude": 106.7822,
        "address": "A Đây Rồi Cơm Như Ý, Đường D1, Phường Tân Đông Hiệp, Dĩ An, Bình Dương, Việt Nam",
        "country_code": "VNM",
        "country_name": "Việt Nam",
        "city": "Bình Dương",
        "district": "Dĩ An",
        "ward": "Phường Tân Đông Hiệp",
        "street": "Đường D1",
        "postal_code": "75311",
        "categories": [
            {
                "name": "Nhà hàng"
            }
        ]
    },
    {
        "name": "Quán Lộc Phát",
        "latitude": 10.91888,
        "longitude": 106.78214,
        "address": "Quán Lộc Phát, Đường D1, Phường Tân Đông Hiệp, Dĩ An, Bình Dương, Việt Nam",
        "country_code": "VNM",
        "country_name": "Việt Nam",
        "city": "Bình Dương",
        "district": "Dĩ An",
        "ward": "Phường Tân Đông Hiệp",
        "street": "Đường D1",
        "postal_code": "75311",
        "categories": [
            {
                "name": "Nhà hàng"
            }
        ]
    },
    {
        "name": "Quán Châu Loan",
        "latitude": 10.91909,
        "longitude": 106.78212,
        "address": "Quán Châu Loan, Đường D1, Phường Tân Đông Hiệp, Dĩ An, Bình Dương, Việt Nam",
        "country_code": "VNM",
        "country_name": "Việt Nam",
        "city": "Bình Dương",
        "district": "Dĩ An",
        "ward": "Phường Tân Đông Hiệp",
        "street": "Đường D1",
        "postal_code": "75311",
        "categories": [
            {
                "name": "Nhà hàng"
            }
        ]
    },
    {
        "name": "Quán Cơm Thanh Trúc",
        "latitude": 10.90808,
        "longitude": 106.80074,
        "address": "Quán Cơm Thanh Trúc, Đường Bình Thung, Phường Bình Thắng, Dĩ An, Bình Dương, Việt Nam",
        "country_code": "VNM",
        "country_name": "Việt Nam",
        "city": "Bình Dương",
        "district": "Dĩ An",
        "ward": "Phường Bình Thắng",
        "street": "Đường Bình Thung",
        "postal_code": "75309",
        "categories": [
            {
                "name": "Nhà hàng"
            }
        ]
    },
    {
        "name": "Phở Gia Truyền Nam Định",
        "latitude": 10.91918,
        "longitude": 106.78212,
        "address": "Phở Gia Truyền Nam Định, Đường D1, Phường Tân Đông Hiệp, Dĩ An, Bình Dương, Việt Nam",
        "country_code": "VNM",
        "country_name": "Việt Nam",
        "city": "Bình Dương",
        "district": "Dĩ An",
        "ward": "Phường Tân Đông Hiệp",
        "street": "Đường D1",
        "postal_code": "75311",
        "categories": [
            {
                "name": "Nhà hàng"
            }
        ]
    },
    {
        "name": "Quán Yến Trang",
        "latitude": 10.91899,
        "longitude": 106.78201,
        "address": "Quán Yến Trang, Đường D1, Phường Tân Đông Hiệp, Dĩ An, Bình Dương, Việt Nam",
        "country_code": "VNM",
        "country_name": "Việt Nam",
        "city": "Bình Dương",
        "district": "Dĩ An",
        "ward": "Phường Tân Đông Hiệp",
        "street": "Đường D1",
        "postal_code": "75311",
        "categories": [
            {
                "name": "Nhà hàng"
            }
        ]
    },
    {
        "name": "Sông Hương - Bún Bò Huế",
        "latitude": 10.91152,
        "longitude": 106.78101,
        "address": "Sông Hương - Bún Bò Huế, Đường Hai Bà Trưng, Phường Tân Đông Hiệp, Dĩ An, Bình Dương, Việt Nam",
        "country_code": "VNM",
        "country_name": "Việt Nam",
        "city": "Bình Dương",
        "district": "Dĩ An",
        "ward": "Phường Tân Đông Hiệp",
        "street": "Đường Hai Bà Trưng",
        "postal_code": "75311",
        "categories": [
            {
                "name": "Nhà hàng"
            }
        ]
    },
    {
        "name": "Đức Lạc",
        "latitude": 10.90338,
        "longitude": 106.79354,
        "address": "Đức Lạc, Xa Lộ Hà Nội, Phường Bình Thắng, Dĩ An, Bình Dương, Việt Nam",
        "country_code": "VNM",
        "country_name": "Việt Nam",
        "city": "Bình Dương",
        "district": "Dĩ An",
        "ward": "Phường Bình Thắng",
        "street": "Xa Lộ Hà Nội",
        "postal_code": "75309",
        "categories": [
            {
                "name": "Nhà hàng"
            }
        ]
    },
    {
        "name": "Phở Số 1",
        "latitude": 10.9112,
        "longitude": 106.78102,
        "address": "Phở Số 1, Đường Hai Bà Trưng, Phường Tân Đông Hiệp, Dĩ An, Bình Dương, Việt Nam",
        "country_code": "VNM",
        "country_name": "Việt Nam",
        "city": "Bình Dương",
        "district": "Dĩ An",
        "ward": "Phường Tân Đông Hiệp",
        "street": "Đường Hai Bà Trưng",
        "postal_code": "75311",
        "categories": [
            {
                "name": "Nhà hàng"
            }
        ]
    },
    {
        "name": "Long Monaco @ Green Square",
        "latitude": 10.90332,
        "longitude": 106.79349,
        "address": "Long Monaco @ Green Square, Xa Lộ Hà Nội, Phường Bình Thắng, Dĩ An, Bình Dương, Việt Nam",
        "country_code": "VNM",
        "country_name": "Việt Nam",
        "city": "Bình Dương",
        "district": "Dĩ An",
        "ward": "Phường Bình Thắng",
        "street": "Xa Lộ Hà Nội",
        "postal_code": "75309",
        "categories": [
            {
                "name": "Nhà hàng"
            }
        ]
    },
    {
        "name": "Hương Đồng",
        "latitude": 10.91102,
        "longitude": 106.781,
        "address": "Hương Đồng, Hẻm 8C Đường Hai Bà Trưng, Phường Tân Đông Hiệp, Dĩ An, Bình Dương, Việt Nam",
        "country_code": "VNM",
        "country_name": "Việt Nam",
        "city": "Bình Dương",
        "district": "Dĩ An",
        "ward": "Phường Tân Đông Hiệp",
        "street": "Hẻm 8C Đường Hai Bà Trưng",
        "postal_code": "75311",
        "categories": [
            {
                "name": "Quán cà phê"
            },
            {
                "name": "Nhà hàng"
            },
            {
                "name": "Cà Phê/Trà"
            }
        ]
    },
    {
        "name": "Chè Cây Thị - Hai Bà Trưng",
        "latitude": 10.90851,
        "longitude": 106.78106,
        "address": "Chè Cây Thị - Hai Bà Trưng, Đường Nguyễn Thái Học, Phường Tân Đông Hiệp, Dĩ An, Bình Dương, Việt Nam",
        "country_code": "VNM",
        "country_name": "Việt Nam",
        "city": "Bình Dương",
        "district": "Dĩ An",
        "ward": "Phường Tân Đông Hiệp",
        "street": "Đường Nguyễn Thái Học",
        "postal_code": "75311",
        "categories": [
            {
                "name": "Nhà hàng"
            }
        ]
    },
    {
        "name": "Quán Như Ý",
        "latitude": 10.90851,
        "longitude": 106.78106,
        "address": "Quán Như Ý, Đường Nguyễn Thái Học, Phường Tân Đông Hiệp, Dĩ An, Bình Dương, Việt Nam",
        "country_code": "VNM",
        "country_name": "Việt Nam",
        "city": "Bình Dương",
        "district": "Dĩ An",
        "ward": "Phường Tân Đông Hiệp",
        "street": "Đường Nguyễn Thái Học",
        "postal_code": "75311",
        "categories": [
            {
                "name": "Nhà hàng"
            }
        ]
    },
    {
        "name": "Thu Hà - Quán Cháo Lòng",
        "latitude": 10.90221,
        "longitude": 106.79315,
        "address": "Thu Hà - Quán Cháo Lòng, Xa Lộ Hà Nội, Phường Bình Thắng, Dĩ An, Bình Dương, Việt Nam",
        "country_code": "VNM",
        "country_name": "Việt Nam",
        "city": "Bình Dương",
        "district": "Dĩ An",
        "ward": "Phường Bình Thắng",
        "street": "Xa Lộ Hà Nội",
        "postal_code": "75309",
        "categories": [
            {
                "name": "Nhà hàng"
            }
        ]
    },
    {
        "name": "Quán A.Tiến Cơm Gà Xối Mỡ",
        "latitude": 10.90704,
        "longitude": 106.80165,
        "address": "Quán A.Tiến Cơm Gà Xối Mỡ, Đường Bình Thung, Phường Bình Thắng, Dĩ An, Bình Dương, Việt Nam",
        "country_code": "VNM",
        "country_name": "Việt Nam",
        "city": "Bình Dương",
        "district": "Dĩ An",
        "ward": "Phường Bình Thắng",
        "street": "Đường Bình Thung",
        "postal_code": "75309",
        "categories": [
            {
                "name": "Nhà hàng"
            }
        ]
    },
    {
        "name": "Bánh Mì Heo Quay - Tỉnh Lộ 743B",
        "latitude": 10.91234,
        "longitude": 106.7796,
        "address": "Bánh Mì Heo Quay - Tỉnh Lộ 743B, ĐT.743B, Phường Tân Đông Hiệp, Dĩ An, Bình Dương, Việt Nam",
        "country_code": "VNM",
        "country_name": "Việt Nam",
        "city": "Bình Dương",
        "district": "Dĩ An",
        "ward": "Phường Tân Đông Hiệp",
        "street": "ĐT.743B",
        "postal_code": "75311",
        "categories": [
            {
                "name": "Nhà hàng"
            }
        ]
    },
    {
        "name": "Quán Long Hải Phát Phở Bò Gà",
        "latitude": 10.90741,
        "longitude": 106.80202,
        "address": "Quán Long Hải Phát Phở Bò Gà, Đường Mỹ Phước-Tân Vạn, Phường Bình Thắng, Dĩ An, Bình Dương, Việt Nam",
        "country_code": "VNM",
        "country_name": "Việt Nam",
        "city": "Bình Dương",
        "district": "Dĩ An",
        "ward": "Phường Bình Thắng",
        "street": "Đường Mỹ Phước-Tân Vạn",
        "postal_code": "75309",
        "categories": [
            {
                "name": "Nhà hàng"
            }
        ]
    },
    {
        "name": "Quán 7 Phước",
        "latitude": 10.90705,
        "longitude": 106.80179,
        "address": "Quán 7 Phước, 153 Đường Bình Thung, Phường Bình Thắng, Dĩ An, Bình Dương, Việt Nam",
        "country_code": "VNM",
        "country_name": "Việt Nam",
        "city": "Bình Dương",
        "district": "Dĩ An",
        "ward": "Phường Bình Thắng",
        "street": "Đường Bình Thung",
        "postal_code": "75309",
        "categories": [
            {
                "name": "Nhà hàng"
            }
        ]
    }
]
