[
    {
        "name": "Cafe Cay Bang",
        "latitude": 10.91114,
        "longitude": 106.79596,
        "address": "Cafe Cay Bang, Xa Lộ Hà Nội, Phường Tân Đông Hiệp, Dĩ An, Bình Dương, Việt Nam",
        "country_code": "VNM",
        "country_name": "Việt Nam",
        "city": "Bình Dương",
        "district": "Dĩ An",
        "ward": "Phường Tân Đông Hiệp",
        "street": "Xa Lộ Hà Nội",
        "postal_code": "75311",
        "categories": [
            {
                "name": "Cà Phê/Trà"
            }
        ]
    },
    {
        "name": "18 Bình Thung, Bình An, Dĩ An, Bình Dương",
        "latitude": 10.90741,
        "longitude": 106.79685,
        "address": "18 Bình Thung, Bình An, Dĩ An, Bình Dương, Đường Bình Thung, Phường Bình Thắng, Dĩ An, Bình Dương, Việt Nam",
        "country_code": "VNM",
        "country_name": "Việt Nam",
        "city": "Bình Dương",
        "district": "Dĩ An",
        "ward": "Phường Bình Thắng",
        "street": "Đường Bình Thung",
        "postal_code": "75309",
        "categories": [
            {
                "name": "Cà Phê/Trà"
            }
        ]
    },
    {
        "name": "Quán Cà Phê Đổi Sao",
        "latitude": 10.91188,
        "longitude": 106.78192,
        "address": "Quán Cà Phê Đổi Sao, Đường D1, Phường Tân Đông Hiệp, Dĩ An, Bình Dương, Việt Nam",
        "country_code": "VNM",
        "country_name": "Việt Nam",
        "city": "Bình Dương",
        "district": "Dĩ An",
        "ward": "Phường Tân Đông Hiệp",
        "street": "Đường D1",
        "postal_code": "75311",
        "categories": [
            {
                "name": "Cà Phê/Trà"
            }
        ]
    },
    {
        "name": "Cafe Thủy Mộc",
        "latitude": 10.91245,
        "longitude": 106.78135,
        "address": "Cafe Thủy Mộc, Đường Đông An, Phường Tân Đông Hiệp, Dĩ An, Bình Dương, Việt Nam",
        "country_code": "VNM",
        "country_name": "Việt Nam",
        "city": "Bình Dương",
        "district": "Dĩ An",
        "ward": "Phường Tân Đông Hiệp",
        "street": "Đường Đông An",
        "postal_code": "75311",
        "categories": [
            {
                "name": "Cà Phê/Trà"
            }
        ]
    },
    {
        "name": "Cafe & Kem @ Khu Hanh Chanh Binhduong",
        "latitude": 10.92461,
        "longitude": 106.79694,
        "address": "Cafe & Kem @ Khu Hanh Chanh Binhduong, Đường Nguyễn Văn Lung, Phường Hóa An, Biên Hòa, Đồng Nai, Việt Nam",
        "country_code": "VNM",
        "country_name": "Việt Nam",
        "city": "Đồng Nai",
        "district": "Biên Hòa",
        "ward": "Phường Hóa An",
        "street": "Đường Nguyễn Văn Lung",
        "postal_code": "76123",
        "categories": [
            {
                "name": "Cà Phê/Trà"
            }
        ]
    },
    {
        "name": "Quán Cà Phê Giải Khát Minh Quang",
        "latitude": 10.91488,
        "longitude": 106.80536,
        "address": "Quán Cà Phê Giải Khát Minh Quang, Đường Lên Núi Châu Thới, Phường Bình Thắng, Dĩ An, Bình Dương, Việt Nam",
        "country_code": "VNM",
        "country_name": "Việt Nam",
        "city": "Bình Dương",
        "district": "Dĩ An",
        "ward": "Phường Bình Thắng",
        "street": "Đường Lên Núi Châu Thới",
        "postal_code": "75309",
        "categories": [
            {
                "name": "Cà Phê/Trà"
            }
        ]
    },
    {
        "name": "Quán Sao Mai",
        "latitude": 10.90517,
        "longitude": 106.8033,
        "address": "Quán Sao Mai, Đường Bình Thung, Phường Bình Thắng, Dĩ An, Bình Dương, Việt Nam",
        "country_code": "VNM",
        "country_name": "Việt Nam",
        "city": "Bình Dương",
        "district": "Dĩ An",
        "ward": "Phường Bình Thắng",
        "street": "Đường Bình Thung",
        "postal_code": "75309",
        "categories": [
            {
                "name": "Cà Phê/Trà"
            }
        ]
    },
    {
        "name": "Quán Cà Phê Giải Khát Hoa Viên 108",
        "latitude": 10.89786,
        "longitude": 106.79375,
        "address": "Quán Cà Phê Giải Khát Hoa Viên 108, Đường Lồ Ô, Phường Bình Thắng, Dĩ An, Bình Dương, Việt Nam",
        "country_code": "VNM",
        "country_name": "Việt Nam",
        "city": "Bình Dương",
        "district": "Dĩ An",
        "ward": "Phường Bình Thắng",
        "street": "Đường Lồ Ô",
        "postal_code": "75309",
        "categories": [
            {
                "name": "Cà Phê/Trà"
            }
        ]
    },
    {
        "name": "Trà Sữa T-Bar",
        "latitude": 10.91039,
        "longitude": 106.76994,
        "address": "Trà Sữa T-Bar, Đường Nguyễn An Ninh, Phường Dĩ An, Dĩ An, Bình Dương, Việt Nam",
        "country_code": "VNM",
        "country_name": "Việt Nam",
        "city": "Bình Dương",
        "district": "Dĩ An",
        "ward": "Phường Dĩ An",
        "street": "Đường Nguyễn An Ninh",
        "postal_code": "75306",
        "categories": [
            {
                "name": "Cà Phê/Trà"
            }
        ]
    },
    {
        "name": "Quán Cà Phê Cao Nguyễn",
        "latitude": 10.9155,
        "longitude": 106.76918,
        "address": "Quán Cà Phê Cao Nguyễn, TL.743, Phường Dĩ An, Dĩ An, Bình Dương, Việt Nam",
        "country_code": "VNM",
        "country_name": "Việt Nam",
        "city": "Bình Dương",
        "district": "Dĩ An",
        "ward": "Phường Dĩ An",
        "street": "TL.743",
        "postal_code": "75306",
        "categories": [
            {
                "name": "Cà Phê/Trà"
            }
        ]
    },
    {
        "name": "Ceytea - Dĩ An",
        "latitude": 10.90654,
        "longitude": 106.76881,
        "address": "Ceytea - Dĩ An, Đường Nguyễn An Ninh, Phường Dĩ An, Dĩ An, Bình Dương, Việt Nam",
        "country_code": "VNM",
        "country_name": "Việt Nam",
        "city": "Bình Dương",
        "district": "Dĩ An",
        "ward": "Phường Dĩ An",
        "street": "Đường Nguyễn An Ninh",
        "postal_code": "75306",
        "categories": [
            {
                "name": "Cà Phê/Trà"
            }
        ]
    },
    {
        "name": "Quán Cà Phê Giải Khát Trần Bình Trận",
        "latitude": 10.92249,
        "longitude": 106.76522,
        "address": "Quán Cà Phê Giải Khát Trần Bình Trận, Đường Mạch Thị Liễu, Phường Tân Đông Hiệp, Dĩ An, Bình Dương, Việt Nam",
        "country_code": "VNM",
        "country_name": "Việt Nam",
        "city": "Bình Dương",
        "district": "Dĩ An",
        "ward": "Phường Tân Đông Hiệp",
        "street": "Đường Mạch Thị Liễu",
        "postal_code": "75311",
        "categories": [
            {
                "name": "Cà Phê/Trà"
            }
        ]
    },
    {
        "name": "Quán Cà Phê Giải Khát Nguyễn Thị Kim Lộc",
        "latitude": 10.8888,
        "longitude": 106.78117,
        "address": "Quán Cà Phê Giải Khát Nguyễn Thị Kim Lộc, Đường Tân Hòa, Phường Đông Hòa, Dĩ An, Bình Dương, Việt Nam",
        "country_code": "VNM",
        "country_name": "Việt Nam",
        "city": "Bình Dương",
        "district": "Dĩ An",
        "ward": "Phường Đông Hòa",
        "street": "Đường Tân Hòa",
        "postal_code": "75308",
        "categories": [
            {
                "name": "Cà Phê/Trà"
            }
        ]
    },
    {
        "name": "Quán Cà Phê Giải Khát Hoàng Thị Thanh Xuân",
        "latitude": 10.88844,
        "longitude": 106.78168,
        "address": "Quán Cà Phê Giải Khát Hoàng Thị Thanh Xuân, Đường Tân Hòa, Phường Đông Hòa, Dĩ An, Bình Dương, Việt Nam",
        "country_code": "VNM",
        "country_name": "Việt Nam",
        "city": "Bình Dương",
        "district": "Dĩ An",
        "ward": "Phường Đông Hòa",
        "street": "Đường Tân Hòa",
        "postal_code": "75308",
        "categories": [
            {
                "name": "Cà Phê/Trà"
            }
        ]
    },
    {
        "name": "Quán Ăn - Giải Khát Đỗ Trang Phượng",
        "latitude": 10.92258,
        "longitude": 106.76504,
        "address": "Quán Ăn - Giải Khát Đỗ Trang Phượng, Đường Mạch Thị Liễu, Phường Tân Đông Hiệp, Dĩ An, Bình Dương, Việt Nam",
        "country_code": "VNM",
        "country_name": "Việt Nam",
        "city": "Bình Dương",
        "district": "Dĩ An",
        "ward": "Phường Tân Đông Hiệp",
        "street": "Đường Mạch Thị Liễu",
        "postal_code": "75311",
        "categories": [
            {
                "name": "Nhà hàng"
            },
            {
                "name": "Cà Phê/Trà"
            }
        ]
    },
    {
        "name": "Ánh Tuyết Cafe",
        "latitude": 10.89325,
        "longitude": 106.77176,
        "address": "Ánh Tuyết Cafe, Đường GS 1, Phường Đông Hòa, Dĩ An, Bình Dương, Việt Nam",
        "country_code": "VNM",
        "country_name": "Việt Nam",
        "city": "Bình Dương",
        "district": "Dĩ An",
        "ward": "Phường Đông Hòa",
        "street": "Đường GS 1",
        "postal_code": "75308",
        "categories": [
            {
                "name": "Cà Phê/Trà"
            }
        ]
    },
    {
        "name": "Quán Cà Phê Giải Khát Trương Thị Yến",
        "latitude": 10.913,
        "longitude": 106.76097,
        "address": "Quán Cà Phê Giải Khát Trương Thị Yến, Đường Đông Chiêu, Phường Tân Đông Hiệp, Dĩ An, Bình Dương, Việt Nam",
        "country_code": "VNM",
        "country_name": "Việt Nam",
        "city": "Bình Dương",
        "district": "Dĩ An",
        "ward": "Phường Tân Đông Hiệp",
        "street": "Đường Đông Chiêu",
        "postal_code": "75311",
        "categories": [
            {
                "name": "Cà Phê/Trà"
            }
        ]
    },
    {
        "name": "Hi-End Coffee",
        "latitude": 10.89509,
        "longitude": 106.76705,
        "address": "Hi-End Coffee, Đường Nguyễn An Ninh, Phường Dĩ An, Dĩ An, Bình Dương, Việt Nam",
        "country_code": "VNM",
        "country_name": "Việt Nam",
        "city": "Bình Dương",
        "district": "Dĩ An",
        "ward": "Phường Dĩ An",
        "street": "Đường Nguyễn An Ninh",
        "postal_code": "75306",
        "categories": [
            {
                "name": "Cà Phê/Trà"
            }
        ]
    },
    {
        "name": "Cafe Lộc Vừng",
        "latitude": 10.93132,
        "longitude": 106.81839,
        "address": "Cafe Lộc Vừng, Hẻm 703 Bùi Hữu Nghĩa, Phường Bửu Hòa, Biên Hòa, Đồng Nai, Việt Nam",
        "country_code": "VNM",
        "country_name": "Việt Nam",
        "city": "Đồng Nai",
        "district": "Biên Hòa",
        "ward": "Phường Bửu Hòa",
        "street": "Hẻm 703 Bùi Hữu Nghĩa",
        "postal_code": "76125",
        "categories": [
            {
                "name": "Quán cà phê"
            },
            {
                "name": "Nhà hàng"
            },
            {
                "name": "Cà Phê/Trà"
            },
            {
                "name": "Trung tâm biểu diễn nghệ thuật"
            },
            {
                "name": "Dịch vụ hôn lễ & cô dâu"
            },
            {
                "name": "Quán cà phê internet"
            }
        ]
    },
    {
        "name": "Cà Phê D&D Coffee",
        "latitude": 10.89416,
        "longitude": 106.76663,
        "address": "Cà Phê D&D Coffee, Đường Số 3, Phường Dĩ An, Dĩ An, Bình Dương, Việt Nam",
        "country_code": "VNM",
        "country_name": "Việt Nam",
        "city": "Bình Dương",
        "district": "Dĩ An",
        "ward": "Phường Dĩ An",
        "street": "Đường Số 3",
        "postal_code": "75306",
        "categories": [
            {
                "name": "Cà Phê/Trà"
            }
        ]
    },
    {
        "name": "Bee Tea & Coffee",
        "latitude": 10.90841,
        "longitude": 106.75926,
        "address": "Bee Tea & Coffee, Đường Nguyễn Trãi, Phường Dĩ An, Dĩ An, Bình Dương, Việt Nam",
        "country_code": "VNM",
        "country_name": "Việt Nam",
        "city": "Bình Dương",
        "district": "Dĩ An",
        "ward": "Phường Dĩ An",
        "street": "Đường Nguyễn Trãi",
        "postal_code": "75306",
        "categories": [
            {
                "name": "Quán cà phê"
            },
            {
                "name": "Cà Phê/Trà"
            }
        ]
    },
    {
        "name": "Ly's Coffee & Tea",
        "latitude": 10.89006,
        "longitude": 106.76894,
        "address": "Ly's Coffee & Tea, Hẻm 194 Đường Số 11, Phường Linh Xuân, Thủ Đức, Hồ Chí Minh, Việt Nam",
        "country_code": "VNM",
        "country_name": "Việt Nam",
        "city": "Hồ Chí Minh",
        "district": "Thủ Đức",
        "ward": "Phường Linh Xuân",
        "street": "Hẻm 194 Đường Số 11",
        "postal_code": "71309",
        "categories": [
            {
                "name": "Cà Phê/Trà"
            }
        ]
    },
    {
        "name": "Mr Tom Coffee",
        "latitude": 10.89222,
        "longitude": 106.76635,
        "address": "Mr Tom Coffee, Đường Số 6, Phường Dĩ An, Dĩ An, Bình Dương, Việt Nam",
        "country_code": "VNM",
        "country_name": "Việt Nam",
        "city": "Bình Dương",
        "district": "Dĩ An",
        "ward": "Phường Dĩ An",
        "street": "Đường Số 6",
        "postal_code": "75306",
        "categories": [
            {
                "name": "Cà Phê/Trà"
            }
        ]
    },
    {
        "name": "Vjsc Cafe",
        "latitude": 10.88203,
        "longitude": 106.78265,
        "address": "Vjsc Cafe, Đường Số 4, Phường Đông Hòa, Dĩ An, Bình Dương, Việt Nam",
        "country_code": "VNM",
        "country_name": "Việt Nam",
        "city": "Bình Dương",
        "district": "Dĩ An",
        "ward": "Phường Đông Hòa",
        "street": "Đường Số 4",
        "postal_code": "75308",
        "categories": [
            {
                "name": "Cà Phê/Trà"
            },
            {
                "name": "Quán cà phê"
            },
            {
                "name": "Quán cà phê internet"
            }
        ]
    },
    {
        "name": "Trà Sữa Zesttea",
        "latitude": 10.92762,
        "longitude": 106.76003,
        "address": "Trà Sữa Zesttea, Đường Lê Hồng Phong, Phường Tân Đông Hiệp, Dĩ An, Bình Dương, Việt Nam",
        "country_code": "VNM",
        "country_name": "Việt Nam",
        "city": "Bình Dương",
        "district": "Dĩ An",
        "ward": "Phường Tân Đông Hiệp",
        "street": "Đường Lê Hồng Phong",
        "postal_code": "75311",
        "categories": [
            {
                "name": "Quán cà phê"
            },
            {
                "name": "Cà Phê/Trà"
            }
        ]
    },
    {
        "name": "Country Side Cafe - Đường Số 9",
        "latitude": 10.89146,
        "longitude": 106.76593,
        "address": "Country Side Cafe - Đường Số 9, Đường Số 9, Phường Dĩ An, Dĩ An, Bình Dương, Việt Nam",
        "country_code": "VNM",
        "country_name": "Việt Nam",
        "city": "Bình Dương",
        "district": "Dĩ An",
        "ward": "Phường Dĩ An",
        "street": "Đường Số 9",
        "postal_code": "75306",
        "categories": [
            {
                "name": "Cà Phê/Trà"
            },
            {
                "name": "Phòng trà"
            }
        ]
    },
    {
        "name": "Cafe & Kem @ Khu Hanh Chanh Binhduong",
        "latitude": 10.8921,
        "longitude": 106.76493,
        "address": "Cafe & Kem @ Khu Hanh Chanh Binhduong, Đường Số 9, Phường Dĩ An, Dĩ An, Bình Dương, Việt Nam",
        "country_code": "VNM",
        "country_name": "Việt Nam",
        "city": "Bình Dương",
        "district": "Dĩ An",
        "ward": "Phường Dĩ An",
        "street": "Đường Số 9",
        "postal_code": "75306",
        "categories": [
            {
                "name": "Cà Phê/Trà"
            }
        ]
    },
    {
        "name": "C@Ffee Xóm Vắng",
        "latitude": 10.89722,
        "longitude": 106.76105,
        "address": "C@Ffee Xóm Vắng, Đường Nguyễn Tri Phương, Phường Dĩ An, Dĩ An, Bình Dương, Việt Nam",
        "country_code": "VNM",
        "country_name": "Việt Nam",
        "city": "Bình Dương",
        "district": "Dĩ An",
        "ward": "Phường Dĩ An",
        "street": "Đường Nguyễn Tri Phương",
        "postal_code": "75306",
        "categories": [
            {
                "name": "Cà Phê/Trà"
            }
        ]
    },
    {
        "name": "Cafe Bạc Liêu",
        "latitude": 10.90113,
        "longitude": 106.75813,
        "address": "Cafe Bạc Liêu, Đường Số 21, Phường Dĩ An, Dĩ An, Bình Dương, Việt Nam",
        "country_code": "VNM",
        "country_name": "Việt Nam",
        "city": "Bình Dương",
        "district": "Dĩ An",
        "ward": "Phường Dĩ An",
        "street": "Đường Số 21",
        "postal_code": "75306",
        "categories": [
            {
                "name": "Cà Phê/Trà"
            }
        ]
    },
    {
        "name": "Cà Phê Trà My",
        "latitude": 10.88443,
        "longitude": 106.77173,
        "address": "Cà Phê Trà My, Xa Lộ Hà Nội, Phường Linh Xuân, Thủ Đức, Hồ Chí Minh, Việt Nam",
        "country_code": "VNM",
        "country_name": "Việt Nam",
        "city": "Hồ Chí Minh",
        "district": "Thủ Đức",
        "ward": "Phường Linh Xuân",
        "street": "Xa Lộ Hà Nội",
        "postal_code": "71309",
        "categories": [
            {
                "name": "Quán cà phê"
            },
            {
                "name": "Cà Phê/Trà"
            }
        ]
    },
    {
        "name": "Viintea Coffee And Tea",
        "latitude": 10.92833,
        "longitude": 106.75824,
        "address": "Viintea Coffee And Tea, Đường Lê Hồng Phong, Phường Tân Đông Hiệp, Dĩ An, Bình Dương, Việt Nam",
        "country_code": "VNM",
        "country_name": "Việt Nam",
        "city": "Bình Dương",
        "district": "Dĩ An",
        "ward": "Phường Tân Đông Hiệp",
        "street": "Đường Lê Hồng Phong",
        "postal_code": "75311",
        "categories": [
            {
                "name": "Cà Phê/Trà"
            },
            {
                "name": "Quán cà phê"
            }
        ]
    },
    {
        "name": "Syna Cafe",
        "latitude": 10.88627,
        "longitude": 106.76838,
        "address": "Syna Cafe, Đường Số 11, Phường Linh Xuân, Thủ Đức, Hồ Chí Minh, Việt Nam",
        "country_code": "VNM",
        "country_name": "Việt Nam",
        "city": "Hồ Chí Minh",
        "district": "Thủ Đức",
        "ward": "Phường Linh Xuân",
        "street": "Đường Số 11",
        "postal_code": "71309",
        "categories": [
            {
                "name": "Quán cà phê"
            },
            {
                "name": "Cà Phê/Trà"
            }
        ]
    },
    {
        "name": "Cafe Thảo Vy",
        "latitude": 10.88452,
        "longitude": 106.77042,
        "address": "Cafe Thảo Vy, 8 Hẻm 10/2 Đường Số 7, Phường Linh Xuân, Thủ Đức, Hồ Chí Minh, Việt Nam",
        "country_code": "VNM",
        "country_name": "Việt Nam",
        "city": "Hồ Chí Minh",
        "district": "Thủ Đức",
        "ward": "Phường Linh Xuân",
        "street": "Hẻm 10/2 Đường Số 7",
        "postal_code": "71309",
        "categories": [
            {
                "name": "Quán cà phê"
            },
            {
                "name": "Cà Phê/Trà"
            }
        ]
    },
    {
        "name": "Quán Cà Phê",
        "latitude": 10.93515,
        "longitude": 106.76042,
        "address": "Quán Cà Phê, Đường Mỹ Phước Tân Vạn, Phường Tân Bình, Dĩ An, Bình Dương, Việt Nam",
        "country_code": "VNM",
        "country_name": "Việt Nam",
        "city": "Bình Dương",
        "district": "Dĩ An",
        "ward": "Phường Tân Bình",
        "street": "Đường Mỹ Phước Tân Vạn",
        "postal_code": "75312",
        "categories": [
            {
                "name": "Cà Phê/Trà"
            }
        ]
    },
    {
        "name": "Subi Coffee & Beer",
        "latitude": 10.92456,
        "longitude": 106.82929,
        "address": "Subi Coffee & Beer, Đường Đặng Đại Độ, Phường Hiệp Hòa, Biên Hòa, Đồng Nai, Việt Nam",
        "country_code": "VNM",
        "country_name": "Việt Nam",
        "city": "Đồng Nai",
        "district": "Biên Hòa",
        "ward": "Phường Hiệp Hòa",
        "street": "Đường Đặng Đại Độ",
        "postal_code": "76126",
        "categories": [
            {
                "name": "Cà Phê/Trà"
            }
        ]
    },
    {
        "name": "Cafe Thủy Tùng, Thành Phố Biên Hòa",
        "latitude": 10.94519,
        "longitude": 106.81546,
        "address": "Cafe Thủy Tùng, Thành Phố Biên Hòa, Đường Nguyễn Trãi, Phường Thanh Bình, Biên Hòa, Đồng Nai, Việt Nam",
        "country_code": "VNM",
        "country_name": "Việt Nam",
        "city": "Đồng Nai",
        "district": "Biên Hòa",
        "ward": "Phường Thanh Bình",
        "street": "Đường Nguyễn Trãi",
        "postal_code": "76106",
        "categories": [
            {
                "name": "Cà Phê/Trà"
            }
        ]
    },
    {
        "name": "Điểm Hẹn Cafe - Đường Số 8",
        "latitude": 10.87888,
        "longitude": 106.77498,
        "address": "Điểm Hẹn Cafe - Đường Số 8, 81 Đường Số 8, Phường Linh Xuân, Thủ Đức, Hồ Chí Minh, Việt Nam",
        "country_code": "VNM",
        "country_name": "Việt Nam",
        "city": "Hồ Chí Minh",
        "district": "Thủ Đức",
        "ward": "Phường Linh Xuân",
        "street": "Đường Số 8",
        "postal_code": "71309",
        "categories": [
            {
                "name": "Quán cà phê"
            },
            {
                "name": "Cà Phê/Trà"
            }
        ]
    },
    {
        "name": "Nam Hai Cafe",
        "latitude": 10.90588,
        "longitude": 106.83088,
        "address": "Nam Hai Cafe, TL.743, Phường Bình An, Dĩ An, Bình Dương, Việt Nam",
        "country_code": "VNM",
        "country_name": "Việt Nam",
        "city": "Bình Dương",
        "district": "Dĩ An",
        "ward": "Phường Bình An",
        "street": "TL.743",
        "postal_code": "75310",
        "categories": [
            {
                "name": "Cà Phê/Trà"
            }
        ]
    },
    {
        "name": "Tuocha Milk Tea",
        "latitude": 10.87616,
        "longitude": 106.78092,
        "address": "Tuocha Milk Tea, 242 Đường Số 8, Phường Linh Xuân, Thủ Đức, Hồ Chí Minh, Việt Nam",
        "country_code": "VNM",
        "country_name": "Việt Nam",
        "city": "Hồ Chí Minh",
        "district": "Thủ Đức",
        "ward": "Phường Linh Xuân",
        "street": "Đường Số 8",
        "postal_code": "71309",
        "categories": [
            {
                "name": "Cà Phê/Trà"
            }
        ]
    },
    {
        "name": "Cafe Thủy Tùng",
        "latitude": 10.94492,
        "longitude": 106.8175,
        "address": "Cafe Thủy Tùng, Đường Nguyễn Văn Trị, Phường Thanh Bình, Biên Hòa, Đồng Nai, Việt Nam",
        "country_code": "VNM",
        "country_name": "Việt Nam",
        "city": "Đồng Nai",
        "district": "Biên Hòa",
        "ward": "Phường Thanh Bình",
        "street": "Đường Nguyễn Văn Trị",
        "postal_code": "76106",
        "categories": [
            {
                "name": "Cà Phê/Trà"
            }
        ]
    },
    {
        "name": "Laurel Coffee",
        "latitude": 10.87736,
        "longitude": 106.8086,
        "address": "Laurel Coffee, Đường Vành Đai, Phường Đông Hòa, Dĩ An, Bình Dương, Việt Nam",
        "country_code": "VNM",
        "country_name": "Việt Nam",
        "city": "Bình Dương",
        "district": "Dĩ An",
        "ward": "Phường Đông Hòa",
        "street": "Đường Vành Đai",
        "postal_code": "75308",
        "categories": [
            {
                "name": "Cà Phê/Trà"
            }
        ]
    },
    {
        "name": "Bien Hoa Club",
        "latitude": 10.94761,
        "longitude": 106.81493,
        "address": "Bien Hoa Club, 127 Đường Phan Chu Trinh, Phường Hòa Bình, Biên Hòa, Đồng Nai, Việt Nam",
        "country_code": "VNM",
        "country_name": "Việt Nam",
        "city": "Đồng Nai",
        "district": "Biên Hòa",
        "ward": "Phường Hòa Bình",
        "street": "Đường Phan Chu Trinh",
        "postal_code": "76122",
        "categories": [
            {
                "name": "Cà Phê/Trà"
            }
        ]
    },
    {
        "name": "Cafe Shop Z Mũi Tàu",
        "latitude": 10.93861,
        "longitude": 106.8247,
        "address": "Cafe Shop Z Mũi Tàu, Đường Cách Mạng Tháng 8, Phường Quyết Thắng, Biên Hòa, Đồng Nai, Việt Nam",
        "country_code": "VNM",
        "country_name": "Việt Nam",
        "city": "Đồng Nai",
        "district": "Biên Hòa",
        "ward": "Phường Quyết Thắng",
        "street": "Đường Cách Mạng Tháng 8",
        "postal_code": "76107",
        "categories": [
            {
                "name": "Cà Phê/Trà"
            },
            {
                "name": "Quán cà phê"
            },
            {
                "name": "Quán cà phê internet"
            }
        ]
    },
    {
        "name": "Cafe Chung Cư",
        "latitude": 10.94667,
        "longitude": 106.81658,
        "address": "Cafe Chung Cư, Đường Nguyễn Trãi, Phường Thanh Bình, Biên Hòa, Đồng Nai, Việt Nam",
        "country_code": "VNM",
        "country_name": "Việt Nam",
        "city": "Đồng Nai",
        "district": "Biên Hòa",
        "ward": "Phường Thanh Bình",
        "street": "Đường Nguyễn Trãi",
        "postal_code": "76106",
        "categories": [
            {
                "name": "Cà Phê/Trà"
            }
        ]
    },
    {
        "name": "Quán Cà Phê",
        "latitude": 10.90803,
        "longitude": 106.75074,
        "address": "Quán Cà Phê, Đường Lý Thường Kiệt, Phường Dĩ An, Dĩ An, Bình Dương, Việt Nam",
        "country_code": "VNM",
        "country_name": "Việt Nam",
        "city": "Bình Dương",
        "district": "Dĩ An",
        "ward": "Phường Dĩ An",
        "street": "Đường Lý Thường Kiệt",
        "postal_code": "75306",
        "categories": [
            {
                "name": "Cà Phê/Trà"
            }
        ]
    },
    {
        "name": "Solis Milk Tea Biên Hòa",
        "latitude": 10.93896,
        "longitude": 106.82471,
        "address": "Solis Milk Tea Biên Hòa, Đường Cách Mạng Tháng 8, Phường Quyết Thắng, Biên Hòa, Đồng Nai, Việt Nam",
        "country_code": "VNM",
        "country_name": "Việt Nam",
        "city": "Đồng Nai",
        "district": "Biên Hòa",
        "ward": "Phường Quyết Thắng",
        "street": "Đường Cách Mạng Tháng 8",
        "postal_code": "76107",
        "categories": [
            {
                "name": "Cà Phê/Trà"
            }
        ]
    },
    {
        "name": "Ame Tea",
        "latitude": 10.95484,
        "longitude": 106.79524,
        "address": "Ame Tea, Đường Huỳnh Văn Nghệ, Phường Bửu Long, Biên Hòa, Đồng Nai, Việt Nam",
        "country_code": "VNM",
        "country_name": "Việt Nam",
        "city": "Đồng Nai",
        "district": "Biên Hòa",
        "ward": "Phường Bửu Long",
        "street": "Đường Huỳnh Văn Nghệ",
        "postal_code": "76120",
        "categories": [
            {
                "name": "Quán cà phê"
            },
            {
                "name": "Cà Phê/Trà"
            },
            {
                "name": "Phòng trà"
            }
        ]
    },
    {
        "name": "Cafe Bru",
        "latitude": 10.93856,
        "longitude": 106.82516,
        "address": "Cafe Bru, 11 Đường Hà Huy Giáp, Phường Quyết Thắng, Biên Hòa, Đồng Nai, Việt Nam",
        "country_code": "VNM",
        "country_name": "Việt Nam",
        "city": "Đồng Nai",
        "district": "Biên Hòa",
        "ward": "Phường Quyết Thắng",
        "street": "Đường Hà Huy Giáp",
        "postal_code": "76107",
        "categories": [
            {
                "name": "Cà Phê/Trà"
            },
            {
                "name": "Quán ăn bình dân"
            },
            {
                "name": "Bar hoặc Quán rượu"
            }
        ]
    },
    {
        "name": "Saolam Coffee",
        "latitude": 10.953,
        "longitude": 106.80499,
        "address": "Saolam Coffee, Đường Huỳnh Văn Nghệ, Phường Bửu Long, Biên Hòa, Đồng Nai, Việt Nam",
        "country_code": "VNM",
        "country_name": "Việt Nam",
        "city": "Đồng Nai",
        "district": "Biên Hòa",
        "ward": "Phường Bửu Long",
        "street": "Đường Huỳnh Văn Nghệ",
        "postal_code": "76120",
        "categories": [
            {
                "name": "Phòng trà"
            },
            {
                "name": "Cà Phê/Trà"
            },
            {
                "name": "Quán cà phê internet"
            }
        ]
    },
    {
        "name": "Cafe Bàn Gỗ",
        "latitude": 10.94039,
        "longitude": 106.82381,
        "address": "Cafe Bàn Gỗ, Đường Cách Mạng Tháng 8, Phường Quyết Thắng, Biên Hòa, Đồng Nai, Việt Nam",
        "country_code": "VNM",
        "country_name": "Việt Nam",
        "city": "Đồng Nai",
        "district": "Biên Hòa",
        "ward": "Phường Quyết Thắng",
        "street": "Đường Cách Mạng Tháng 8",
        "postal_code": "76107",
        "categories": [
            {
                "name": "Cà Phê/Trà"
            }
        ]
    },
    {
        "name": "Coffee & Karaoke Hùng An",
        "latitude": 10.88742,
        "longitude": 106.75979,
        "address": "Coffee & Karaoke Hùng An, Đường Nguyễn Tri Phương, Phường An Bình, Dĩ An, Bình Dương, Việt Nam",
        "country_code": "VNM",
        "country_name": "Việt Nam",
        "city": "Bình Dương",
        "district": "Dĩ An",
        "ward": "Phường An Bình",
        "street": "Đường Nguyễn Tri Phương",
        "postal_code": "75307",
        "categories": [
            {
                "name": "Cà Phê/Trà"
            }
        ]
    },
    {
        "name": "Cà Phê Thủy Tiên",
        "latitude": 10.95021,
        "longitude": 106.81249,
        "address": "Cà Phê Thủy Tiên, 141 Đường Cách Mạng Tháng 8, Phường Hòa Bình, Biên Hòa, Đồng Nai, Việt Nam",
        "country_code": "VNM",
        "country_name": "Việt Nam",
        "city": "Đồng Nai",
        "district": "Biên Hòa",
        "ward": "Phường Hòa Bình",
        "street": "Đường Cách Mạng Tháng 8",
        "postal_code": "76122",
        "categories": [
            {
                "name": "Quán cà phê"
            },
            {
                "name": "Cà Phê/Trà"
            }
        ]
    },
    {
        "name": "Cafe Thu Gian",
        "latitude": 10.91451,
        "longitude": 106.74939,
        "address": "Cafe Thu Gian, Đường Nguyễn Thị Minh Khai, Phường Tân Đông Hiệp, Dĩ An, Bình Dương, Việt Nam",
        "country_code": "VNM",
        "country_name": "Việt Nam",
        "city": "Bình Dương",
        "district": "Dĩ An",
        "ward": "Phường Tân Đông Hiệp",
        "street": "Đường Nguyễn Thị Minh Khai",
        "postal_code": "75311",
        "categories": [
            {
                "name": "Quán cà phê"
            },
            {
                "name": "Cà Phê/Trà"
            }
        ]
    },
    {
        "name": "Cafe Cát Tường",
        "latitude": 10.95208,
        "longitude": 106.80974,
        "address": "Cafe Cát Tường, Hẻm 487 Cách Mạng Tháng 8, Phường Hòa Bình, Biên Hòa, Đồng Nai, Việt Nam",
        "country_code": "VNM",
        "country_name": "Việt Nam",
        "city": "Đồng Nai",
        "district": "Biên Hòa",
        "ward": "Phường Hòa Bình",
        "street": "Hẻm 487 Cách Mạng Tháng 8",
        "postal_code": "76122",
        "categories": [
            {
                "name": "Cà Phê/Trà"
            }
        ]
    },
    {
        "name": "Ánh Linh Cafe",
        "latitude": 10.8843,
        "longitude": 106.82182,
        "address": "Ánh Linh Cafe, 72 Đường 16, Phường Long Bình, Thủ Đức, Hồ Chí Minh, Việt Nam",
        "country_code": "VNM",
        "country_name": "Việt Nam",
        "city": "Hồ Chí Minh",
        "district": "Thủ Đức",
        "ward": "Phường Long Bình",
        "street": "Đường 16",
        "postal_code": "71217",
        "categories": [
            {
                "name": "Quán cà phê"
            },
            {
                "name": "Cà Phê/Trà"
            }
        ]
    },
    {
        "name": "Iris Coffee - Biên Hòa",
        "latitude": 10.94861,
        "longitude": 106.81673,
        "address": "Iris Coffee - Biên Hòa, Đường Nguyễn Văn Nghĩa, Phường Quang Vinh, Biên Hòa, Đồng Nai, Việt Nam",
        "country_code": "VNM",
        "country_name": "Việt Nam",
        "city": "Đồng Nai",
        "district": "Biên Hòa",
        "ward": "Phường Quang Vinh",
        "street": "Đường Nguyễn Văn Nghĩa",
        "postal_code": "76119",
        "categories": [
            {
                "name": "Quán cà phê"
            },
            {
                "name": "Cà Phê/Trà"
            }
        ]
    },
    {
        "name": "Cà Phê Vĩnh Lộc",
        "latitude": 10.94722,
        "longitude": 106.81872,
        "address": "Cà Phê Vĩnh Lộc, Đường 30 Tháng 4, Phường Quyết Thắng, Biên Hòa, Đồng Nai, Việt Nam",
        "country_code": "VNM",
        "country_name": "Việt Nam",
        "city": "Đồng Nai",
        "district": "Biên Hòa",
        "ward": "Phường Quyết Thắng",
        "street": "Đường 30 Tháng 4",
        "postal_code": "76107",
        "categories": [
            {
                "name": "Cà Phê/Trà"
            }
        ]
    }
]
