[
    {
        "name": "Beta Cineplex Biên Hòa",
        "latitude": 10.94662,
        "longitude": 106.8249,
        "address": "Beta Cineplex Biên Hòa, Đường Võ Thị Sáu, Phường Quyết Thắng, Biên Hòa, Đồng Nai, Việt Nam",
        "country_code": "VNM",
        "country_name": "Việt Nam",
        "city": "Đồng Nai",
        "district": "Biên Hòa",
        "ward": "Phường Quyết Thắng",
        "street": "Đường Võ Thị Sáu",
        "postal_code": "76107",
        "categories": [
            {
                "name": "Rạp chiếu phim"
            }
        ]
    },
    {
        "name": "Pegacine - Biên Hòa",
        "latitude": 10.94683,
        "longitude": 106.82524,
        "address": "Pegacine - Biên Hòa, 53-55 Đường Võ Thị Sáu, Phường Quyết Thắng, Biên Hòa, Đồng Nai, Việt Nam",
        "country_code": "VNM",
        "country_name": "Việt Nam",
        "city": "Đồng Nai",
        "district": "Biên Hòa",
        "ward": "Phường Quyết Thắng",
        "street": "Đường Võ Thị Sáu",
        "postal_code": "76107",
        "categories": [
            {
                "name": "Rạp chiếu phim"
            }
        ]
    },
    {
        "name": "Betacineplex",
        "latitude": 10.94728,
        "longitude": 106.82487,
        "address": "Betacineplex, Hẻm 63/1 Võ Thị Sáu, Phường Quyết Thắng, Biên Hòa, Đồng Nai, Việt Nam",
        "country_code": "VNM",
        "country_name": "Việt Nam",
        "city": "Đồng Nai",
        "district": "Biên Hòa",
        "ward": "Phường Quyết Thắng",
        "street": "Hẻm 63/1 Võ Thị Sáu",
        "postal_code": "76107",
        "categories": [
            {
                "name": "Rạp chiếu phim"
            }
        ]
    },
    {
        "name": "Beta Biên Hòa",
        "latitude": 10.94747,
        "longitude": 106.8253,
        "address": "Beta Biên Hòa, Hẻm 63/1 Võ Thị Sáu, Phường Quyết Thắng, Biên Hòa, Đồng Nai, Việt Nam",
        "country_code": "VNM",
        "country_name": "Việt Nam",
        "city": "Đồng Nai",
        "district": "Biên Hòa",
        "ward": "Phường Quyết Thắng",
        "street": "Hẻm 63/1 Võ Thị Sáu",
        "postal_code": "76107",
        "categories": [
            {
                "name": "Rạp chiếu phim"
            }
        ]
    },
    {
        "name": "Cafe Hd Cinema 2",
        "latitude": 10.94733,
        "longitude": 106.82904,
        "address": "Cafe Hd Cinema 2, Đường Võ Thị Sáu, Phường Thống Nhất, Biên Hòa, Đồng Nai, Việt Nam",
        "country_code": "VNM",
        "country_name": "Việt Nam",
        "city": "Đồng Nai",
        "district": "Biên Hòa",
        "ward": "Phường Thống Nhất",
        "street": "Đường Võ Thị Sáu",
        "postal_code": "76108",
        "categories": [
            {
                "name": "Rạp chiếu phim"
            }
        ]
    },
    {
        "name": "Cafe Hd Cinema 3",
        "latitude": 10.94678,
        "longitude": 106.82965,
        "address": "Cafe Hd Cinema 3, Đường A4, Phường Thống Nhất, Biên Hòa, Đồng Nai, Việt Nam",
        "country_code": "VNM",
        "country_name": "Việt Nam",
        "city": "Đồng Nai",
        "district": "Biên Hòa",
        "ward": "Phường Thống Nhất",
        "street": "Đường A4",
        "postal_code": "76108",
        "categories": [
            {
                "name": "Rạp chiếu phim"
            },
            {
                "name": "Quán cà phê"
            }
        ]
    },
    {
        "name": "Trung Tâm Phát Hành Và Chiếu Bóng",
        "latitude": 10.95406,
        "longitude": 106.8246,
        "address": "Trung Tâm Phát Hành Và Chiếu Bóng, 99 Đường 30 Tháng 4, Phường Trung Dũng, Biên Hòa, Đồng Nai, Việt Nam",
        "country_code": "VNM",
        "country_name": "Việt Nam",
        "city": "Đồng Nai",
        "district": "Biên Hòa",
        "ward": "Phường Trung Dũng",
        "street": "Đường 30 Tháng 4",
        "postal_code": "76118",
        "categories": [
            {
                "name": "Rạp chiếu phim"
            }
        ]
    },
    {
        "name": "Xem Phim Phúc's Cinema",
        "latitude": 10.94721,
        "longitude": 106.83322,
        "address": "Xem Phim Phúc's Cinema, Đường D12, Phường Thống Nhất, Biên Hòa, Đồng Nai, Việt Nam",
        "country_code": "VNM",
        "country_name": "Việt Nam",
        "city": "Đồng Nai",
        "district": "Biên Hòa",
        "ward": "Phường Thống Nhất",
        "street": "Đường D12",
        "postal_code": "76108",
        "categories": [
            {
                "name": "Rạp chiếu phim"
            }
        ]
    },
    {
        "name": "CGV Coopmart Biên Hòa",
        "latitude": 10.95863,
        "longitude": 106.83425,
        "address": "CGV Coopmart Biên Hòa, 121 Đường Phạm Văn Thuận, Phường Thống Nhất, Biên Hòa, Đồng Nai, Việt Nam",
        "country_code": "VNM",
        "country_name": "Việt Nam",
        "city": "Đồng Nai",
        "district": "Biên Hòa",
        "ward": "Phường Thống Nhất",
        "street": "Đường Phạm Văn Thuận",
        "postal_code": "76108",
        "categories": [
            {
                "name": "Rạp chiếu phim"
            }
        ]
    },
    {
        "name": "Kem Rainbow - Co.Op Mart Biên Hòa",
        "latitude": 10.95863,
        "longitude": 106.83425,
        "address": "Kem Rainbow - Co.Op Mart Biên Hòa, 121 Đường Phạm Văn Thuận, Phường Thống Nhất, Biên Hòa, Đồng Nai, Việt Nam",
        "country_code": "VNM",
        "country_name": "Việt Nam",
        "city": "Đồng Nai",
        "district": "Biên Hòa",
        "ward": "Phường Thống Nhất",
        "street": "Đường Phạm Văn Thuận",
        "postal_code": "76108",
        "categories": [
            {
                "name": "Rạp chiếu phim"
            }
        ]
    },
    {
        "name": "Megastar Bien Hoa",
        "latitude": 10.95863,
        "longitude": 106.83425,
        "address": "Megastar Bien Hoa, Đường Phạm Văn Thuận, Phường Thống Nhất, Biên Hòa, Đồng Nai, Việt Nam",
        "country_code": "VNM",
        "country_name": "Việt Nam",
        "city": "Đồng Nai",
        "district": "Biên Hòa",
        "ward": "Phường Thống Nhất",
        "street": "Đường Phạm Văn Thuận",
        "postal_code": "76108",
        "categories": [
            {
                "name": "Rạp chiếu phim"
            }
        ]
    },
    {
        "name": "Moon",
        "latitude": 10.8523,
        "longitude": 106.7909,
        "address": "Moon, Hẻm 144 Man Thiện, Phường Tăng Nhơn Phú A, Thủ Đức, Hồ Chí Minh, Việt Nam",
        "country_code": "VNM",
        "country_name": "Việt Nam",
        "city": "Hồ Chí Minh",
        "district": "Thủ Đức",
        "ward": "Phường Tăng Nhơn Phú A",
        "street": "Hẻm 144 Man Thiện",
        "postal_code": "71207",
        "categories": [
            {
                "name": "Rạp chiếu phim"
            }
        ]
    },
    {
        "name": "Lotte Biên Hòa",
        "latitude": 10.95766,
        "longitude": 106.8432,
        "address": "Lotte Biên Hòa, 1096 Đường Phạm Văn Thuận, Phường Thống Nhất, Biên Hòa, Đồng Nai, Việt Nam",
        "country_code": "VNM",
        "country_name": "Việt Nam",
        "city": "Đồng Nai",
        "district": "Biên Hòa",
        "ward": "Phường Thống Nhất",
        "street": "Đường Phạm Văn Thuận",
        "postal_code": "76108",
        "categories": [
            {
                "name": "Rạp chiếu phim"
            }
        ]
    },
    {
        "name": "Phòng Chiếu Phim 3D",
        "latitude": 10.85043,
        "longitude": 106.76766,
        "address": "Phòng Chiếu Phim 3D, Đường Võ Văn Ngân, Phường Linh Chiểu, Thủ Đức, Hồ Chí Minh, Việt Nam",
        "country_code": "VNM",
        "country_name": "Việt Nam",
        "city": "Hồ Chí Minh",
        "district": "Thủ Đức",
        "ward": "Phường Linh Chiểu",
        "street": "Đường Võ Văn Ngân",
        "postal_code": "71307",
        "categories": [
            {
                "name": "Rạp chiếu phim"
            }
        ]
    },
    {
        "name": "CGV Vincom Thủ Đức",
        "latitude": 10.85049,
        "longitude": 106.76517,
        "address": "CGV Vincom Thủ Đức, Đường Võ Văn Ngân, Phường Linh Chiểu, Thủ Đức, Hồ Chí Minh, Việt Nam",
        "country_code": "VNM",
        "country_name": "Việt Nam",
        "city": "Hồ Chí Minh",
        "district": "Thủ Đức",
        "ward": "Phường Linh Chiểu",
        "street": "Đường Võ Văn Ngân",
        "postal_code": "71307",
        "categories": [
            {
                "name": "Rạp chiếu phim"
            }
        ]
    },
    {
        "name": "Công Nghệ Ecb",
        "latitude": 10.84544,
        "longitude": 106.78662,
        "address": "Công Nghệ Ecb, 9 Đường Man Thiện, Phường Tăng Nhơn Phú A, Thủ Đức, Hồ Chí Minh, Việt Nam",
        "country_code": "VNM",
        "country_name": "Việt Nam",
        "city": "Hồ Chí Minh",
        "district": "Thủ Đức",
        "ward": "Phường Tăng Nhơn Phú A",
        "street": "Đường Man Thiện",
        "postal_code": "71207",
        "categories": [
            {
                "name": "Rạp chiếu phim"
            }
        ]
    },
    {
        "name": "BHD Vincom Lê Văn Việt",
        "latitude": 10.84583,
        "longitude": 106.77911,
        "address": "BHD Vincom Lê Văn Việt, Đường Lê Văn Việt, Phường Hiệp Phú, Thủ Đức, Hồ Chí Minh, Việt Nam",
        "country_code": "VNM",
        "country_name": "Việt Nam",
        "city": "Hồ Chí Minh",
        "district": "Thủ Đức",
        "ward": "Phường Hiệp Phú",
        "street": "Đường Lê Văn Việt",
        "postal_code": "71206",
        "categories": [
            {
                "name": "Rạp chiếu phim"
            }
        ]
    },
    {
        "name": "Star",
        "latitude": 10.84429,
        "longitude": 106.78145,
        "address": "Star, Đường Lê Văn Việt, Phường Tăng Nhơn Phú B, Thủ Đức, Hồ Chí Minh, Việt Nam",
        "country_code": "VNM",
        "country_name": "Việt Nam",
        "city": "Hồ Chí Minh",
        "district": "Thủ Đức",
        "ward": "Phường Tăng Nhơn Phú B",
        "street": "Đường Lê Văn Việt",
        "postal_code": "71211",
        "categories": [
            {
                "name": "Rạp chiếu phim"
            },
            {
                "name": "Doanh nghiệp"
            }
        ]
    },
    {
        "name": "Cinema Hd Tibo",
        "latitude": 10.95708,
        "longitude": 106.86113,
        "address": "Cinema Hd Tibo, Đường Đồng Khởi, Phường Tân Hiệp, Biên Hòa, Đồng Nai, Việt Nam",
        "country_code": "VNM",
        "country_name": "Việt Nam",
        "city": "Đồng Nai",
        "district": "Biên Hòa",
        "ward": "Phường Tân Hiệp",
        "street": "Đường Đồng Khởi",
        "postal_code": "76111",
        "categories": [
            {
                "name": "Rạp chiếu phim"
            }
        ]
    },
    {
        "name": "CGV Cinema Aeon Mall Canary Bình Dương",
        "latitude": 10.93283,
        "longitude": 106.71086,
        "address": "CGV Cinema Aeon Mall Canary Bình Dương, Đại Lộ Bình Dương, Phường Thuận Giao, Thuận An, Bình Dương, Việt Nam",
        "country_code": "VNM",
        "country_name": "Việt Nam",
        "city": "Bình Dương",
        "district": "Thuận An",
        "ward": "Phường Thuận Giao",
        "street": "Đại Lộ Bình Dương",
        "postal_code": "75211",
        "categories": [
            {
                "name": "Rạp chiếu phim"
            }
        ]
    },
    {
        "name": "Megastar Cinema - Dong Nai",
        "latitude": 10.92396,
        "longitude": 106.88128,
        "address": "Megastar Cinema - Dong Nai, Đường Bùi Văn Hòa, Phường Long Bình, Biên Hòa, Đồng Nai, Việt Nam",
        "country_code": "VNM",
        "country_name": "Việt Nam",
        "city": "Đồng Nai",
        "district": "Biên Hòa",
        "ward": "Phường Long Bình",
        "street": "Đường Bùi Văn Hòa",
        "postal_code": "76134",
        "categories": [
            {
                "name": "Rạp chiếu phim"
            }
        ]
    },
    {
        "name": "Cine One",
        "latitude": 10.89984,
        "longitude": 106.69883,
        "address": "Cine One, Đường Cách Mạng Tháng 8, Phường Lái Thiêu, Thuận An, Bình Dương, Việt Nam",
        "country_code": "VNM",
        "country_name": "Việt Nam",
        "city": "Bình Dương",
        "district": "Thuận An",
        "ward": "Phường Lái Thiêu",
        "street": "Đường Cách Mạng Tháng 8",
        "postal_code": "75206",
        "categories": [
            {
                "name": "Rạp chiếu phim"
            }
        ]
    },
    {
        "name": "Xem Film Bằng Chứng Thép Nàk",
        "latitude": 10.94597,
        "longitude": 106.69388,
        "address": "Xem Film Bằng Chứng Thép Nàk, Đường Ba Rùa, Phường Hưng Định, Thuận An, Bình Dương, Việt Nam",
        "country_code": "VNM",
        "country_name": "Việt Nam",
        "city": "Bình Dương",
        "district": "Thuận An",
        "ward": "Phường Hưng Định",
        "street": "Đường Ba Rùa",
        "postal_code": "75213",
        "categories": [
            {
                "name": "Rạp chiếu phim"
            }
        ]
    },
    {
        "name": "Kem 3d",
        "latitude": 10.83089,
        "longitude": 106.71785,
        "address": "Kem 3d, Đường Số 6, Phường Hiệp Bình Chánh, Thủ Đức, Hồ Chí Minh, Việt Nam",
        "country_code": "VNM",
        "country_name": "Việt Nam",
        "city": "Hồ Chí Minh",
        "district": "Thủ Đức",
        "ward": "Phường Hiệp Bình Chánh",
        "street": "Đường Số 6",
        "postal_code": "71315",
        "categories": [
            {
                "name": "Rạp chiếu phim"
            }
        ]
    },
    {
        "name": "GTD CGV Giga Mall Thu",
        "latitude": 10.82767,
        "longitude": 106.72102,
        "address": "GTD CGV Giga Mall Thu, 240-242 Đường Phạm Văn Đồng, Phường Hiệp Bình Chánh, Thủ Đức, Hồ Chí Minh, Việt Nam",
        "country_code": "VNM",
        "country_name": "Việt Nam",
        "city": "Hồ Chí Minh",
        "district": "Thủ Đức",
        "ward": "Phường Hiệp Bình Chánh",
        "street": "Đường Phạm Văn Đồng",
        "postal_code": "71315",
        "categories": [
            {
                "name": "Rạp chiếu phim"
            }
        ]
    },
    {
        "name": "Rạp Chiếu Phim BHD Star Cineplex",
        "latitude": 10.80222,
        "longitude": 106.74223,
        "address": "Rạp Chiếu Phim BHD Star Cineplex, Đường Song Hành Xa Lộ Hà Nội, Phường Thảo Điền, Thủ Đức, Hồ Chí Minh, Việt Nam",
        "country_code": "VNM",
        "country_name": "Việt Nam",
        "city": "Hồ Chí Minh",
        "district": "Thủ Đức",
        "ward": "Phường Thảo Điền",
        "street": "Đường Song Hành Xa Lộ Hà Nội",
        "postal_code": "71107",
        "categories": [
            {
                "name": "Rạp chiếu phim"
            }
        ]
    },
    {
        "name": "BHD Star Mega Mall Thảo Điền",
        "latitude": 10.80251,
        "longitude": 106.74071,
        "address": "BHD Star Mega Mall Thảo Điền, Đường D1, Phường Thảo Điền, Thủ Đức, Hồ Chí Minh, Việt Nam",
        "country_code": "VNM",
        "country_name": "Việt Nam",
        "city": "Hồ Chí Minh",
        "district": "Thủ Đức",
        "ward": "Phường Thảo Điền",
        "street": "Đường D1",
        "postal_code": "71107",
        "categories": [
            {
                "name": "Rạp chiếu phim"
            }
        ]
    },
    {
        "name": "BHD Vincom Thảo Điền",
        "latitude": 10.80272,
        "longitude": 106.73795,
        "address": "BHD Vincom Thảo Điền, Đường Thảo Điền, Phường Thảo Điền, Thủ Đức, Hồ Chí Minh, Việt Nam",
        "country_code": "VNM",
        "country_name": "Việt Nam",
        "city": "Hồ Chí Minh",
        "district": "Thủ Đức",
        "ward": "Phường Thảo Điền",
        "street": "Đường Thảo Điền",
        "postal_code": "71107",
        "categories": [
            {
                "name": "Rạp chiếu phim"
            }
        ]
    },
    {
        "name": "Cinebox Hoa Binh",
        "latitude": 10.85803,
        "longitude": 106.67914,
        "address": "Cinebox Hoa Binh, Đường Hà Huy Giáp, Phường Thạnh Lộc, Quận 12, Hồ Chí Minh, Việt Nam",
        "country_code": "VNM",
        "country_name": "Việt Nam",
        "city": "Hồ Chí Minh",
        "district": "Quận 12",
        "ward": "Phường Thạnh Lộc",
        "street": "Đường Hà Huy Giáp",
        "postal_code": "71515",
        "categories": [
            {
                "name": "Rạp chiếu phim"
            }
        ]
    },
    {
        "name": "Chép Phim Honvietbiz",
        "latitude": 10.82295,
        "longitude": 106.70404,
        "address": "Chép Phim Honvietbiz, Đường Phạm Văn Đồng, Phường 13, Quận Bình Thạnh, Hồ Chí Minh, Việt Nam",
        "country_code": "VNM",
        "country_name": "Việt Nam",
        "city": "Hồ Chí Minh",
        "district": "Quận Bình Thạnh",
        "ward": "Phường 13",
        "street": "Đường Phạm Văn Đồng",
        "postal_code": "72311",
        "categories": [
            {
                "name": "Rạp chiếu phim"
            }
        ]
    },
    {
        "name": "HD Media Cafe",
        "latitude": 10.8128,
        "longitude": 106.71591,
        "address": "HD Media Cafe, 880 Đường Xô Viết Nghệ Tĩnh, Phường 25, Quận Bình Thạnh, Hồ Chí Minh, Việt Nam",
        "country_code": "VNM",
        "country_name": "Việt Nam",
        "city": "Hồ Chí Minh",
        "district": "Quận Bình Thạnh",
        "ward": "Phường 25",
        "street": "Đường Xô Viết Nghệ Tĩnh",
        "postal_code": "72308",
        "categories": [
            {
                "name": "Rạp chiếu phim"
            },
            {
                "name": "Quán cà phê"
            }
        ]
    },
    {
        "name": "CGV Thảo Điền Pearl",
        "latitude": 10.80239,
        "longitude": 106.73254,
        "address": "CGV Thảo Điền Pearl, Đường Quốc Hương, Phường Thảo Điền, Thủ Đức, Hồ Chí Minh, Việt Nam",
        "country_code": "VNM",
        "country_name": "Việt Nam",
        "city": "Hồ Chí Minh",
        "district": "Thủ Đức",
        "ward": "Phường Thảo Điền",
        "street": "Đường Quốc Hương",
        "postal_code": "71107",
        "categories": [
            {
                "name": "Rạp chiếu phim"
            }
        ]
    },
    {
        "name": "CGV",
        "latitude": 10.80088,
        "longitude": 106.7331,
        "address": "CGV, Đường Quốc Hương, Phường Thảo Điền, Thủ Đức, Hồ Chí Minh, Việt Nam",
        "country_code": "VNM",
        "country_name": "Việt Nam",
        "city": "Hồ Chí Minh",
        "district": "Thủ Đức",
        "ward": "Phường Thảo Điền",
        "street": "Đường Quốc Hương",
        "postal_code": "71107",
        "categories": [
            {
                "name": "Rạp chiếu phim"
            }
        ]
    },
    {
        "name": "The Unicorn",
        "latitude": 10.80267,
        "longitude": 106.72779,
        "address": "The Unicorn, Đường Nguyễn Văn Hưởng, Phường Thảo Điền, Thủ Đức, Hồ Chí Minh, Việt Nam",
        "country_code": "VNM",
        "country_name": "Việt Nam",
        "city": "Hồ Chí Minh",
        "district": "Thủ Đức",
        "ward": "Phường Thảo Điền",
        "street": "Đường Nguyễn Văn Hưởng",
        "postal_code": "71107",
        "categories": [
            {
                "name": "Rạp chiếu phim"
            }
        ]
    },
    {
        "name": "CGV Saigonres Nguyễn Xí",
        "latitude": 10.81634,
        "longitude": 106.70684,
        "address": "CGV Saigonres Nguyễn Xí, 79/81 Đường Nguyễn Xí, Phường 26, Quận Bình Thạnh, Hồ Chí Minh, Việt Nam",
        "country_code": "VNM",
        "country_name": "Việt Nam",
        "city": "Hồ Chí Minh",
        "district": "Quận Bình Thạnh",
        "ward": "Phường 26",
        "street": "Đường Nguyễn Xí",
        "postal_code": "72310",
        "categories": [
            {
                "name": "Rạp chiếu phim"
            },
            {
                "name": "Giải trí về đêm"
            }
        ]
    },
    {
        "name": "VTV Cần Thơ - Hãng Phim Tây Đô",
        "latitude": 10.80628,
        "longitude": 106.72029,
        "address": "VTV Cần Thơ - Hãng Phim Tây Đô, Đường Ung Văn Khiêm, Phường 25, Quận Bình Thạnh, Hồ Chí Minh, Việt Nam",
        "country_code": "VNM",
        "country_name": "Việt Nam",
        "city": "Hồ Chí Minh",
        "district": "Quận Bình Thạnh",
        "ward": "Phường 25",
        "street": "Đường Ung Văn Khiêm",
        "postal_code": "72308",
        "categories": [
            {
                "name": "Rạp chiếu phim"
            }
        ]
    },
    {
        "name": "Rạp Phim Lotte Cinema",
        "latitude": 10.80929,
        "longitude": 106.71328,
        "address": "Rạp Phim Lotte Cinema, 26 Đường Ung Văn Khiêm, Phường 25, Quận Bình Thạnh, Hồ Chí Minh, Việt Nam",
        "country_code": "VNM",
        "country_name": "Việt Nam",
        "city": "Hồ Chí Minh",
        "district": "Quận Bình Thạnh",
        "ward": "Phường 25",
        "street": "Đường Ung Văn Khiêm",
        "postal_code": "72308",
        "categories": [
            {
                "name": "Rạp chiếu phim"
            },
            {
                "name": "Doanh nghiệp"
            }
        ]
    },
    {
        "name": "Zenda's Cinema",
        "latitude": 10.79315,
        "longitude": 106.73943,
        "address": "Zenda's Cinema, Đường Số 3, Phường An Phú, Thủ Đức, Hồ Chí Minh, Việt Nam",
        "country_code": "VNM",
        "country_name": "Việt Nam",
        "city": "Hồ Chí Minh",
        "district": "Thủ Đức",
        "ward": "Phường An Phú",
        "street": "Đường Số 3",
        "postal_code": "71106",
        "categories": [
            {
                "name": "Rạp chiếu phim"
            }
        ]
    },
    {
        "name": "Cgv",
        "latitude": 10.8273,
        "longitude": 106.68756,
        "address": "Cgv, 12 Đường Phan Văn Trị, Phường 7, Quận Gò Vấp, Hồ Chí Minh, Việt Nam",
        "country_code": "VNM",
        "country_name": "Việt Nam",
        "city": "Hồ Chí Minh",
        "district": "Quận Gò Vấp",
        "ward": "Phường 7",
        "street": "Đường Phan Văn Trị",
        "postal_code": "71407",
        "categories": [
            {
                "name": "Rạp chiếu phim"
            }
        ]
    },
    {
        "name": "My Cinema Room",
        "latitude": 10.81032,
        "longitude": 106.70403,
        "address": "My Cinema Room, Đường Chu Văn An, Phường 12, Quận Bình Thạnh, Hồ Chí Minh, Việt Nam",
        "country_code": "VNM",
        "country_name": "Việt Nam",
        "city": "Hồ Chí Minh",
        "district": "Quận Bình Thạnh",
        "ward": "Phường 12",
        "street": "Đường Chu Văn An",
        "postal_code": "72312",
        "categories": [
            {
                "name": "Rạp chiếu phim"
            }
        ]
    },
    {
        "name": "Hokkaido Square @ Pearl Plaza",
        "latitude": 10.80003,
        "longitude": 106.71802,
        "address": "Hokkaido Square @ Pearl Plaza, Đường Nguyễn Văn Thương, Phường 25, Quận Bình Thạnh, Hồ Chí Minh, Việt Nam",
        "country_code": "VNM",
        "country_name": "Việt Nam",
        "city": "Hồ Chí Minh",
        "district": "Quận Bình Thạnh",
        "ward": "Phường 25",
        "street": "Đường Nguyễn Văn Thương",
        "postal_code": "72308",
        "categories": [
            {
                "name": "Rạp chiếu phim"
            }
        ]
    },
    {
        "name": "CGV Pearl Plaza 561A Điện Biên Phủ Phường 25 Quận Bình Thạnh TP.Hồ Chí Minh",
        "latitude": 10.79974,
        "longitude": 106.71828,
        "address": "CGV Pearl Plaza 561A Điện Biên Phủ Phường 25 Quận Bình Thạnh TP.Hồ Chí Minh, Đường Điện Biên Phủ, Phường 25, Quận Bình Thạnh, Hồ Chí Minh, Việt Nam",
        "country_code": "VNM",
        "country_name": "Việt Nam",
        "city": "Hồ Chí Minh",
        "district": "Quận Bình Thạnh",
        "ward": "Phường 25",
        "street": "Đường Điện Biên Phủ",
        "postal_code": "72308",
        "categories": [
            {
                "name": "Rạp chiếu phim"
            }
        ]
    },
    {
        "name": "Trường Quay VTV9",
        "latitude": 10.79201,
        "longitude": 106.73073,
        "address": "Trường Quay VTV9, Đường Trần Não, Phường An Khánh, Thủ Đức, Hồ Chí Minh, Việt Nam",
        "country_code": "VNM",
        "country_name": "Việt Nam",
        "city": "Hồ Chí Minh",
        "district": "Thủ Đức",
        "ward": "Phường An Khánh",
        "street": "Đường Trần Não",
        "postal_code": "71109",
        "categories": [
            {
                "name": "Rạp chiếu phim"
            }
        ]
    },
    {
        "name": "CGV Vincom Center Landmark 81",
        "latitude": 10.79449,
        "longitude": 106.72277,
        "address": "CGV Vincom Center Landmark 81, 208 Đường Nguyễn Hữu Cảnh, Phường 22, Quận Bình Thạnh, Hồ Chí Minh, Việt Nam",
        "country_code": "VNM",
        "country_name": "Việt Nam",
        "city": "Hồ Chí Minh",
        "district": "Quận Bình Thạnh",
        "ward": "Phường 22",
        "street": "Đường Nguyễn Hữu Cảnh",
        "postal_code": "72324",
        "categories": [
            {
                "name": "Rạp chiếu phim"
            }
        ]
    },
    {
        "name": "Cgv Vincom Landmark 81",
        "latitude": 10.79467,
        "longitude": 106.72208,
        "address": "Cgv Vincom Landmark 81, 772 Điện Biên Phủ, Phường 22, Quận Bình Thạnh, Hồ Chí Minh, Việt Nam",
        "country_code": "VNM",
        "country_name": "Việt Nam",
        "city": "Hồ Chí Minh",
        "district": "Quận Bình Thạnh",
        "ward": "Phường 22",
        "street": "Điện Biên Phủ",
        "postal_code": "72324",
        "categories": [
            {
                "name": "Rạp chiếu phim"
            }
        ]
    },
    {
        "name": "World Rider 5d",
        "latitude": 10.79916,
        "longitude": 106.71236,
        "address": "World Rider 5d, Hẻm 220/9 Xô Viết Nghệ Tĩnh, Phường 21, Quận Bình Thạnh, Hồ Chí Minh, Việt Nam",
        "country_code": "VNM",
        "country_name": "Việt Nam",
        "city": "Hồ Chí Minh",
        "district": "Quận Bình Thạnh",
        "ward": "Phường 21",
        "street": "Hẻm 220/9 Xô Viết Nghệ Tĩnh",
        "postal_code": "72322",
        "categories": [
            {
                "name": "Rạp chiếu phim"
            }
        ]
    },
    {
        "name": "Lotte Gò Vấp",
        "latitude": 10.83868,
        "longitude": 106.67274,
        "address": "Lotte Gò Vấp, 212 Đường Nguyễn Văn Lượng, Phường 10, Quận Gò Vấp, Hồ Chí Minh, Việt Nam",
        "country_code": "VNM",
        "country_name": "Việt Nam",
        "city": "Hồ Chí Minh",
        "district": "Quận Gò Vấp",
        "ward": "Phường 10",
        "street": "Đường Nguyễn Văn Lượng",
        "postal_code": "71406",
        "categories": [
            {
                "name": "Rạp chiếu phim"
            },
            {
                "name": "Công viên/Khu vui chơi"
            },
            {
                "name": "Giải trí"
            }
        ]
    },
    {
        "name": "CGV Bình Dương Square",
        "latitude": 10.98488,
        "longitude": 106.66752,
        "address": "CGV Bình Dương Square, Bình Dương square, Phường Phú Lợi, Thủ Dầu Một, Bình Dương, Việt Nam",
        "country_code": "VNM",
        "country_name": "Việt Nam",
        "city": "Bình Dương",
        "district": "Thủ Dầu Một",
        "ward": "Phường Phú Lợi",
        "street": "Bình Dương square",
        "postal_code": "75110",
        "categories": [
            {
                "name": "Rạp chiếu phim"
            }
        ]
    },
    {
        "name": "CGV Biconsi Bình Dương",
        "latitude": 10.9838,
        "longitude": 106.66673,
        "address": "CGV Biconsi Bình Dương, Đường Phú Lợi, Phường Phú Hòa, Thủ Dầu Một, Bình Dương, Việt Nam",
        "country_code": "VNM",
        "country_name": "Việt Nam",
        "city": "Bình Dương",
        "district": "Thủ Dầu Một",
        "ward": "Phường Phú Hòa",
        "street": "Đường Phú Lợi",
        "postal_code": "75109",
        "categories": [
            {
                "name": "Rạp chiếu phim"
            }
        ]
    },
    {
        "name": "Sunshine's Megastar",
        "latitude": 10.79257,
        "longitude": 106.71791,
        "address": "Sunshine's Megastar, Đường Nguyễn Hữu Cảnh, Phường 22, Quận Bình Thạnh, Hồ Chí Minh, Việt Nam",
        "country_code": "VNM",
        "country_name": "Việt Nam",
        "city": "Hồ Chí Minh",
        "district": "Quận Bình Thạnh",
        "ward": "Phường 22",
        "street": "Đường Nguyễn Hữu Cảnh",
        "postal_code": "72324",
        "categories": [
            {
                "name": "Rạp chiếu phim"
            }
        ]
    },
    {
        "name": "Couple Cinema 122",
        "latitude": 10.81882,
        "longitude": 106.68508,
        "address": "Couple Cinema 122, 122 Đường Lê Lợi, Phường 4, Quận Gò Vấp, Hồ Chí Minh, Việt Nam",
        "country_code": "VNM",
        "country_name": "Việt Nam",
        "city": "Hồ Chí Minh",
        "district": "Quận Gò Vấp",
        "ward": "Phường 4",
        "street": "Đường Lê Lợi",
        "postal_code": "71408",
        "categories": [
            {
                "name": "Rạp chiếu phim"
            }
        ]
    },
    {
        "name": "Trung Tâm Phát Hành Phim Và Chiếu Bóng",
        "latitude": 10.97818,
        "longitude": 106.66141,
        "address": "Trung Tâm Phát Hành Phim Và Chiếu Bóng, Đường Thích Quảng Đức, Phường Chánh Nghĩa, Thủ Dầu Một, Bình Dương, Việt Nam",
        "country_code": "VNM",
        "country_name": "Việt Nam",
        "city": "Bình Dương",
        "district": "Thủ Dầu Một",
        "ward": "Phường Chánh Nghĩa",
        "street": "Đường Thích Quảng Đức",
        "postal_code": "75107",
        "categories": [
            {
                "name": "Rạp chiếu phim"
            },
            {
                "name": "Doanh nghiệp"
            }
        ]
    },
    {
        "name": "Tivi",
        "latitude": 10.80778,
        "longitude": 106.69381,
        "address": "Tivi, Đường Nơ Trang Long, Phường 7, Quận Bình Thạnh, Hồ Chí Minh, Việt Nam",
        "country_code": "VNM",
        "country_name": "Việt Nam",
        "city": "Hồ Chí Minh",
        "district": "Quận Bình Thạnh",
        "ward": "Phường 7",
        "street": "Đường Nơ Trang Long",
        "postal_code": "72316",
        "categories": [
            {
                "name": "Rạp chiếu phim"
            }
        ]
    },
    {
        "name": "Bhd",
        "latitude": 10.82864,
        "longitude": 106.67407,
        "address": "Bhd, Đường Quang Trung, Phường 10, Quận Gò Vấp, Hồ Chí Minh, Việt Nam",
        "country_code": "VNM",
        "country_name": "Việt Nam",
        "city": "Hồ Chí Minh",
        "district": "Quận Gò Vấp",
        "ward": "Phường 10",
        "street": "Đường Quang Trung",
        "postal_code": "71406",
        "categories": [
            {
                "name": "Rạp chiếu phim"
            }
        ]
    },
    {
        "name": "Lottecinema @ Dimond Plaza",
        "latitude": 10.81019,
        "longitude": 106.69029,
        "address": "Lottecinema @ Dimond Plaza, Đường Nguyễn Văn Đậu, Phường 5, Quận Bình Thạnh, Hồ Chí Minh, Việt Nam",
        "country_code": "VNM",
        "country_name": "Việt Nam",
        "city": "Hồ Chí Minh",
        "district": "Quận Bình Thạnh",
        "ward": "Phường 5",
        "street": "Đường Nguyễn Văn Đậu",
        "postal_code": "72314",
        "categories": [
            {
                "name": "Rạp chiếu phim"
            }
        ]
    },
    {
        "name": "Rạp Chiếu Phim BHD Star Cineplex Quang Trung",
        "latitude": 10.82902,
        "longitude": 106.67284,
        "address": "Rạp Chiếu Phim BHD Star Cineplex Quang Trung, Quang Trung, Phường 10, Quận Gò Vấp, Hồ Chí Minh, Việt Nam",
        "country_code": "VNM",
        "country_name": "Việt Nam",
        "city": "Hồ Chí Minh",
        "district": "Quận Gò Vấp",
        "ward": "Phường 10",
        "street": "Quang Trung",
        "postal_code": "71406",
        "categories": [
            {
                "name": "Rạp chiếu phim"
            },
            {
                "name": "Nhà hàng"
            },
            {
                "name": "Quán cà phê"
            },
            {
                "name": "Phòng trà"
            }
        ]
    },
    {
        "name": "Rạp Phim BHD Vincom Quang Trung",
        "latitude": 10.8294,
        "longitude": 106.67244,
        "address": "Rạp Phim BHD Vincom Quang Trung, 190 Quang Trung, Phường 10, Quận Gò Vấp, Hồ Chí Minh, Việt Nam",
        "country_code": "VNM",
        "country_name": "Việt Nam",
        "city": "Hồ Chí Minh",
        "district": "Quận Gò Vấp",
        "ward": "Phường 10",
        "street": "Quang Trung",
        "postal_code": "71406",
        "categories": [
            {
                "name": "Rạp chiếu phim"
            }
        ]
    },
    {
        "name": "Nj's Tv",
        "latitude": 10.79972,
        "longitude": 106.70084,
        "address": "Nj's Tv, Hẻm 280/29 Bùi Hữu Nghĩa, Phường 2, Quận Bình Thạnh, Hồ Chí Minh, Việt Nam",
        "country_code": "VNM",
        "country_name": "Việt Nam",
        "city": "Hồ Chí Minh",
        "district": "Quận Bình Thạnh",
        "ward": "Phường 2",
        "street": "Hẻm 280/29 Bùi Hữu Nghĩa",
        "postal_code": "72319",
        "categories": [
            {
                "name": "Rạp chiếu phim"
            }
        ]
    },
    {
        "name": "Rạp Chiếu Phim Bình Minh",
        "latitude": 10.97584,
        "longitude": 106.65788,
        "address": "Rạp Chiếu Phim Bình Minh, 604 Đường Cách Mạng Tháng Tám, Phường Phú Cường, Thủ Dầu Một, Bình Dương, Việt Nam",
        "country_code": "VNM",
        "country_name": "Việt Nam",
        "city": "Bình Dương",
        "district": "Thủ Dầu Một",
        "ward": "Phường Phú Cường",
        "street": "Đường Cách Mạng Tháng Tám",
        "postal_code": "75106",
        "categories": [
            {
                "name": "Rạp chiếu phim"
            }
        ]
    },
    {
        "name": "CGV Empire Bình Dương",
        "latitude": 10.97494,
        "longitude": 106.65699,
        "address": "CGV Empire Bình Dương, Đường Lý Thường Kiệt, Phường Phú Cường, Thủ Dầu Một, Bình Dương, Việt Nam",
        "country_code": "VNM",
        "country_name": "Việt Nam",
        "city": "Bình Dương",
        "district": "Thủ Dầu Một",
        "ward": "Phường Phú Cường",
        "street": "Đường Lý Thường Kiệt",
        "postal_code": "75106",
        "categories": [
            {
                "name": "Rạp chiếu phim"
            }
        ]
    },
    {
        "name": "Emprise Cineplex",
        "latitude": 10.97436,
        "longitude": 106.65652,
        "address": "Emprise Cineplex, Đường Lý Thường Kiệt, Phường Phú Cường, Thủ Dầu Một, Bình Dương, Việt Nam",
        "country_code": "VNM",
        "country_name": "Việt Nam",
        "city": "Bình Dương",
        "district": "Thủ Dầu Một",
        "ward": "Phường Phú Cường",
        "street": "Đường Lý Thường Kiệt",
        "postal_code": "75106",
        "categories": [
            {
                "name": "Rạp chiếu phim"
            }
        ]
    },
    {
        "name": "Starmovies Hd",
        "latitude": 10.79936,
        "longitude": 106.69928,
        "address": "Starmovies Hd, Đường Bùi Hữu Nghĩa, Phường 1, Quận Bình Thạnh, Hồ Chí Minh, Việt Nam",
        "country_code": "VNM",
        "country_name": "Việt Nam",
        "city": "Hồ Chí Minh",
        "district": "Quận Bình Thạnh",
        "ward": "Phường 1",
        "street": "Đường Bùi Hữu Nghĩa",
        "postal_code": "72318",
        "categories": [
            {
                "name": "Rạp chiếu phim"
            }
        ]
    },
    {
        "name": "Hbo Hd",
        "latitude": 10.79928,
        "longitude": 106.69928,
        "address": "Hbo Hd, Đường Bùi Hữu Nghĩa, Phường 1, Quận Bình Thạnh, Hồ Chí Minh, Việt Nam",
        "country_code": "VNM",
        "country_name": "Việt Nam",
        "city": "Hồ Chí Minh",
        "district": "Quận Bình Thạnh",
        "ward": "Phường 1",
        "street": "Đường Bùi Hữu Nghĩa",
        "postal_code": "72318",
        "categories": [
            {
                "name": "Rạp chiếu phim"
            }
        ]
    },
    {
        "name": "Trường Quay HK",
        "latitude": 10.81328,
        "longitude": 106.68325,
        "address": "Trường Quay HK, Đường Trương Đăng Quế, Phường 3, Quận Gò Vấp, Hồ Chí Minh, Việt Nam",
        "country_code": "VNM",
        "country_name": "Việt Nam",
        "city": "Hồ Chí Minh",
        "district": "Quận Gò Vấp",
        "ward": "Phường 3",
        "street": "Đường Trương Đăng Quế",
        "postal_code": "71409",
        "categories": [
            {
                "name": "Rạp chiếu phim"
            }
        ]
    },
    {
        "name": "Cinerrama Tại Gia",
        "latitude": 10.8182,
        "longitude": 106.67597,
        "address": "Cinerrama Tại Gia, Đường Nguyễn Văn Công, Phường 3, Quận Gò Vấp, Hồ Chí Minh, Việt Nam",
        "country_code": "VNM",
        "country_name": "Việt Nam",
        "city": "Hồ Chí Minh",
        "district": "Quận Gò Vấp",
        "ward": "Phường 3",
        "street": "Đường Nguyễn Văn Công",
        "postal_code": "71409",
        "categories": [
            {
                "name": "Rạp chiếu phim"
            }
        ]
    },
    {
        "name": "Thx Theater",
        "latitude": 10.81738,
        "longitude": 106.67629,
        "address": "Thx Theater, Hẻm 489 Đường Nguyễn Văn Công, Phường 3, Quận Gò Vấp, Hồ Chí Minh, Việt Nam",
        "country_code": "VNM",
        "country_name": "Việt Nam",
        "city": "Hồ Chí Minh",
        "district": "Quận Gò Vấp",
        "ward": "Phường 3",
        "street": "Hẻm 489 Đường Nguyễn Văn Công",
        "postal_code": "71409",
        "categories": [
            {
                "name": "Rạp chiếu phim"
            }
        ]
    },
    {
        "name": "Bhd Star Quang Trung V",
        "latitude": 10.83409,
        "longitude": 106.66329,
        "address": "Bhd Star Quang Trung V, Hẻm 597 Quang Trung, Phường 11, Quận Gò Vấp, Hồ Chí Minh, Việt Nam",
        "country_code": "VNM",
        "country_name": "Việt Nam",
        "city": "Hồ Chí Minh",
        "district": "Quận Gò Vấp",
        "ward": "Phường 11",
        "street": "Hẻm 597 Quang Trung",
        "postal_code": "71421",
        "categories": [
            {
                "name": "Rạp chiếu phim"
            }
        ]
    },
    {
        "name": "Galaxy Quang Trung",
        "latitude": 10.83512,
        "longitude": 106.66254,
        "address": "Galaxy Quang Trung, Hẻm 637 Quang Trung, Phường 11, Quận Gò Vấp, Hồ Chí Minh, Việt Nam",
        "country_code": "VNM",
        "country_name": "Việt Nam",
        "city": "Hồ Chí Minh",
        "district": "Quận Gò Vấp",
        "ward": "Phường 11",
        "street": "Hẻm 637 Quang Trung",
        "postal_code": "71421",
        "categories": [
            {
                "name": "Rạp chiếu phim"
            },
            {
                "name": "Giải trí về đêm"
            }
        ]
    },
    {
        "name": "Hang Phim Son An",
        "latitude": 10.79677,
        "longitude": 106.69511,
        "address": "Hang Phim Son An, Hẻm 87 Lê Văn Duyệt, Phường 3, Quận Bình Thạnh, Hồ Chí Minh, Việt Nam",
        "country_code": "VNM",
        "country_name": "Việt Nam",
        "city": "Hồ Chí Minh",
        "district": "Quận Bình Thạnh",
        "ward": "Phường 3",
        "street": "Hẻm 87 Lê Văn Duyệt",
        "postal_code": "72317",
        "categories": [
            {
                "name": "Rạp chiếu phim"
            }
        ]
    },
    {
        "name": "Beta Cineplex",
        "latitude": 10.83533,
        "longitude": 106.65984,
        "address": "Beta Cineplex, Hẻm 653 Quang Trung, Phường 11, Quận Gò Vấp, Hồ Chí Minh, Việt Nam",
        "country_code": "VNM",
        "country_name": "Việt Nam",
        "city": "Hồ Chí Minh",
        "district": "Quận Gò Vấp",
        "ward": "Phường 11",
        "street": "Hẻm 653 Quang Trung",
        "postal_code": "71421",
        "categories": [
            {
                "name": "Rạp chiếu phim"
            }
        ]
    },
    {
        "name": "Fatman Films Vietnam",
        "latitude": 10.78862,
        "longitude": 106.70176,
        "address": "Fatman Films Vietnam, Hẻm 12 Nguyễn Thị Minh Khai, Phường Đa Kao, Quận 1, Hồ Chí Minh, Việt Nam",
        "country_code": "VNM",
        "country_name": "Việt Nam",
        "city": "Hồ Chí Minh",
        "district": "Quận 1",
        "ward": "Phường Đa Kao",
        "street": "Hẻm 12 Nguyễn Thị Minh Khai",
        "postal_code": "71007",
        "categories": [
            {
                "name": "Rạp chiếu phim"
            }
        ]
    },
    {
        "name": "Megastar Cine Ct Plaza",
        "latitude": 10.80757,
        "longitude": 106.67868,
        "address": "Megastar Cine Ct Plaza, Đường Nguyễn Kiệm, Phường 9, Quận Phú Nhuận, Hồ Chí Minh, Việt Nam",
        "country_code": "VNM",
        "country_name": "Việt Nam",
        "city": "Hồ Chí Minh",
        "district": "Quận Phú Nhuận",
        "ward": "Phường 9",
        "street": "Đường Nguyễn Kiệm",
        "postal_code": "72216",
        "categories": [
            {
                "name": "Rạp chiếu phim"
            }
        ]
    },
    {
        "name": "Rạp Phim Tư Liệu",
        "latitude": 10.78953,
        "longitude": 106.69953,
        "address": "Rạp Phim Tư Liệu, Đường Phan Kế Bính, Phường Đa Kao, Quận 1, Hồ Chí Minh, Việt Nam",
        "country_code": "VNM",
        "country_name": "Việt Nam",
        "city": "Hồ Chí Minh",
        "district": "Quận 1",
        "ward": "Phường Đa Kao",
        "street": "Đường Phan Kế Bính",
        "postal_code": "71007",
        "categories": [
            {
                "name": "Rạp chiếu phim"
            }
        ]
    },
    {
        "name": "Cinema Cầu Bông",
        "latitude": 10.79214,
        "longitude": 106.69587,
        "address": "Cinema Cầu Bông, 207 Đường Đinh Tiên Hoàng, Phường Tân Định, Quận 1, Hồ Chí Minh, Việt Nam",
        "country_code": "VNM",
        "country_name": "Việt Nam",
        "city": "Hồ Chí Minh",
        "district": "Quận 1",
        "ward": "Phường Tân Định",
        "street": "Đường Đinh Tiên Hoàng",
        "postal_code": "71008",
        "categories": [
            {
                "name": "Rạp chiếu phim"
            }
        ]
    },
    {
        "name": "Cinema Văn Hoa",
        "latitude": 10.79281,
        "longitude": 106.6946,
        "address": "Cinema Văn Hoa, 62 Đường Trần Quang Khải, Phường Tân Định, Quận 1, Hồ Chí Minh, Việt Nam",
        "country_code": "VNM",
        "country_name": "Việt Nam",
        "city": "Hồ Chí Minh",
        "district": "Quận 1",
        "ward": "Phường Tân Định",
        "street": "Đường Trần Quang Khải",
        "postal_code": "71008",
        "categories": [
            {
                "name": "Rạp chiếu phim"
            }
        ]
    },
    {
        "name": "The Sofa",
        "latitude": 10.79099,
        "longitude": 106.69548,
        "address": "The Sofa, Đường Võ Thị Sáu, Phường Tân Định, Quận 1, Hồ Chí Minh, Việt Nam",
        "country_code": "VNM",
        "country_name": "Việt Nam",
        "city": "Hồ Chí Minh",
        "district": "Quận 1",
        "ward": "Phường Tân Định",
        "street": "Đường Võ Thị Sáu",
        "postal_code": "71008",
        "categories": [
            {
                "name": "Rạp chiếu phim"
            }
        ]
    },
    {
        "name": "Cineland Cafe 53/9 Trần Khánh Dư, Q1",
        "latitude": 10.79437,
        "longitude": 106.69058,
        "address": "Cineland Cafe 53/9 Trần Khánh Dư, Q1, 9 Hẻm 53 Đường Trần Khánh Dư, Phường Tân Định, Quận 1, Hồ Chí Minh, Việt Nam",
        "country_code": "VNM",
        "country_name": "Việt Nam",
        "city": "Hồ Chí Minh",
        "district": "Quận 1",
        "ward": "Phường Tân Định",
        "street": "Hẻm 53 Đường Trần Khánh Dư",
        "postal_code": "71008",
        "categories": [
            {
                "name": "Rạp chiếu phim"
            },
            {
                "name": "Quán ăn bình dân"
            },
            {
                "name": "Quán cà phê"
            }
        ]
    },
    {
        "name": "CGV Imc Trần Quang Khải",
        "latitude": 10.79252,
        "longitude": 106.69163,
        "address": "CGV Imc Trần Quang Khải, Đường Trần Khắc Chân, Phường Tân Định, Quận 1, Hồ Chí Minh, Việt Nam",
        "country_code": "VNM",
        "country_name": "Việt Nam",
        "city": "Hồ Chí Minh",
        "district": "Quận 1",
        "ward": "Phường Tân Định",
        "street": "Đường Trần Khắc Chân",
        "postal_code": "71008",
        "categories": [
            {
                "name": "Rạp chiếu phim"
            },
            {
                "name": "Đào tạo & Phát triển"
            }
        ]
    },
    {
        "name": "Cineland.Vn",
        "latitude": 10.79379,
        "longitude": 106.68786,
        "address": "Cineland.Vn, 53 Hẻm 34 Đường Trần Khánh Dư, Phường Tân Định, Quận 1, Hồ Chí Minh, Việt Nam",
        "country_code": "VNM",
        "country_name": "Việt Nam",
        "city": "Hồ Chí Minh",
        "district": "Quận 1",
        "ward": "Phường Tân Định",
        "street": "Hẻm 34 Đường Trần Khánh Dư",
        "postal_code": "71008",
        "categories": [
            {
                "name": "Rạp chiếu phim"
            }
        ]
    },
    {
        "name": "Dcine",
        "latitude": 10.78382,
        "longitude": 106.70063,
        "address": "Dcine, 6 Đường Mạc Đĩnh Chi, Phường Bến Nghé, Quận 1, Hồ Chí Minh, Việt Nam",
        "country_code": "VNM",
        "country_name": "Việt Nam",
        "city": "Hồ Chí Minh",
        "district": "Quận 1",
        "ward": "Phường Bến Nghé",
        "street": "Đường Mạc Đĩnh Chi",
        "postal_code": "71006",
        "categories": [
            {
                "name": "Rạp chiếu phim"
            }
        ]
    },
    {
        "name": "Trung Tâm Văn Hóa Quận 1 - Phòng Chiếu Phim 3D",
        "latitude": 10.78276,
        "longitude": 106.70161,
        "address": "Trung Tâm Văn Hóa Quận 1 - Phòng Chiếu Phim 3D, Đường Mạc Đĩnh Chi, Phường Bến Nghé, Quận 1, Hồ Chí Minh, Việt Nam",
        "country_code": "VNM",
        "country_name": "Việt Nam",
        "city": "Hồ Chí Minh",
        "district": "Quận 1",
        "ward": "Phường Bến Nghé",
        "street": "Đường Mạc Đĩnh Chi",
        "postal_code": "71006",
        "categories": [
            {
                "name": "Rạp chiếu phim"
            }
        ]
    },
    {
        "name": "Rạp Chiếu Phim Idecaf Thanh Niên",
        "latitude": 10.78494,
        "longitude": 106.69818,
        "address": "Rạp Chiếu Phim Idecaf Thanh Niên, 7 Đường Trần Cao Vân, Phường Đa Kao, Quận 1, Hồ Chí Minh, Việt Nam",
        "country_code": "VNM",
        "country_name": "Việt Nam",
        "city": "Hồ Chí Minh",
        "district": "Quận 1",
        "ward": "Phường Đa Kao",
        "street": "Đường Trần Cao Vân",
        "postal_code": "71007",
        "categories": [
            {
                "name": "Rạp chiếu phim"
            }
        ]
    },
    {
        "name": "Ngõ Nhỏ Cafe & Fafilm Cinema",
        "latitude": 10.77917,
        "longitude": 106.70562,
        "address": "Ngõ Nhỏ Cafe & Fafilm Cinema, Đường Nguyễn Siêu, Phường Bến Nghé, Quận 1, Hồ Chí Minh, Việt Nam",
        "country_code": "VNM",
        "country_name": "Việt Nam",
        "city": "Hồ Chí Minh",
        "district": "Quận 1",
        "ward": "Phường Bến Nghé",
        "street": "Đường Nguyễn Siêu",
        "postal_code": "71006",
        "categories": [
            {
                "name": "Rạp chiếu phim"
            },
            {
                "name": "Nhà hàng"
            },
            {
                "name": "Cà Phê/Trà"
            }
        ]
    },
    {
        "name": "Fafim Hcmc",
        "latitude": 10.77893,
        "longitude": 106.70577,
        "address": "Fafim Hcmc, Đường Nguyễn Siêu, Phường Bến Nghé, Quận 1, Hồ Chí Minh, Việt Nam",
        "country_code": "VNM",
        "country_name": "Việt Nam",
        "city": "Hồ Chí Minh",
        "district": "Quận 1",
        "ward": "Phường Bến Nghé",
        "street": "Đường Nguyễn Siêu",
        "postal_code": "71006",
        "categories": [
            {
                "name": "Rạp chiếu phim"
            }
        ]
    },
    {
        "name": "Rạp Chiếu Phim CGV- CT Plaza",
        "latitude": 10.81353,
        "longitude": 106.66581,
        "address": "Rạp Chiếu Phim CGV- CT Plaza, Đường Bạch Đằng, Phường 2, Quận Tân Bình, Hồ Chí Minh, Việt Nam",
        "country_code": "VNM",
        "country_name": "Việt Nam",
        "city": "Hồ Chí Minh",
        "district": "Quận Tân Bình",
        "ward": "Phường 2",
        "street": "Đường Bạch Đằng",
        "postal_code": "72108",
        "categories": [
            {
                "name": "Rạp chiếu phim"
            }
        ]
    },
    {
        "name": "Minh Khoa",
        "latitude": 10.84609,
        "longitude": 106.64465,
        "address": "Minh Khoa, Đường Nguyễn Văn Khối, Phường 8, Quận Gò Vấp, Hồ Chí Minh, Việt Nam",
        "country_code": "VNM",
        "country_name": "Việt Nam",
        "city": "Hồ Chí Minh",
        "district": "Quận Gò Vấp",
        "ward": "Phường 8",
        "street": "Đường Nguyễn Văn Khối",
        "postal_code": "71419",
        "categories": [
            {
                "name": "Rạp chiếu phim"
            }
        ]
    },
    {
        "name": "Sân Khấu Điện Ảnh Idecaf",
        "latitude": 10.77972,
        "longitude": 106.70387,
        "address": "Sân Khấu Điện Ảnh Idecaf, 28 Đường Lê Thánh Tôn, Phường Bến Nghé, Quận 1, Hồ Chí Minh, Việt Nam",
        "country_code": "VNM",
        "country_name": "Việt Nam",
        "city": "Hồ Chí Minh",
        "district": "Quận 1",
        "ward": "Phường Bến Nghé",
        "street": "Đường Lê Thánh Tôn",
        "postal_code": "71006",
        "categories": [
            {
                "name": "Trung tâm biểu diễn nghệ thuật"
            },
            {
                "name": "Giải trí về đêm"
            },
            {
                "name": "Rạp chiếu phim"
            },
            {
                "name": "Nhà hát, Âm nhạc & Văn hóa"
            }
        ]
    }
]
