[
    {
        "name": "Dạ Tiệc Âm Nhạc",
        "latitude": 10.91312,
        "longitude": 106.77801,
        "address": "Dạ Tiệc Âm Nhạc, ĐT.743B, Phường Tân Đông Hiệp, Dĩ An, Bình Dương, Việt Nam",
        "country_code": "VNM",
        "country_name": "Việt Nam",
        "city": "Bình Dương",
        "district": "Dĩ An",
        "ward": "Phường Tân Đông Hiệp",
        "street": "ĐT.743B",
        "postal_code": "75311",
        "categories": [
            {
                "name": "Nhà hát, Âm nhạc & Văn hóa"
            }
        ]
    },
    {
        "name": "Trung Tâm Văn Hóa-Thông Tin-Thể Thao Thị Xã Dĩ An",
        "latitude": 10.90841,
        "longitude": 106.77029,
        "address": "Trung Tâm Văn Hóa-Thông Tin-Thể Thao Thị Xã Dĩ An, 316 Đường Nguyễn An Ninh, Phường Dĩ An, Dĩ An, Bình Dương, Việt Nam",
        "country_code": "VNM",
        "country_name": "Việt Nam",
        "city": "Bình Dương",
        "district": "Dĩ An",
        "ward": "Phường Dĩ An",
        "street": "Đường Nguyễn An Ninh",
        "postal_code": "75306",
        "categories": [
            {
                "name": "Trung tâm hành chính hoặc cộng đồng"
            },
            {
                "name": "Nhà hát, Âm nhạc & Văn hóa"
            },
            {
                "name": "Trung tâm biểu diễn nghệ thuật"
            }
        ]
    },
    {
        "name": "Nhà Hội Bình Trước",
        "latitude": 10.94723,
        "longitude": 106.81875,
        "address": "Nhà Hội Bình Trước, 4 Đường 30 Tháng 4, Phường Quyết Thắng, Biên Hòa, Đồng Nai, Việt Nam",
        "country_code": "VNM",
        "country_name": "Việt Nam",
        "city": "Đồng Nai",
        "district": "Biên Hòa",
        "ward": "Phường Quyết Thắng",
        "street": "Đường 30 Tháng 4",
        "postal_code": "76107",
        "categories": [
            {
                "name": "Nhà hát, Âm nhạc & Văn hóa"
            }
        ]
    },
    {
        "name": "Phòng Hợp Tác Quốc Tế Uel",
        "latitude": 10.87027,
        "longitude": 106.77824,
        "address": "Phòng Hợp Tác Quốc Tế Uel, Đường Quốc Lộ 1A, Phường Linh Xuân, Thủ Đức, Hồ Chí Minh, Việt Nam",
        "country_code": "VNM",
        "country_name": "Việt Nam",
        "city": "Hồ Chí Minh",
        "district": "Thủ Đức",
        "ward": "Phường Linh Xuân",
        "street": "Đường Quốc Lộ 1A",
        "postal_code": "71309",
        "categories": [
            {
                "name": "Nhà hát, Âm nhạc & Văn hóa"
            }
        ]
    },
    {
        "name": "Baby Land",
        "latitude": 10.86486,
        "longitude": 106.7478,
        "address": "Baby Land, 109 Đường Số 6, Phường Tam Phú, Thủ Đức, Hồ Chí Minh, Việt Nam",
        "country_code": "VNM",
        "country_name": "Việt Nam",
        "city": "Hồ Chí Minh",
        "district": "Thủ Đức",
        "ward": "Phường Tam Phú",
        "street": "Đường Số 6",
        "postal_code": "71311",
        "categories": [
            {
                "name": "Nhà hát, Âm nhạc & Văn hóa"
            }
        ]
    },
    {
        "name": "Karaoke X4",
        "latitude": 10.84876,
        "longitude": 106.76868,
        "address": "Karaoke X4, Đường Đoàn Kết, Phường Bình Thọ, Thủ Đức, Hồ Chí Minh, Việt Nam",
        "country_code": "VNM",
        "country_name": "Việt Nam",
        "city": "Hồ Chí Minh",
        "district": "Thủ Đức",
        "ward": "Phường Bình Thọ",
        "street": "Đường Đoàn Kết",
        "postal_code": "71306",
        "categories": [
            {
                "name": "Nhà hát, Âm nhạc & Văn hóa"
            }
        ]
    },
    {
        "name": "Nice Karaoke",
        "latitude": 10.84453,
        "longitude": 106.79026,
        "address": "Nice Karaoke, Đường Lê Văn Việt, Phường Tăng Nhơn Phú A, Thủ Đức, Hồ Chí Minh, Việt Nam",
        "country_code": "VNM",
        "country_name": "Việt Nam",
        "city": "Hồ Chí Minh",
        "district": "Thủ Đức",
        "ward": "Phường Tăng Nhơn Phú A",
        "street": "Đường Lê Văn Việt",
        "postal_code": "71207",
        "categories": [
            {
                "name": "Nhà hát, Âm nhạc & Văn hóa"
            }
        ]
    },
    {
        "name": "Nhà Văn Hóa Phường Tân Phong",
        "latitude": 10.968,
        "longitude": 106.83889,
        "address": "Nhà Văn Hóa Phường Tân Phong, Hẻm Số 1400 Nguyễn Ái Quốc, Phường Tân Phong, Biên Hòa, Đồng Nai, Việt Nam",
        "country_code": "VNM",
        "country_name": "Việt Nam",
        "city": "Đồng Nai",
        "district": "Biên Hòa",
        "ward": "Phường Tân Phong",
        "street": "Hẻm Số 1400 Nguyễn Ái Quốc",
        "postal_code": "76117",
        "categories": [
            {
                "name": "Nhà hát, Âm nhạc & Văn hóa"
            }
        ]
    },
    {
        "name": "Nhà Truyền Thống",
        "latitude": 10.8694,
        "longitude": 106.73458,
        "address": "Nhà Truyền Thống, 3 Đường Tô Ngọc Vân, Phường Tam Bình, Thủ Đức, Hồ Chí Minh, Việt Nam",
        "country_code": "VNM",
        "country_name": "Việt Nam",
        "city": "Hồ Chí Minh",
        "district": "Thủ Đức",
        "ward": "Phường Tam Bình",
        "street": "Đường Tô Ngọc Vân",
        "postal_code": "71312",
        "categories": [
            {
                "name": "Nhà hát, Âm nhạc & Văn hóa"
            }
        ]
    },
    {
        "name": "Iconos",
        "latitude": 10.92938,
        "longitude": 106.7172,
        "address": "Iconos, Đường Số 2 VSIP, Phường Bình Hòa, Thuận An, Bình Dương, Việt Nam",
        "country_code": "VNM",
        "country_name": "Việt Nam",
        "city": "Bình Dương",
        "district": "Thuận An",
        "ward": "Phường Bình Hòa",
        "street": "Đường Số 2 VSIP",
        "postal_code": "75208",
        "categories": [
            {
                "name": "Nhà hát, Âm nhạc & Văn hóa"
            }
        ]
    },
    {
        "name": "Phòng Trà Dư Âm",
        "latitude": 10.84289,
        "longitude": 106.76833,
        "address": "Phòng Trà Dư Âm, Đường Einstein, Phường Bình Thọ, Thủ Đức, Hồ Chí Minh, Việt Nam",
        "country_code": "VNM",
        "country_name": "Việt Nam",
        "city": "Hồ Chí Minh",
        "district": "Thủ Đức",
        "ward": "Phường Bình Thọ",
        "street": "Đường Einstein",
        "postal_code": "71306",
        "categories": [
            {
                "name": "Nhà hát, Âm nhạc & Văn hóa"
            }
        ]
    },
    {
        "name": "Halo Coffee Music",
        "latitude": 10.84262,
        "longitude": 106.76691,
        "address": "Halo Coffee Music, Đường Hồng Đức, Phường Bình Thọ, Thủ Đức, Hồ Chí Minh, Việt Nam",
        "country_code": "VNM",
        "country_name": "Việt Nam",
        "city": "Hồ Chí Minh",
        "district": "Thủ Đức",
        "ward": "Phường Bình Thọ",
        "street": "Đường Hồng Đức",
        "postal_code": "71306",
        "categories": [
            {
                "name": "Nhà hát, Âm nhạc & Văn hóa"
            }
        ]
    },
    {
        "name": "Karaoke Mỹ Dung Vũng Tàu",
        "latitude": 10.84131,
        "longitude": 106.76858,
        "address": "Karaoke Mỹ Dung Vũng Tàu, Đường Nguyễn Văn Bá, Phường Bình Thọ, Thủ Đức, Hồ Chí Minh, Việt Nam",
        "country_code": "VNM",
        "country_name": "Việt Nam",
        "city": "Hồ Chí Minh",
        "district": "Thủ Đức",
        "ward": "Phường Bình Thọ",
        "street": "Đường Nguyễn Văn Bá",
        "postal_code": "71306",
        "categories": [
            {
                "name": "Nhà hát, Âm nhạc & Văn hóa"
            }
        ]
    },
    {
        "name": "Minh Hoà Music",
        "latitude": 10.96122,
        "longitude": 106.86529,
        "address": "Minh Hoà Music, Tổ 16 Khu Phố 4, Phường Tân Hiệp, Biên Hòa, Đồng Nai, Việt Nam",
        "country_code": "VNM",
        "country_name": "Việt Nam",
        "city": "Đồng Nai",
        "district": "Biên Hòa",
        "ward": "Phường Tân Hiệp",
        "street": "Tổ 16 Khu Phố 4",
        "postal_code": "76111",
        "categories": [
            {
                "name": "Nhà hát, Âm nhạc & Văn hóa"
            }
        ]
    },
    {
        "name": "Nhà Hàng Xóm",
        "latitude": 10.81904,
        "longitude": 106.77548,
        "address": "Nhà Hàng Xóm, Đường Số 475, Phường Phước Long B, Thủ Đức, Hồ Chí Minh, Việt Nam",
        "country_code": "VNM",
        "country_name": "Việt Nam",
        "city": "Hồ Chí Minh",
        "district": "Thủ Đức",
        "ward": "Phường Phước Long B",
        "street": "Đường Số 475",
        "postal_code": "71210",
        "categories": [
            {
                "name": "Nhà hát, Âm nhạc & Văn hóa"
            }
        ]
    },
    {
        "name": "Nhà Văn Hóa UBND Phường Tràng Dài",
        "latitude": 10.98975,
        "longitude": 106.85307,
        "address": "Nhà Văn Hóa UBND Phường Tràng Dài, Hẻm 467 Bùi Trọng Nghĩa, Phường Trảng Dài, Biên Hòa, Đồng Nai, Việt Nam",
        "country_code": "VNM",
        "country_name": "Việt Nam",
        "city": "Đồng Nai",
        "district": "Biên Hòa",
        "ward": "Phường Trảng Dài",
        "street": "Hẻm 467 Bùi Trọng Nghĩa",
        "postal_code": "76116",
        "categories": [
            {
                "name": "Nhà hát, Âm nhạc & Văn hóa"
            }
        ]
    },
    {
        "name": "Masterchef Vietnam Kitchen",
        "latitude": 10.81453,
        "longitude": 106.77321,
        "address": "Masterchef Vietnam Kitchen, Đường Số 9, Phường Phước Bình, Thủ Đức, Hồ Chí Minh, Việt Nam",
        "country_code": "VNM",
        "country_name": "Việt Nam",
        "city": "Hồ Chí Minh",
        "district": "Thủ Đức",
        "ward": "Phường Phước Bình",
        "street": "Đường Số 9",
        "postal_code": "71209",
        "categories": [
            {
                "name": "Nhà hát, Âm nhạc & Văn hóa"
            }
        ]
    },
    {
        "name": "Vietnam Idol 2015",
        "latitude": 10.81453,
        "longitude": 106.77321,
        "address": "Vietnam Idol 2015, Đường Số 9, Phường Phước Bình, Thủ Đức, Hồ Chí Minh, Việt Nam",
        "country_code": "VNM",
        "country_name": "Việt Nam",
        "city": "Hồ Chí Minh",
        "district": "Thủ Đức",
        "ward": "Phường Phước Bình",
        "street": "Đường Số 9",
        "postal_code": "71209",
        "categories": [
            {
                "name": "Nhà hát, Âm nhạc & Văn hóa"
            }
        ]
    },
    {
        "name": "Vietnam Idol 2012 Stage",
        "latitude": 10.81429,
        "longitude": 106.7728,
        "address": "Vietnam Idol 2012 Stage, Đường 17, Phường Phước Bình, Thủ Đức, Hồ Chí Minh, Việt Nam",
        "country_code": "VNM",
        "country_name": "Việt Nam",
        "city": "Hồ Chí Minh",
        "district": "Thủ Đức",
        "ward": "Phường Phước Bình",
        "street": "Đường 17",
        "postal_code": "71209",
        "categories": [
            {
                "name": "Nhà hát, Âm nhạc & Văn hóa"
            }
        ]
    },
    {
        "name": "Vietnam's Got Talent Stage",
        "latitude": 10.81429,
        "longitude": 106.7728,
        "address": "Vietnam's Got Talent Stage, Đường 17, Phường Phước Bình, Thủ Đức, Hồ Chí Minh, Việt Nam",
        "country_code": "VNM",
        "country_name": "Việt Nam",
        "city": "Hồ Chí Minh",
        "district": "Thủ Đức",
        "ward": "Phường Phước Bình",
        "street": "Đường 17",
        "postal_code": "71209",
        "categories": [
            {
                "name": "Nhà hát, Âm nhạc & Văn hóa"
            }
        ]
    },
    {
        "name": "Thien Thien Music",
        "latitude": 10.81193,
        "longitude": 106.76932,
        "address": "Thien Thien Music, Đường 13, Phường Phước Bình, Thủ Đức, Hồ Chí Minh, Việt Nam",
        "country_code": "VNM",
        "country_name": "Việt Nam",
        "city": "Hồ Chí Minh",
        "district": "Thủ Đức",
        "ward": "Phường Phước Bình",
        "street": "Đường 13",
        "postal_code": "71209",
        "categories": [
            {
                "name": "Nhà hát, Âm nhạc & Văn hóa"
            }
        ]
    },
    {
        "name": "Piano Class",
        "latitude": 10.83478,
        "longitude": 106.71507,
        "address": "Piano Class, Đường Số 14, Phường Hiệp Bình Chánh, Thủ Đức, Hồ Chí Minh, Việt Nam",
        "country_code": "VNM",
        "country_name": "Việt Nam",
        "city": "Hồ Chí Minh",
        "district": "Thủ Đức",
        "ward": "Phường Hiệp Bình Chánh",
        "street": "Đường Số 14",
        "postal_code": "71315",
        "categories": [
            {
                "name": "Nhà hát, Âm nhạc & Văn hóa"
            }
        ]
    },
    {
        "name": "Dome Theater",
        "latitude": 10.8276,
        "longitude": 106.721,
        "address": "Dome Theater, 242 Đường Phạm Văn Đồng, Phường Hiệp Bình Chánh, Thủ Đức, Hồ Chí Minh, Việt Nam",
        "country_code": "VNM",
        "country_name": "Việt Nam",
        "city": "Hồ Chí Minh",
        "district": "Thủ Đức",
        "ward": "Phường Hiệp Bình Chánh",
        "street": "Đường Phạm Văn Đồng",
        "postal_code": "71315",
        "categories": [
            {
                "name": "Nhà hát, Âm nhạc & Văn hóa"
            }
        ]
    },
    {
        "name": "Year End Party",
        "latitude": 10.82019,
        "longitude": 106.72657,
        "address": "Year End Party, Đường Cư Xá Thanh Đa, Phường 28, Quận Bình Thạnh, Hồ Chí Minh, Việt Nam",
        "country_code": "VNM",
        "country_name": "Việt Nam",
        "city": "Hồ Chí Minh",
        "district": "Quận Bình Thạnh",
        "ward": "Phường 28",
        "street": "Đường Cư Xá Thanh Đa",
        "postal_code": "72325",
        "categories": [
            {
                "name": "Nhà hát, Âm nhạc & Văn hóa"
            }
        ]
    },
    {
        "name": "Tmt Studio",
        "latitude": 10.81679,
        "longitude": 106.72999,
        "address": "Tmt Studio, Hẻm 188 Nguyễn Văn Hưởng, Phường Thảo Điền, Thủ Đức, Hồ Chí Minh, Việt Nam",
        "country_code": "VNM",
        "country_name": "Việt Nam",
        "city": "Hồ Chí Minh",
        "district": "Thủ Đức",
        "ward": "Phường Thảo Điền",
        "street": "Hẻm 188 Nguyễn Văn Hưởng",
        "postal_code": "71107",
        "categories": [
            {
                "name": "Nhà hát, Âm nhạc & Văn hóa"
            }
        ]
    },
    {
        "name": "European International School",
        "latitude": 10.81274,
        "longitude": 106.73489,
        "address": "European International School, Đường Nguyễn Văn Hưởng, Phường Thảo Điền, Thủ Đức, Hồ Chí Minh, Việt Nam",
        "country_code": "VNM",
        "country_name": "Việt Nam",
        "city": "Hồ Chí Minh",
        "district": "Thủ Đức",
        "ward": "Phường Thảo Điền",
        "street": "Đường Nguyễn Văn Hưởng",
        "postal_code": "71107",
        "categories": [
            {
                "name": "Nhà hát, Âm nhạc & Văn hóa"
            }
        ]
    },
    {
        "name": "Quang Ngọc Studio",
        "latitude": 10.80533,
        "longitude": 106.74503,
        "address": "Quang Ngọc Studio, Đường Số 12, Phường Thảo Điền, Thủ Đức, Hồ Chí Minh, Việt Nam",
        "country_code": "VNM",
        "country_name": "Việt Nam",
        "city": "Hồ Chí Minh",
        "district": "Thủ Đức",
        "ward": "Phường Thảo Điền",
        "street": "Đường Số 12",
        "postal_code": "71107",
        "categories": [
            {
                "name": "Nhà hát, Âm nhạc & Văn hóa"
            }
        ]
    },
    {
        "name": "Mustation Entertainment",
        "latitude": 10.80381,
        "longitude": 106.74443,
        "address": "Mustation Entertainment, 14A Hẻm 27 Đường Số 9, Phường Thảo Điền, Thủ Đức, Hồ Chí Minh, Việt Nam",
        "country_code": "VNM",
        "country_name": "Việt Nam",
        "city": "Hồ Chí Minh",
        "district": "Thủ Đức",
        "ward": "Phường Thảo Điền",
        "street": "Hẻm 27 Đường Số 9",
        "postal_code": "71107",
        "categories": [
            {
                "name": "Nhà hát, Âm nhạc & Văn hóa"
            }
        ]
    },
    {
        "name": "Auditorium @ Bis",
        "latitude": 10.81031,
        "longitude": 106.73058,
        "address": "Auditorium @ Bis, Đường Nguyễn Văn Hưởng, Phường Thảo Điền, Thủ Đức, Hồ Chí Minh, Việt Nam",
        "country_code": "VNM",
        "country_name": "Việt Nam",
        "city": "Hồ Chí Minh",
        "district": "Thủ Đức",
        "ward": "Phường Thảo Điền",
        "street": "Đường Nguyễn Văn Hưởng",
        "postal_code": "71107",
        "categories": [
            {
                "name": "Nhà hát, Âm nhạc & Văn hóa"
            }
        ]
    },
    {
        "name": "Auftdart",
        "latitude": 10.80195,
        "longitude": 106.74809,
        "address": "Auftdart, Đường Song Hành, Phường An Phú, Thủ Đức, Hồ Chí Minh, Việt Nam",
        "country_code": "VNM",
        "country_name": "Việt Nam",
        "city": "Hồ Chí Minh",
        "district": "Thủ Đức",
        "ward": "Phường An Phú",
        "street": "Đường Song Hành",
        "postal_code": "71106",
        "categories": [
            {
                "name": "Nhà hát, Âm nhạc & Văn hóa"
            }
        ]
    },
    {
        "name": "Lang Spot",
        "latitude": 10.81007,
        "longitude": 106.72956,
        "address": "Lang Spot, Đường Số 47, Phường Thảo Điền, Thủ Đức, Hồ Chí Minh, Việt Nam",
        "country_code": "VNM",
        "country_name": "Việt Nam",
        "city": "Hồ Chí Minh",
        "district": "Thủ Đức",
        "ward": "Phường Thảo Điền",
        "street": "Đường Số 47",
        "postal_code": "71107",
        "categories": [
            {
                "name": "Nhà hát, Âm nhạc & Văn hóa"
            }
        ]
    },
    {
        "name": "Karaoke Cua",
        "latitude": 10.81476,
        "longitude": 106.70874,
        "address": "Karaoke Cua, Hẻm 154 Nguyễn Xí, Phường 26, Quận Bình Thạnh, Hồ Chí Minh, Việt Nam",
        "country_code": "VNM",
        "country_name": "Việt Nam",
        "city": "Hồ Chí Minh",
        "district": "Quận Bình Thạnh",
        "ward": "Phường 26",
        "street": "Hẻm 154 Nguyễn Xí",
        "postal_code": "72310",
        "categories": [
            {
                "name": "Nhà hát, Âm nhạc & Văn hóa"
            }
        ]
    },
    {
        "name": "Ais Music Room",
        "latitude": 10.79211,
        "longitude": 106.75057,
        "address": "Ais Music Room, Đường Lương Định Của, Phường An Phú, Thủ Đức, Hồ Chí Minh, Việt Nam",
        "country_code": "VNM",
        "country_name": "Việt Nam",
        "city": "Hồ Chí Minh",
        "district": "Thủ Đức",
        "ward": "Phường An Phú",
        "street": "Đường Lương Định Của",
        "postal_code": "71106",
        "categories": [
            {
                "name": "Nhà hát, Âm nhạc & Văn hóa"
            }
        ]
    },
    {
        "name": "Karaoke Maika",
        "latitude": 10.81182,
        "longitude": 106.71105,
        "address": "Karaoke Maika, Đường Nguyễn Xí, Phường 26, Quận Bình Thạnh, Hồ Chí Minh, Việt Nam",
        "country_code": "VNM",
        "country_name": "Việt Nam",
        "city": "Hồ Chí Minh",
        "district": "Quận Bình Thạnh",
        "ward": "Phường 26",
        "street": "Đường Nguyễn Xí",
        "postal_code": "72310",
        "categories": [
            {
                "name": "Nhà hát, Âm nhạc & Văn hóa"
            }
        ]
    },
    {
        "name": "Chỗ Này",
        "latitude": 10.81128,
        "longitude": 106.71144,
        "address": "Chỗ Này, Đường Nguyễn Xí, Phường 26, Quận Bình Thạnh, Hồ Chí Minh, Việt Nam",
        "country_code": "VNM",
        "country_name": "Việt Nam",
        "city": "Hồ Chí Minh",
        "district": "Quận Bình Thạnh",
        "ward": "Phường 26",
        "street": "Đường Nguyễn Xí",
        "postal_code": "72310",
        "categories": [
            {
                "name": "Nhà hát, Âm nhạc & Văn hóa"
            }
        ]
    },
    {
        "name": "Acg/Ais Auditorium",
        "latitude": 10.79015,
        "longitude": 106.75026,
        "address": "Acg/Ais Auditorium, Đường Mai Chí Thọ, Phường An Phú, Thủ Đức, Hồ Chí Minh, Việt Nam",
        "country_code": "VNM",
        "country_name": "Việt Nam",
        "city": "Hồ Chí Minh",
        "district": "Thủ Đức",
        "ward": "Phường An Phú",
        "street": "Đường Mai Chí Thọ",
        "postal_code": "71106",
        "categories": [
            {
                "name": "Nhà hát, Âm nhạc & Văn hóa"
            }
        ]
    },
    {
        "name": "Music",
        "latitude": 10.79309,
        "longitude": 106.73939,
        "address": "Music, Đường Số 3, Phường An Phú, Thủ Đức, Hồ Chí Minh, Việt Nam",
        "country_code": "VNM",
        "country_name": "Việt Nam",
        "city": "Hồ Chí Minh",
        "district": "Thủ Đức",
        "ward": "Phường An Phú",
        "street": "Đường Số 3",
        "postal_code": "71106",
        "categories": [
            {
                "name": "Nhà hát, Âm nhạc & Văn hóa"
            }
        ]
    },
    {
        "name": "Ozzy Bùi Studio",
        "latitude": 10.80362,
        "longitude": 106.719,
        "address": "Ozzy Bùi Studio, Đường Võ Oanh, Phường 25, Quận Bình Thạnh, Hồ Chí Minh, Việt Nam",
        "country_code": "VNM",
        "country_name": "Việt Nam",
        "city": "Hồ Chí Minh",
        "district": "Quận Bình Thạnh",
        "ward": "Phường 25",
        "street": "Đường Võ Oanh",
        "postal_code": "72308",
        "categories": [
            {
                "name": "Nhà hát, Âm nhạc & Văn hóa"
            }
        ]
    },
    {
        "name": "Karaoke D2",
        "latitude": 10.80529,
        "longitude": 106.71607,
        "address": "Karaoke D2, Đường Nguyễn Gia Trí, Phường 25, Quận Bình Thạnh, Hồ Chí Minh, Việt Nam",
        "country_code": "VNM",
        "country_name": "Việt Nam",
        "city": "Hồ Chí Minh",
        "district": "Quận Bình Thạnh",
        "ward": "Phường 25",
        "street": "Đường Nguyễn Gia Trí",
        "postal_code": "72308",
        "categories": [
            {
                "name": "Nhà hát, Âm nhạc & Văn hóa"
            }
        ]
    },
    {
        "name": "Cong Ty Cp Dv Ki Thuat Vien Thong Ha Noi",
        "latitude": 10.81275,
        "longitude": 106.70543,
        "address": "Cong Ty Cp Dv Ki Thuat Vien Thong Ha Noi, Đường Số 10, Phường 26, Quận Bình Thạnh, Hồ Chí Minh, Việt Nam",
        "country_code": "VNM",
        "country_name": "Việt Nam",
        "city": "Hồ Chí Minh",
        "district": "Quận Bình Thạnh",
        "ward": "Phường 26",
        "street": "Đường Số 10",
        "postal_code": "72310",
        "categories": [
            {
                "name": "Nhà hát, Âm nhạc & Văn hóa"
            }
        ]
    },
    {
        "name": "Hẻm Có Tiếng Piano",
        "latitude": 10.83266,
        "longitude": 106.68456,
        "address": "Hẻm Có Tiếng Piano, Đường Số 4, Phường 7, Quận Gò Vấp, Hồ Chí Minh, Việt Nam",
        "country_code": "VNM",
        "country_name": "Việt Nam",
        "city": "Hồ Chí Minh",
        "district": "Quận Gò Vấp",
        "ward": "Phường 7",
        "street": "Đường Số 4",
        "postal_code": "71407",
        "categories": [
            {
                "name": "Nhà hát, Âm nhạc & Văn hóa"
            }
        ]
    },
    {
        "name": "Trung Tâm Văn Hóa Nghệ Thuật Cơ Sở 1",
        "latitude": 10.97995,
        "longitude": 106.67244,
        "address": "Trung Tâm Văn Hóa Nghệ Thuật Cơ Sở 1, Đường 30 Tháng 4, Phường Phú Hòa, Thủ Dầu Một, Bình Dương, Việt Nam",
        "country_code": "VNM",
        "country_name": "Việt Nam",
        "city": "Bình Dương",
        "district": "Thủ Dầu Một",
        "ward": "Phường Phú Hòa",
        "street": "Đường 30 Tháng 4",
        "postal_code": "75109",
        "categories": [
            {
                "name": "Nhà hát, Âm nhạc & Văn hóa"
            }
        ]
    },
    {
        "name": "Piano Class",
        "latitude": 10.8106,
        "longitude": 106.70155,
        "address": "Piano Class, Đường Chu Văn An, Phường 12, Quận Bình Thạnh, Hồ Chí Minh, Việt Nam",
        "country_code": "VNM",
        "country_name": "Việt Nam",
        "city": "Hồ Chí Minh",
        "district": "Quận Bình Thạnh",
        "ward": "Phường 12",
        "street": "Đường Chu Văn An",
        "postal_code": "72312",
        "categories": [
            {
                "name": "Nhà hát, Âm nhạc & Văn hóa"
            }
        ]
    },
    {
        "name": "Karaoke Sing",
        "latitude": 10.82914,
        "longitude": 106.68251,
        "address": "Karaoke Sing, 817 Đường Phan Văn Trị, Phường 7, Quận Gò Vấp, Hồ Chí Minh, Việt Nam",
        "country_code": "VNM",
        "country_name": "Việt Nam",
        "city": "Hồ Chí Minh",
        "district": "Quận Gò Vấp",
        "ward": "Phường 7",
        "street": "Đường Phan Văn Trị",
        "postal_code": "71407",
        "categories": [
            {
                "name": "Nhà hát, Âm nhạc & Văn hóa"
            },
            {
                "name": "Giải trí về đêm"
            }
        ]
    },
    {
        "name": "Nhà Văn Hóa Khu Phố Long Khánh 2",
        "latitude": 10.84082,
        "longitude": 106.91058,
        "address": "Nhà Văn Hóa Khu Phố Long Khánh 2, Đường Dương Diên Nghệ, Phường Tam Phước, Biên Hòa, Đồng Nai, Việt Nam",
        "country_code": "VNM",
        "country_name": "Việt Nam",
        "city": "Đồng Nai",
        "district": "Biên Hòa",
        "ward": "Phường Tam Phước",
        "street": "Đường Dương Diên Nghệ",
        "postal_code": "76133",
        "categories": [
            {
                "name": "Nhà hát, Âm nhạc & Văn hóa"
            }
        ]
    },
    {
        "name": "Karaoke Om Phan Van Tri",
        "latitude": 10.83126,
        "longitude": 106.67946,
        "address": "Karaoke Om Phan Van Tri, Hẻm 590 Phan Văn Trị, Phường 7, Quận Gò Vấp, Hồ Chí Minh, Việt Nam",
        "country_code": "VNM",
        "country_name": "Việt Nam",
        "city": "Hồ Chí Minh",
        "district": "Quận Gò Vấp",
        "ward": "Phường 7",
        "street": "Hẻm 590 Phan Văn Trị",
        "postal_code": "71407",
        "categories": [
            {
                "name": "Nhà hát, Âm nhạc & Văn hóa"
            }
        ]
    },
    {
        "name": "Gv Studio",
        "latitude": 10.82046,
        "longitude": 106.68722,
        "address": "Gv Studio, Hẻm 41 Đường Lê Lợi, Phường 4, Quận Gò Vấp, Hồ Chí Minh, Việt Nam",
        "country_code": "VNM",
        "country_name": "Việt Nam",
        "city": "Hồ Chí Minh",
        "district": "Quận Gò Vấp",
        "ward": "Phường 4",
        "street": "Hẻm 41 Đường Lê Lợi",
        "postal_code": "71408",
        "categories": [
            {
                "name": "Nhà hát, Âm nhạc & Văn hóa"
            }
        ]
    },
    {
        "name": "Karaoke Cát Tiên",
        "latitude": 10.82074,
        "longitude": 106.68404,
        "address": "Karaoke Cát Tiên, Đường Nguyễn Thái Sơn, Phường 4, Quận Gò Vấp, Hồ Chí Minh, Việt Nam",
        "country_code": "VNM",
        "country_name": "Việt Nam",
        "city": "Hồ Chí Minh",
        "district": "Quận Gò Vấp",
        "ward": "Phường 4",
        "street": "Đường Nguyễn Thái Sơn",
        "postal_code": "71408",
        "categories": [
            {
                "name": "Nhà hát, Âm nhạc & Văn hóa"
            }
        ]
    },
    {
        "name": "Minh Phương Music",
        "latitude": 10.84824,
        "longitude": 106.66453,
        "address": "Minh Phương Music, Đường Thống Nhất, Phường 16, Quận Gò Vấp, Hồ Chí Minh, Việt Nam",
        "country_code": "VNM",
        "country_name": "Việt Nam",
        "city": "Hồ Chí Minh",
        "district": "Quận Gò Vấp",
        "ward": "Phường 16",
        "street": "Đường Thống Nhất",
        "postal_code": "71416",
        "categories": [
            {
                "name": "Nhà hát, Âm nhạc & Văn hóa"
            },
            {
                "name": "Giải trí hoặc âm nhạc sống"
            }
        ]
    },
    {
        "name": "227 Nguyen Van Cu",
        "latitude": 10.8174,
        "longitude": 106.68601,
        "address": "227 Nguyen Van Cu, Đường Nguyễn Bỉnh Khiêm, Phường 1, Quận Gò Vấp, Hồ Chí Minh, Việt Nam",
        "country_code": "VNM",
        "country_name": "Việt Nam",
        "city": "Hồ Chí Minh",
        "district": "Quận Gò Vấp",
        "ward": "Phường 1",
        "street": "Đường Nguyễn Bỉnh Khiêm",
        "postal_code": "71410",
        "categories": [
            {
                "name": "Nhà hát, Âm nhạc & Văn hóa"
            }
        ]
    },
    {
        "name": "Karaoke Quê Tôi",
        "latitude": 10.80906,
        "longitude": 106.69346,
        "address": "Karaoke Quê Tôi, Đường Lê Quang Định, Phường 11, Quận Bình Thạnh, Hồ Chí Minh, Việt Nam",
        "country_code": "VNM",
        "country_name": "Việt Nam",
        "city": "Hồ Chí Minh",
        "district": "Quận Bình Thạnh",
        "ward": "Phường 11",
        "street": "Đường Lê Quang Định",
        "postal_code": "72313",
        "categories": [
            {
                "name": "Nhà hát, Âm nhạc & Văn hóa"
            }
        ]
    },
    {
        "name": "Nhat Hat Quan Doi",
        "latitude": 10.79715,
        "longitude": 106.70801,
        "address": "Nhat Hat Quan Doi, Hẻm 236/43 Điện Biên Phủ, Phường 17, Quận Bình Thạnh, Hồ Chí Minh, Việt Nam",
        "country_code": "VNM",
        "country_name": "Việt Nam",
        "city": "Hồ Chí Minh",
        "district": "Quận Bình Thạnh",
        "ward": "Phường 17",
        "street": "Hẻm 236/43 Điện Biên Phủ",
        "postal_code": "72321",
        "categories": [
            {
                "name": "Nhà hát, Âm nhạc & Văn hóa"
            }
        ]
    },
    {
        "name": "Ban Điều Hành Khu Phố 10",
        "latitude": 10.9763,
        "longitude": 106.66053,
        "address": "Ban Điều Hành Khu Phố 10, Hẻm 101 Phan Đình Giót, Phường Chánh Nghĩa, Thủ Dầu Một, Bình Dương, Việt Nam",
        "country_code": "VNM",
        "country_name": "Việt Nam",
        "city": "Bình Dương",
        "district": "Thủ Dầu Một",
        "ward": "Phường Chánh Nghĩa",
        "street": "Hẻm 101 Phan Đình Giót",
        "postal_code": "75107",
        "categories": [
            {
                "name": "Nhà hát, Âm nhạc & Văn hóa"
            }
        ]
    },
    {
        "name": "Beautiful Studio",
        "latitude": 10.82448,
        "longitude": 106.67755,
        "address": "Beautiful Studio, Đường Nguyễn Văn Công, Phường 3, Quận Gò Vấp, Hồ Chí Minh, Việt Nam",
        "country_code": "VNM",
        "country_name": "Việt Nam",
        "city": "Hồ Chí Minh",
        "district": "Quận Gò Vấp",
        "ward": "Phường 3",
        "street": "Đường Nguyễn Văn Công",
        "postal_code": "71409",
        "categories": [
            {
                "name": "Nhà hát, Âm nhạc & Văn hóa"
            }
        ]
    },
    {
        "name": "Nhà Tôi",
        "latitude": 10.80865,
        "longitude": 106.69183,
        "address": "Nhà Tôi, Hẻm 5/101 Lê Quang Định, Phường 7, Quận Bình Thạnh, Hồ Chí Minh, Việt Nam",
        "country_code": "VNM",
        "country_name": "Việt Nam",
        "city": "Hồ Chí Minh",
        "district": "Quận Bình Thạnh",
        "ward": "Phường 7",
        "street": "Hẻm 5/101 Lê Quang Định",
        "postal_code": "72316",
        "categories": [
            {
                "name": "Nhà hát, Âm nhạc & Văn hóa"
            }
        ]
    },
    {
        "name": "Nhà Văn Hóa Ấp Đông Hải",
        "latitude": 10.98181,
        "longitude": 106.92129,
        "address": "Nhà Văn Hóa Ấp Đông Hải, Đường Đông Hải, Xã Hố Nai 3, Huyện Trảng Bom, Đồng Nai, Việt Nam",
        "country_code": "VNM",
        "country_name": "Việt Nam",
        "city": "Đồng Nai",
        "district": "Huyện Trảng Bom",
        "ward": "Xã Hố Nai 3",
        "street": "Đường Đông Hải",
        "postal_code": "76314",
        "categories": [
            {
                "name": "Nhà hát, Âm nhạc & Văn hóa"
            }
        ]
    },
    {
        "name": "Rainbow Boys",
        "latitude": 10.79578,
        "longitude": 106.70768,
        "address": "Rainbow Boys, 18 Đường Nguyễn Cửu Vân, Phường 17, Quận Bình Thạnh, Hồ Chí Minh, Việt Nam",
        "country_code": "VNM",
        "country_name": "Việt Nam",
        "city": "Hồ Chí Minh",
        "district": "Quận Bình Thạnh",
        "ward": "Phường 17",
        "street": "Đường Nguyễn Cửu Vân",
        "postal_code": "72321",
        "categories": [
            {
                "name": "Nhà hát, Âm nhạc & Văn hóa"
            }
        ]
    },
    {
        "name": "The Culturist Hub",
        "latitude": 10.79084,
        "longitude": 106.71494,
        "address": "The Culturist Hub, Đường Ngô Tất Tố, Phường 22, Quận Bình Thạnh, Hồ Chí Minh, Việt Nam",
        "country_code": "VNM",
        "country_name": "Việt Nam",
        "city": "Hồ Chí Minh",
        "district": "Quận Bình Thạnh",
        "ward": "Phường 22",
        "street": "Đường Ngô Tất Tố",
        "postal_code": "72324",
        "categories": [
            {
                "name": "Nhà hát, Âm nhạc & Văn hóa"
            }
        ]
    },
    {
        "name": "Hát Với Nhau Số 4",
        "latitude": 10.80171,
        "longitude": 106.69903,
        "address": "Hát Với Nhau Số 4, Đường Bùi Hữu Nghĩa, Phường 1, Quận Bình Thạnh, Hồ Chí Minh, Việt Nam",
        "country_code": "VNM",
        "country_name": "Việt Nam",
        "city": "Hồ Chí Minh",
        "district": "Quận Bình Thạnh",
        "ward": "Phường 1",
        "street": "Đường Bùi Hữu Nghĩa",
        "postal_code": "72318",
        "categories": [
            {
                "name": "Nhà hát, Âm nhạc & Văn hóa"
            }
        ]
    },
    {
        "name": "Nhà Văn Hóa Khu 7-Trưng Vương",
        "latitude": 10.84971,
        "longitude": 106.65983,
        "address": "Nhà Văn Hóa Khu 7-Trưng Vương, Hẻm 564 Phạm Văn Chiêu, Phường 16, Quận Gò Vấp, Hồ Chí Minh, Việt Nam",
        "country_code": "VNM",
        "country_name": "Việt Nam",
        "city": "Hồ Chí Minh",
        "district": "Quận Gò Vấp",
        "ward": "Phường 16",
        "street": "Hẻm 564 Phạm Văn Chiêu",
        "postal_code": "71416",
        "categories": [
            {
                "name": "Nhà hát, Âm nhạc & Văn hóa"
            }
        ]
    },
    {
        "name": "Ban Công Nhà Cún",
        "latitude": 10.83407,
        "longitude": 106.6684,
        "address": "Ban Công Nhà Cún, Đường Phan Văn Trị, Phường 10, Quận Gò Vấp, Hồ Chí Minh, Việt Nam",
        "country_code": "VNM",
        "country_name": "Việt Nam",
        "city": "Hồ Chí Minh",
        "district": "Quận Gò Vấp",
        "ward": "Phường 10",
        "street": "Đường Phan Văn Trị",
        "postal_code": "71406",
        "categories": [
            {
                "name": "Nhà hát, Âm nhạc & Văn hóa"
            }
        ]
    },
    {
        "name": "Trucmai Music House",
        "latitude": 10.79004,
        "longitude": 106.71217,
        "address": "Trucmai Music House, 104 Hẻm 2/18 Đường Phạm Viết Chánh, Phường 19, Quận Bình Thạnh, Hồ Chí Minh, Việt Nam",
        "country_code": "VNM",
        "country_name": "Việt Nam",
        "city": "Hồ Chí Minh",
        "district": "Quận Bình Thạnh",
        "ward": "Phường 19",
        "street": "Hẻm 2/18 Đường Phạm Viết Chánh",
        "postal_code": "72323",
        "categories": [
            {
                "name": "Nhà hát, Âm nhạc & Văn hóa"
            },
            {
                "name": "Vui chơi & Giải trí"
            }
        ]
    },
    {
        "name": "Fb Studio",
        "latitude": 10.79135,
        "longitude": 106.70459,
        "address": "Fb Studio, Đường Nguyễn Đình Chiểu, Phường Đa Kao, Quận 1, Hồ Chí Minh, Việt Nam",
        "country_code": "VNM",
        "country_name": "Việt Nam",
        "city": "Hồ Chí Minh",
        "district": "Quận 1",
        "ward": "Phường Đa Kao",
        "street": "Đường Nguyễn Đình Chiểu",
        "postal_code": "71007",
        "categories": [
            {
                "name": "Nhà hát, Âm nhạc & Văn hóa"
            }
        ]
    },
    {
        "name": "PHIMTRUONG91A.Com",
        "latitude": 10.79726,
        "longitude": 106.69571,
        "address": "PHIMTRUONG91A.Com, Hẻm 91 Đinh Tiên Hoàng, Phường 3, Quận Bình Thạnh, Hồ Chí Minh, Việt Nam",
        "country_code": "VNM",
        "country_name": "Việt Nam",
        "city": "Hồ Chí Minh",
        "district": "Quận Bình Thạnh",
        "ward": "Phường 3",
        "street": "Hẻm 91 Đinh Tiên Hoàng",
        "postal_code": "72317",
        "categories": [
            {
                "name": "Nhà hát, Âm nhạc & Văn hóa"
            }
        ]
    },
    {
        "name": "Rạp Xiếc",
        "latitude": 10.81348,
        "longitude": 106.67777,
        "address": "Rạp Xiếc, Đường Hoàng Minh Giám, Phường 3, Quận Gò Vấp, Hồ Chí Minh, Việt Nam",
        "country_code": "VNM",
        "country_name": "Việt Nam",
        "city": "Hồ Chí Minh",
        "district": "Quận Gò Vấp",
        "ward": "Phường 3",
        "street": "Đường Hoàng Minh Giám",
        "postal_code": "71409",
        "categories": [
            {
                "name": "Nhà hát, Âm nhạc & Văn hóa"
            },
            {
                "name": "Giải trí về đêm"
            },
            {
                "name": "Trung tâm biểu diễn nghệ thuật"
            },
            {
                "name": "Giải trí"
            },
            {
                "name": "Cơ sở hoặc địa điểm thể thao"
            }
        ]
    },
    {
        "name": "Sân Khấu Kịch Minh Nhí",
        "latitude": 10.79145,
        "longitude": 106.70158,
        "address": "Sân Khấu Kịch Minh Nhí, Hẻm 26 Nguyễn Bỉnh Khiêm, Phường Đa Kao, Quận 1, Hồ Chí Minh, Việt Nam",
        "country_code": "VNM",
        "country_name": "Việt Nam",
        "city": "Hồ Chí Minh",
        "district": "Quận 1",
        "ward": "Phường Đa Kao",
        "street": "Hẻm 26 Nguyễn Bỉnh Khiêm",
        "postal_code": "71007",
        "categories": [
            {
                "name": "Nhà hát, Âm nhạc & Văn hóa"
            },
            {
                "name": "Giải trí hoặc âm nhạc sống"
            }
        ]
    },
    {
        "name": "Trụ Sở Chính KFC Tại TPHCM",
        "latitude": 10.81586,
        "longitude": 106.67425,
        "address": "Trụ Sở Chính KFC Tại TPHCM, Hẻm 159/1 Bạch Đằng, Phường 2, Quận Tân Bình, Hồ Chí Minh, Việt Nam",
        "country_code": "VNM",
        "country_name": "Việt Nam",
        "city": "Hồ Chí Minh",
        "district": "Quận Tân Bình",
        "ward": "Phường 2",
        "street": "Hẻm 159/1 Bạch Đằng",
        "postal_code": "72108",
        "categories": [
            {
                "name": "Nhà hát, Âm nhạc & Văn hóa"
            }
        ]
    },
    {
        "name": "Gem Center",
        "latitude": 10.79162,
        "longitude": 106.70042,
        "address": "Gem Center, Đường Nguyễn Bỉnh Khiêm, Phường Đa Kao, Quận 1, Hồ Chí Minh, Việt Nam",
        "country_code": "VNM",
        "country_name": "Việt Nam",
        "city": "Hồ Chí Minh",
        "district": "Quận 1",
        "ward": "Phường Đa Kao",
        "street": "Đường Nguyễn Bỉnh Khiêm",
        "postal_code": "71007",
        "categories": [
            {
                "name": "Nhà hát, Âm nhạc & Văn hóa"
            },
            {
                "name": "Nhà hàng"
            }
        ]
    },
    {
        "name": "Nhất Nghệ 105 Bà Huyện Thanh Quan - Q3",
        "latitude": 10.80698,
        "longitude": 106.68162,
        "address": "Nhất Nghệ 105 Bà Huyện Thanh Quan - Q3, Hẻm 100 Thích Quảng Đức, Phường 5, Quận Phú Nhuận, Hồ Chí Minh, Việt Nam",
        "country_code": "VNM",
        "country_name": "Việt Nam",
        "city": "Hồ Chí Minh",
        "district": "Quận Phú Nhuận",
        "ward": "Phường 5",
        "street": "Hẻm 100 Thích Quảng Đức",
        "postal_code": "72215",
        "categories": [
            {
                "name": "Nhà hát, Âm nhạc & Văn hóa"
            }
        ]
    },
    {
        "name": "Mua Roi Nuoc",
        "latitude": 10.78855,
        "longitude": 106.70337,
        "address": "Mua Roi Nuoc, Đường Nguyễn Bỉnh Khiêm, Phường Đa Kao, Quận 1, Hồ Chí Minh, Việt Nam",
        "country_code": "VNM",
        "country_name": "Việt Nam",
        "city": "Hồ Chí Minh",
        "district": "Quận 1",
        "ward": "Phường Đa Kao",
        "street": "Đường Nguyễn Bỉnh Khiêm",
        "postal_code": "71007",
        "categories": [
            {
                "name": "Nhà hát, Âm nhạc & Văn hóa"
            }
        ]
    },
    {
        "name": "Saigon Water Puppet Theatre",
        "latitude": 10.78765,
        "longitude": 106.70454,
        "address": "Saigon Water Puppet Theatre, Đường Nguyễn Bỉnh Khiêm, Phường Bến Nghé, Quận 1, Hồ Chí Minh, Việt Nam",
        "country_code": "VNM",
        "country_name": "Việt Nam",
        "city": "Hồ Chí Minh",
        "district": "Quận 1",
        "ward": "Phường Bến Nghé",
        "street": "Đường Nguyễn Bỉnh Khiêm",
        "postal_code": "71006",
        "categories": [
            {
                "name": "Nhà hát, Âm nhạc & Văn hóa"
            }
        ]
    },
    {
        "name": "Vietnamese Water Puppet Show",
        "latitude": 10.78775,
        "longitude": 106.70433,
        "address": "Vietnamese Water Puppet Show, Đường Nguyễn Bỉnh Khiêm, Phường Bến Nghé, Quận 1, Hồ Chí Minh, Việt Nam",
        "country_code": "VNM",
        "country_name": "Việt Nam",
        "city": "Hồ Chí Minh",
        "district": "Quận 1",
        "ward": "Phường Bến Nghé",
        "street": "Đường Nguyễn Bỉnh Khiêm",
        "postal_code": "71006",
        "categories": [
            {
                "name": "Nhà hát, Âm nhạc & Văn hóa"
            }
        ]
    },
    {
        "name": "Music Training Studio",
        "latitude": 10.78838,
        "longitude": 106.70298,
        "address": "Music Training Studio, Hẻm 10 Nguyễn Thị Minh Khai, Phường Đa Kao, Quận 1, Hồ Chí Minh, Việt Nam",
        "country_code": "VNM",
        "country_name": "Việt Nam",
        "city": "Hồ Chí Minh",
        "district": "Quận 1",
        "ward": "Phường Đa Kao",
        "street": "Hẻm 10 Nguyễn Thị Minh Khai",
        "postal_code": "71007",
        "categories": [
            {
                "name": "Nhà hát, Âm nhạc & Văn hóa"
            }
        ]
    },
    {
        "name": "Nam Dong Media",
        "latitude": 10.79935,
        "longitude": 106.68863,
        "address": "Nam Dong Media, Đường Hoa Cau, Phường 7, Quận Phú Nhuận, Hồ Chí Minh, Việt Nam",
        "country_code": "VNM",
        "country_name": "Việt Nam",
        "city": "Hồ Chí Minh",
        "district": "Quận Phú Nhuận",
        "ward": "Phường 7",
        "street": "Đường Hoa Cau",
        "postal_code": "72212",
        "categories": [
            {
                "name": "Nhà hát, Âm nhạc & Văn hóa"
            }
        ]
    },
    {
        "name": "Nghe Nhạc",
        "latitude": 10.80589,
        "longitude": 106.68057,
        "address": "Nghe Nhạc, Đường Lê Tự Tài, Phường 4, Quận Phú Nhuận, Hồ Chí Minh, Việt Nam",
        "country_code": "VNM",
        "country_name": "Việt Nam",
        "city": "Hồ Chí Minh",
        "district": "Quận Phú Nhuận",
        "ward": "Phường 4",
        "street": "Đường Lê Tự Tài",
        "postal_code": "72214",
        "categories": [
            {
                "name": "Nhà hát, Âm nhạc & Văn hóa"
            }
        ]
    },
    {
        "name": "Dấu Chấm Than",
        "latitude": 10.80584,
        "longitude": 106.68051,
        "address": "Dấu Chấm Than, Đường Phùng Văn Cung, Phường 4, Quận Phú Nhuận, Hồ Chí Minh, Việt Nam",
        "country_code": "VNM",
        "country_name": "Việt Nam",
        "city": "Hồ Chí Minh",
        "district": "Quận Phú Nhuận",
        "ward": "Phường 4",
        "street": "Đường Phùng Văn Cung",
        "postal_code": "72214",
        "categories": [
            {
                "name": "Nhà hát, Âm nhạc & Văn hóa"
            }
        ]
    },
    {
        "name": "Thư Viện Sách Nói Dành Cho Người Mù",
        "latitude": 10.78883,
        "longitude": 106.69924,
        "address": "Thư Viện Sách Nói Dành Cho Người Mù, Hẻm 24 Đinh Tiên Hoàng, Phường Đa Kao, Quận 1, Hồ Chí Minh, Việt Nam",
        "country_code": "VNM",
        "country_name": "Việt Nam",
        "city": "Hồ Chí Minh",
        "district": "Quận 1",
        "ward": "Phường Đa Kao",
        "street": "Hẻm 24 Đinh Tiên Hoàng",
        "postal_code": "71007",
        "categories": [
            {
                "name": "Nhà hát, Âm nhạc & Văn hóa"
            }
        ]
    },
    {
        "name": "Studio Quang Đạt",
        "latitude": 10.79741,
        "longitude": 106.68823,
        "address": "Studio Quang Đạt, Đường Hoa Đào, Phường 2, Quận Phú Nhuận, Hồ Chí Minh, Việt Nam",
        "country_code": "VNM",
        "country_name": "Việt Nam",
        "city": "Hồ Chí Minh",
        "district": "Quận Phú Nhuận",
        "ward": "Phường 2",
        "street": "Đường Hoa Đào",
        "postal_code": "72210",
        "categories": [
            {
                "name": "Nhà hát, Âm nhạc & Văn hóa"
            }
        ]
    },
    {
        "name": "Thiên Lộc Studio",
        "latitude": 10.79657,
        "longitude": 106.68885,
        "address": "Thiên Lộc Studio, Đường Cù Lao, Phường 2, Quận Phú Nhuận, Hồ Chí Minh, Việt Nam",
        "country_code": "VNM",
        "country_name": "Việt Nam",
        "city": "Hồ Chí Minh",
        "district": "Quận Phú Nhuận",
        "ward": "Phường 2",
        "street": "Đường Cù Lao",
        "postal_code": "72210",
        "categories": [
            {
                "name": "Nhà hát, Âm nhạc & Văn hóa"
            }
        ]
    },
    {
        "name": "Thay Lời Muốn Nói @Đài Truyền Hình HTV",
        "latitude": 10.7863,
        "longitude": 106.70201,
        "address": "Thay Lời Muốn Nói @Đài Truyền Hình HTV, 14 Đường Đinh Tiên Hoàng, Phường Bến Nghé, Quận 1, Hồ Chí Minh, Việt Nam",
        "country_code": "VNM",
        "country_name": "Việt Nam",
        "city": "Hồ Chí Minh",
        "district": "Quận 1",
        "ward": "Phường Bến Nghé",
        "street": "Đường Đinh Tiên Hoàng",
        "postal_code": "71006",
        "categories": [
            {
                "name": "Nhà hát, Âm nhạc & Văn hóa"
            }
        ]
    },
    {
        "name": "Mộc Show Saigon",
        "latitude": 10.78631,
        "longitude": 106.70156,
        "address": "Mộc Show Saigon, Đường Nguyễn Thị Minh Khai, Phường Đa Kao, Quận 1, Hồ Chí Minh, Việt Nam",
        "country_code": "VNM",
        "country_name": "Việt Nam",
        "city": "Hồ Chí Minh",
        "district": "Quận 1",
        "ward": "Phường Đa Kao",
        "street": "Đường Nguyễn Thị Minh Khai",
        "postal_code": "71007",
        "categories": [
            {
                "name": "Nhà hát, Âm nhạc & Văn hóa"
            }
        ]
    },
    {
        "name": "Việt Nhạc Music Center",
        "latitude": 10.7897,
        "longitude": 106.69659,
        "address": "Việt Nhạc Music Center, 112 Đường Điện Biên Phủ, Phường Đa Kao, Quận 1, Hồ Chí Minh, Việt Nam",
        "country_code": "VNM",
        "country_name": "Việt Nam",
        "city": "Hồ Chí Minh",
        "district": "Quận 1",
        "ward": "Phường Đa Kao",
        "street": "Đường Điện Biên Phủ",
        "postal_code": "71007",
        "categories": [
            {
                "name": "Nhà hát, Âm nhạc & Văn hóa"
            },
            {
                "name": "Bán Vinyl, CD và Video"
            },
            {
                "name": "Cơ sở giáo dục"
            }
        ]
    },
    {
        "name": "Anh Văn Hội Việt Mỹ",
        "latitude": 10.78925,
        "longitude": 106.69693,
        "address": "Anh Văn Hội Việt Mỹ, Đường Nguyễn Thành Ý, Phường Đa Kao, Quận 1, Hồ Chí Minh, Việt Nam",
        "country_code": "VNM",
        "country_name": "Việt Nam",
        "city": "Hồ Chí Minh",
        "district": "Quận 1",
        "ward": "Phường Đa Kao",
        "street": "Đường Nguyễn Thành Ý",
        "postal_code": "71007",
        "categories": [
            {
                "name": "Nhà hát, Âm nhạc & Văn hóa"
            }
        ]
    },
    {
        "name": "Breath Of Life",
        "latitude": 10.79675,
        "longitude": 106.68669,
        "address": "Breath Of Life, Đường Hoa Phượng, Phường 2, Quận Phú Nhuận, Hồ Chí Minh, Việt Nam",
        "country_code": "VNM",
        "country_name": "Việt Nam",
        "city": "Hồ Chí Minh",
        "district": "Quận Phú Nhuận",
        "ward": "Phường 2",
        "street": "Đường Hoa Phượng",
        "postal_code": "72210",
        "categories": [
            {
                "name": "Nhà hát, Âm nhạc & Văn hóa"
            },
            {
                "name": "Cà Phê/Trà"
            },
            {
                "name": "Giải trí về đêm"
            }
        ]
    },
    {
        "name": "CP Kho Vận Petec - VPĐD",
        "latitude": 10.80671,
        "longitude": 106.67599,
        "address": "CP Kho Vận Petec - VPĐD, 63 Hẻm 88 Đào Duy Anh, Phường 9, Quận Phú Nhuận, Hồ Chí Minh, Việt Nam",
        "country_code": "VNM",
        "country_name": "Việt Nam",
        "city": "Hồ Chí Minh",
        "district": "Quận Phú Nhuận",
        "ward": "Phường 9",
        "street": "Hẻm 88 Đào Duy Anh",
        "postal_code": "72216",
        "categories": [
            {
                "name": "Nhà hát, Âm nhạc & Văn hóa"
            }
        ]
    },
    {
        "name": "Karaoke Ngọc Phát",
        "latitude": 10.8075,
        "longitude": 106.67503,
        "address": "Karaoke Ngọc Phát, Đường Đào Duy Anh, Phường 9, Quận Phú Nhuận, Hồ Chí Minh, Việt Nam",
        "country_code": "VNM",
        "country_name": "Việt Nam",
        "city": "Hồ Chí Minh",
        "district": "Quận Phú Nhuận",
        "ward": "Phường 9",
        "street": "Đường Đào Duy Anh",
        "postal_code": "72216",
        "categories": [
            {
                "name": "Nhà hát, Âm nhạc & Văn hóa"
            },
            {
                "name": "Giải trí về đêm"
            },
            {
                "name": "Quán karaoke"
            }
        ]
    },
    {
        "name": "Sunny Days Music And Arts",
        "latitude": 10.79263,
        "longitude": 106.69074,
        "address": "Sunny Days Music And Arts, Hẻm 7 Đặng Dung, Phường Tân Định, Quận 1, Hồ Chí Minh, Việt Nam",
        "country_code": "VNM",
        "country_name": "Việt Nam",
        "city": "Hồ Chí Minh",
        "district": "Quận 1",
        "ward": "Phường Tân Định",
        "street": "Hẻm 7 Đặng Dung",
        "postal_code": "71008",
        "categories": [
            {
                "name": "Nhà hát, Âm nhạc & Văn hóa"
            },
            {
                "name": "Đào tạo & Phát triển"
            }
        ]
    },
    {
        "name": "Phong 206",
        "latitude": 10.81066,
        "longitude": 106.67152,
        "address": "Phong 206, Hẻm 54 Bạch Đằng, Phường 2, Quận Tân Bình, Hồ Chí Minh, Việt Nam",
        "country_code": "VNM",
        "country_name": "Việt Nam",
        "city": "Hồ Chí Minh",
        "district": "Quận Tân Bình",
        "ward": "Phường 2",
        "street": "Hẻm 54 Bạch Đằng",
        "postal_code": "72108",
        "categories": [
            {
                "name": "Nhà hát, Âm nhạc & Văn hóa"
            }
        ]
    },
    {
        "name": "Tkd Entertaiment",
        "latitude": 10.79254,
        "longitude": 106.69025,
        "address": "Tkd Entertaiment, Đường Đặng Dung, Phường Tân Định, Quận 1, Hồ Chí Minh, Việt Nam",
        "country_code": "VNM",
        "country_name": "Việt Nam",
        "city": "Hồ Chí Minh",
        "district": "Quận 1",
        "ward": "Phường Tân Định",
        "street": "Đường Đặng Dung",
        "postal_code": "71008",
        "categories": [
            {
                "name": "Nhà hát, Âm nhạc & Văn hóa"
            }
        ]
    },
    {
        "name": "Hội Di Sản Văn Hóa TP HCM CLB Dân Ca Quan Họ",
        "latitude": 10.85205,
        "longitude": 106.6446,
        "address": "Hội Di Sản Văn Hóa TP HCM CLB Dân Ca Quan Họ, Hẻm 14 Đường Số 53, Phường 14, Quận Gò Vấp, Hồ Chí Minh, Việt Nam",
        "country_code": "VNM",
        "country_name": "Việt Nam",
        "city": "Hồ Chí Minh",
        "district": "Quận Gò Vấp",
        "ward": "Phường 14",
        "street": "Hẻm 14 Đường Số 53",
        "postal_code": "71418",
        "categories": [
            {
                "name": "Nhà hát, Âm nhạc & Văn hóa"
            }
        ]
    },
    {
        "name": "Guitar Class: >",
        "latitude": 10.79053,
        "longitude": 106.69264,
        "address": "Guitar Class: >, Đường Thạch Thị Thanh, Phường Tân Định, Quận 1, Hồ Chí Minh, Việt Nam",
        "country_code": "VNM",
        "country_name": "Việt Nam",
        "city": "Hồ Chí Minh",
        "district": "Quận 1",
        "ward": "Phường Tân Định",
        "street": "Đường Thạch Thị Thanh",
        "postal_code": "71008",
        "categories": [
            {
                "name": "Nhà hát, Âm nhạc & Văn hóa"
            }
        ]
    },
    {
        "name": "The Touch Of Masters' Hands: The Vietnamese Authentic Cultural Show",
        "latitude": 10.78454,
        "longitude": 106.70078,
        "address": "The Touch Of Masters' Hands: The Vietnamese Authentic Cultural Show, 11 Hẻm 17 Nguyễn Thị Minh Khai, Phường Bến Nghé, Quận 1, Hồ Chí Minh, Việt Nam",
        "country_code": "VNM",
        "country_name": "Việt Nam",
        "city": "Hồ Chí Minh",
        "district": "Quận 1",
        "ward": "Phường Bến Nghé",
        "street": "Hẻm 17 Nguyễn Thị Minh Khai",
        "postal_code": "71006",
        "categories": [
            {
                "name": "Nhà hát, Âm nhạc & Văn hóa"
            }
        ]
    }
]
