[
    {
        "name": "Cơm Gà 68",
        "latitude": 10.90774,
        "longitude": 106.79059,
        "address": "Cơm Gà 68, TL.743, Phường Tân Đông Hiệp, Dĩ An, Bình Dương, Việt Nam",
        "country_code": "VNM",
        "country_name": "Việt Nam",
        "city": "Bình Dương",
        "district": "Dĩ An",
        "ward": "Phường Tân Đông Hiệp",
        "street": "TL.743",
        "postal_code": "75311",
        "categories": [
            {
                "name": "Đặc sản & Đồ uống"
            }
        ]
    },
    {
        "name": "Jin Jin Trà Sữa-Cafe",
        "latitude": 10.90722,
        "longitude": 106.79232,
        "address": "Jin Jin Trà Sữa-Cafe, TL.743, Phường Tân Đông Hiệp, Dĩ An, Bình Dương, Việt Nam",
        "country_code": "VNM",
        "country_name": "Việt Nam",
        "city": "Bình Dương",
        "district": "Dĩ An",
        "ward": "Phường Tân Đông Hiệp",
        "street": "TL.743",
        "postal_code": "75311",
        "categories": [
            {
                "name": "Quán cà phê"
            },
            {
                "name": "Đặc sản & Đồ uống"
            }
        ]
    },
    {
        "name": "Thế Giới Sữa Gia Minh",
        "latitude": 10.90669,
        "longitude": 106.79373,
        "address": "Thế Giới Sữa Gia Minh, ĐT.743B, Phường Bình Thắng, Dĩ An, Bình Dương, Việt Nam",
        "country_code": "VNM",
        "country_name": "Việt Nam",
        "city": "Bình Dương",
        "district": "Dĩ An",
        "ward": "Phường Bình Thắng",
        "street": "ĐT.743B",
        "postal_code": "75309",
        "categories": [
            {
                "name": "Đặc sản & Đồ uống"
            }
        ]
    },
    {
        "name": "Trà Sữa Kun 1996",
        "latitude": 10.90907,
        "longitude": 106.78574,
        "address": "Trà Sữa Kun 1996, TL.743, Phường Tân Đông Hiệp, Dĩ An, Bình Dương, Việt Nam",
        "country_code": "VNM",
        "country_name": "Việt Nam",
        "city": "Bình Dương",
        "district": "Dĩ An",
        "ward": "Phường Tân Đông Hiệp",
        "street": "TL.743",
        "postal_code": "75311",
        "categories": [
            {
                "name": "Đặc sản & Đồ uống"
            }
        ]
    },
    {
        "name": "Hủ Tiếu Cô Bảy",
        "latitude": 10.90681,
        "longitude": 106.79486,
        "address": "Hủ Tiếu Cô Bảy, Xa Lộ Hà Nội, Phường Bình Thắng, Dĩ An, Bình Dương, Việt Nam",
        "country_code": "VNM",
        "country_name": "Việt Nam",
        "city": "Bình Dương",
        "district": "Dĩ An",
        "ward": "Phường Bình Thắng",
        "street": "Xa Lộ Hà Nội",
        "postal_code": "75309",
        "categories": [
            {
                "name": "Đặc sản & Đồ uống"
            },
            {
                "name": "Nhà hàng"
            }
        ]
    },
    {
        "name": "Dê Đại Phú",
        "latitude": 10.91679,
        "longitude": 106.78211,
        "address": "Dê Đại Phú, Đường D1, Phường Tân Đông Hiệp, Dĩ An, Bình Dương, Việt Nam",
        "country_code": "VNM",
        "country_name": "Việt Nam",
        "city": "Bình Dương",
        "district": "Dĩ An",
        "ward": "Phường Tân Đông Hiệp",
        "street": "Đường D1",
        "postal_code": "75311",
        "categories": [
            {
                "name": "Đặc sản & Đồ uống"
            }
        ]
    },
    {
        "name": "Đại Lý Trái Cây-Rau-Củ-Quả",
        "latitude": 10.91866,
        "longitude": 106.78236,
        "address": "Đại Lý Trái Cây-Rau-Củ-Quả, Đường D1, Phường Tân Đông Hiệp, Dĩ An, Bình Dương, Việt Nam",
        "country_code": "VNM",
        "country_name": "Việt Nam",
        "city": "Bình Dương",
        "district": "Dĩ An",
        "ward": "Phường Tân Đông Hiệp",
        "street": "Đường D1",
        "postal_code": "75311",
        "categories": [
            {
                "name": "Đặc sản & Đồ uống"
            }
        ]
    },
    {
        "name": "Vựa Trái Cây Kim Yến",
        "latitude": 10.90776,
        "longitude": 106.80139,
        "address": "Vựa Trái Cây Kim Yến, Đường Bình Thung, Phường Bình Thắng, Dĩ An, Bình Dương, Việt Nam",
        "country_code": "VNM",
        "country_name": "Việt Nam",
        "city": "Bình Dương",
        "district": "Dĩ An",
        "ward": "Phường Bình Thắng",
        "street": "Đường Bình Thung",
        "postal_code": "75309",
        "categories": [
            {
                "name": "Cửa hàng chuyên dụng"
            },
            {
                "name": "Đặc sản & Đồ uống"
            }
        ]
    },
    {
        "name": "Trà Sữa & Ăn Vặt",
        "latitude": 10.90844,
        "longitude": 106.78137,
        "address": "Trà Sữa & Ăn Vặt, Đường Hai Bà Trưng, Phường Tân Đông Hiệp, Dĩ An, Bình Dương, Việt Nam",
        "country_code": "VNM",
        "country_name": "Việt Nam",
        "city": "Bình Dương",
        "district": "Dĩ An",
        "ward": "Phường Tân Đông Hiệp",
        "street": "Đường Hai Bà Trưng",
        "postal_code": "75311",
        "categories": [
            {
                "name": "Đặc sản & Đồ uống"
            }
        ]
    },
    {
        "name": "Ritea",
        "latitude": 10.9087,
        "longitude": 106.78106,
        "address": "Ritea, 195 Đường Nguyễn Thái Học, Phường Tân Đông Hiệp, Dĩ An, Bình Dương, Việt Nam",
        "country_code": "VNM",
        "country_name": "Việt Nam",
        "city": "Bình Dương",
        "district": "Dĩ An",
        "ward": "Phường Tân Đông Hiệp",
        "street": "Đường Nguyễn Thái Học",
        "postal_code": "75311",
        "categories": [
            {
                "name": "Đặc sản & Đồ uống"
            }
        ]
    },
    {
        "name": "Sữa Tươi Trân Châu Đường Đen",
        "latitude": 10.91247,
        "longitude": 106.77955,
        "address": "Sữa Tươi Trân Châu Đường Đen, TL.743, Phường Tân Đông Hiệp, Dĩ An, Bình Dương, Việt Nam",
        "country_code": "VNM",
        "country_name": "Việt Nam",
        "city": "Bình Dương",
        "district": "Dĩ An",
        "ward": "Phường Tân Đông Hiệp",
        "street": "TL.743",
        "postal_code": "75311",
        "categories": [
            {
                "name": "Đặc sản & Đồ uống"
            }
        ]
    },
    {
        "name": "Nước Mía Giải Khát Thành Ân",
        "latitude": 10.9074,
        "longitude": 106.8022,
        "address": "Nước Mía Giải Khát Thành Ân, Đường Mỹ Phước-Tân Vạn, Phường Bình Thắng, Dĩ An, Bình Dương, Việt Nam",
        "country_code": "VNM",
        "country_name": "Việt Nam",
        "city": "Bình Dương",
        "district": "Dĩ An",
        "ward": "Phường Bình Thắng",
        "street": "Đường Mỹ Phước-Tân Vạn",
        "postal_code": "75309",
        "categories": [
            {
                "name": "Đặc sản & Đồ uống"
            }
        ]
    },
    {
        "name": "Kt Mart",
        "latitude": 10.90699,
        "longitude": 106.78107,
        "address": "Kt Mart, Đường Hai Bà Trưng, Phường Tân Đông Hiệp, Dĩ An, Bình Dương, Việt Nam",
        "country_code": "VNM",
        "country_name": "Việt Nam",
        "city": "Bình Dương",
        "district": "Dĩ An",
        "ward": "Phường Tân Đông Hiệp",
        "street": "Đường Hai Bà Trưng",
        "postal_code": "75311",
        "categories": [
            {
                "name": "Đặc sản & Đồ uống"
            }
        ]
    },
    {
        "name": "Cô Năm",
        "latitude": 10.91319,
        "longitude": 106.77781,
        "address": "Cô Năm, TL.743, Phường Tân Đông Hiệp, Dĩ An, Bình Dương, Việt Nam",
        "country_code": "VNM",
        "country_name": "Việt Nam",
        "city": "Bình Dương",
        "district": "Dĩ An",
        "ward": "Phường Tân Đông Hiệp",
        "street": "TL.743",
        "postal_code": "75311",
        "categories": [
            {
                "name": "Đặc sản & Đồ uống"
            }
        ]
    },
    {
        "name": "Tạp Hóa Mắt Kiếng",
        "latitude": 10.89969,
        "longitude": 106.79277,
        "address": "Tạp Hóa Mắt Kiếng, Xa Lộ Hà Nội, Phường Bình Thắng, Dĩ An, Bình Dương, Việt Nam",
        "country_code": "VNM",
        "country_name": "Việt Nam",
        "city": "Bình Dương",
        "district": "Dĩ An",
        "ward": "Phường Bình Thắng",
        "street": "Xa Lộ Hà Nội",
        "postal_code": "75309",
        "categories": [
            {
                "name": "Đặc sản & Đồ uống"
            }
        ]
    },
    {
        "name": "Bò Tây Ninh",
        "latitude": 10.8994,
        "longitude": 106.79236,
        "address": "Bò Tây Ninh, Xa Lộ Hà Nội, Phường Bình Thắng, Dĩ An, Bình Dương, Việt Nam",
        "country_code": "VNM",
        "country_name": "Việt Nam",
        "city": "Bình Dương",
        "district": "Dĩ An",
        "ward": "Phường Bình Thắng",
        "street": "Xa Lộ Hà Nội",
        "postal_code": "75309",
        "categories": [
            {
                "name": "Đặc sản & Đồ uống"
            }
        ]
    },
    {
        "name": "Hải Sản Đông Tác",
        "latitude": 10.90845,
        "longitude": 106.77761,
        "address": "Hải Sản Đông Tác, Đường Nguyễn Thái Học, Phường Tân Đông Hiệp, Dĩ An, Bình Dương, Việt Nam",
        "country_code": "VNM",
        "country_name": "Việt Nam",
        "city": "Bình Dương",
        "district": "Dĩ An",
        "ward": "Phường Tân Đông Hiệp",
        "street": "Đường Nguyễn Thái Học",
        "postal_code": "75311",
        "categories": [
            {
                "name": "Đặc sản & Đồ uống"
            }
        ]
    },
    {
        "name": "Bò Tơ Củ Chi",
        "latitude": 10.90441,
        "longitude": 106.80378,
        "address": "Bò Tơ Củ Chi, Đường Bình Thung, Phường Bình Thắng, Dĩ An, Bình Dương, Việt Nam",
        "country_code": "VNM",
        "country_name": "Việt Nam",
        "city": "Bình Dương",
        "district": "Dĩ An",
        "ward": "Phường Bình Thắng",
        "street": "Đường Bình Thung",
        "postal_code": "75309",
        "categories": [
            {
                "name": "Đặc sản & Đồ uống"
            }
        ]
    },
    {
        "name": "Gia Bảo",
        "latitude": 10.9042,
        "longitude": 106.80362,
        "address": "Gia Bảo, Đường Bình Thung, Phường Bình Thắng, Dĩ An, Bình Dương, Việt Nam",
        "country_code": "VNM",
        "country_name": "Việt Nam",
        "city": "Bình Dương",
        "district": "Dĩ An",
        "ward": "Phường Bình Thắng",
        "street": "Đường Bình Thung",
        "postal_code": "75309",
        "categories": [
            {
                "name": "Đặc sản & Đồ uống"
            }
        ]
    },
    {
        "name": "Kem Xôi Hoàng Gia",
        "latitude": 10.90024,
        "longitude": 106.78504,
        "address": "Kem Xôi Hoàng Gia, Đường Nguyễn Văn Cừ, Phường Đông Hòa, Dĩ An, Bình Dương, Việt Nam",
        "country_code": "VNM",
        "country_name": "Việt Nam",
        "city": "Bình Dương",
        "district": "Dĩ An",
        "ward": "Phường Đông Hòa",
        "street": "Đường Nguyễn Văn Cừ",
        "postal_code": "75308",
        "categories": [
            {
                "name": "Đặc sản & Đồ uống"
            }
        ]
    },
    {
        "name": "Gà Rán-Khoai Lang Lác-Pizza",
        "latitude": 10.90388,
        "longitude": 106.80409,
        "address": "Gà Rán-Khoai Lang Lác-Pizza, Đường Bình Thung, Phường Bình Thắng, Dĩ An, Bình Dương, Việt Nam",
        "country_code": "VNM",
        "country_name": "Việt Nam",
        "city": "Bình Dương",
        "district": "Dĩ An",
        "ward": "Phường Bình Thắng",
        "street": "Đường Bình Thung",
        "postal_code": "75309",
        "categories": [
            {
                "name": "Đặc sản & Đồ uống"
            }
        ]
    },
    {
        "name": "Trà Sữa Đài Loan",
        "latitude": 10.9255,
        "longitude": 106.80367,
        "address": "Trà Sữa Đài Loan, Hẻm 6 Đường Nguyễn Văn Lung, Phường Hóa An, Biên Hòa, Đồng Nai, Việt Nam",
        "country_code": "VNM",
        "country_name": "Việt Nam",
        "city": "Đồng Nai",
        "district": "Biên Hòa",
        "ward": "Phường Hóa An",
        "street": "Hẻm 6 Đường Nguyễn Văn Lung",
        "postal_code": "76123",
        "categories": [
            {
                "name": "Đặc sản & Đồ uống"
            }
        ]
    },
    {
        "name": "Phương Phương Trái Cây Miền Tây",
        "latitude": 10.90186,
        "longitude": 106.78053,
        "address": "Phương Phương Trái Cây Miền Tây, Hẻm 45 Đường Hai Bà Trưng, Phường Đông Hòa, Dĩ An, Bình Dương, Việt Nam",
        "country_code": "VNM",
        "country_name": "Việt Nam",
        "city": "Bình Dương",
        "district": "Dĩ An",
        "ward": "Phường Đông Hòa",
        "street": "Hẻm 45 Đường Hai Bà Trưng",
        "postal_code": "75308",
        "categories": [
            {
                "name": "Đặc sản & Đồ uống"
            }
        ]
    },
    {
        "name": "Ăn Vặt Tú Tú",
        "latitude": 10.90718,
        "longitude": 106.77586,
        "address": "Ăn Vặt Tú Tú, Hẻm 7C Đường Trần Quang Khải, Phường Tân Đông Hiệp, Dĩ An, Bình Dương, Việt Nam",
        "country_code": "VNM",
        "country_name": "Việt Nam",
        "city": "Bình Dương",
        "district": "Dĩ An",
        "ward": "Phường Tân Đông Hiệp",
        "street": "Hẻm 7C Đường Trần Quang Khải",
        "postal_code": "75311",
        "categories": [
            {
                "name": "Đặc sản & Đồ uống"
            }
        ]
    },
    {
        "name": "Quán Đồ Uống Mập Xinh Đẹp Cocky Map",
        "latitude": 10.89935,
        "longitude": 106.80048,
        "address": "Quán Đồ Uống Mập Xinh Đẹp Cocky Map, Đường Tỉnh 743A, Phường Bình Thắng, Dĩ An, Bình Dương, Việt Nam",
        "country_code": "VNM",
        "country_name": "Việt Nam",
        "city": "Bình Dương",
        "district": "Dĩ An",
        "ward": "Phường Bình Thắng",
        "street": "Đường Tỉnh 743A",
        "postal_code": "75309",
        "categories": [
            {
                "name": "Đặc sản & Đồ uống"
            },
            {
                "name": "Nhà hàng"
            }
        ]
    },
    {
        "name": "Yến My",
        "latitude": 10.89948,
        "longitude": 106.80222,
        "address": "Yến My, 208 Đường Tỉnh 743A, Phường Bình Thắng, Dĩ An, Bình Dương, Việt Nam",
        "country_code": "VNM",
        "country_name": "Việt Nam",
        "city": "Bình Dương",
        "district": "Dĩ An",
        "ward": "Phường Bình Thắng",
        "street": "Đường Tỉnh 743A",
        "postal_code": "75309",
        "categories": [
            {
                "name": "Đặc sản & Đồ uống"
            },
            {
                "name": "Hàng tiêu dùng"
            }
        ]
    },
    {
        "name": "Hải Sản Yến My",
        "latitude": 10.89933,
        "longitude": 106.80217,
        "address": "Hải Sản Yến My, TL.743, Phường Bình Thắng, Dĩ An, Bình Dương, Việt Nam",
        "country_code": "VNM",
        "country_name": "Việt Nam",
        "city": "Bình Dương",
        "district": "Dĩ An",
        "ward": "Phường Bình Thắng",
        "street": "TL.743",
        "postal_code": "75309",
        "categories": [
            {
                "name": "Đặc sản & Đồ uống"
            }
        ]
    },
    {
        "name": "Ngọc Quỳnh Quán",
        "latitude": 10.91451,
        "longitude": 106.77334,
        "address": "Ngọc Quỳnh Quán, TL.743, Phường Tân Đông Hiệp, Dĩ An, Bình Dương, Việt Nam",
        "country_code": "VNM",
        "country_name": "Việt Nam",
        "city": "Bình Dương",
        "district": "Dĩ An",
        "ward": "Phường Tân Đông Hiệp",
        "street": "TL.743",
        "postal_code": "75311",
        "categories": [
            {
                "name": "Đặc sản & Đồ uống"
            }
        ]
    },
    {
        "name": "Hùng Chợ Nhỏ",
        "latitude": 10.89751,
        "longitude": 106.78435,
        "address": "Hùng Chợ Nhỏ, Đường Trần Hưng Đạo, Phường Đông Hòa, Dĩ An, Bình Dương, Việt Nam",
        "country_code": "VNM",
        "country_name": "Việt Nam",
        "city": "Bình Dương",
        "district": "Dĩ An",
        "ward": "Phường Đông Hòa",
        "street": "Đường Trần Hưng Đạo",
        "postal_code": "75308",
        "categories": [
            {
                "name": "Đặc sản & Đồ uống"
            }
        ]
    },
    {
        "name": "Phở",
        "latitude": 10.89982,
        "longitude": 106.77992,
        "address": "Phở, Đường Trần Hưng Đạo, Phường Đông Hòa, Dĩ An, Bình Dương, Việt Nam",
        "country_code": "VNM",
        "country_name": "Việt Nam",
        "city": "Bình Dương",
        "district": "Dĩ An",
        "ward": "Phường Đông Hòa",
        "street": "Đường Trần Hưng Đạo",
        "postal_code": "75308",
        "categories": [
            {
                "name": "Đặc sản & Đồ uống"
            }
        ]
    },
    {
        "name": "Đậu Hũ Nóng",
        "latitude": 10.89846,
        "longitude": 106.78172,
        "address": "Đậu Hũ Nóng, Đường Trần Hưng Đạo, Phường Đông Hòa, Dĩ An, Bình Dương, Việt Nam",
        "country_code": "VNM",
        "country_name": "Việt Nam",
        "city": "Bình Dương",
        "district": "Dĩ An",
        "ward": "Phường Đông Hòa",
        "street": "Đường Trần Hưng Đạo",
        "postal_code": "75308",
        "categories": [
            {
                "name": "Đặc sản & Đồ uống"
            }
        ]
    },
    {
        "name": "Trà Sữa-Chè Coffee",
        "latitude": 10.89751,
        "longitude": 106.78319,
        "address": "Trà Sữa-Chè Coffee, Đường Trần Hưng Đạo, Phường Đông Hòa, Dĩ An, Bình Dương, Việt Nam",
        "country_code": "VNM",
        "country_name": "Việt Nam",
        "city": "Bình Dương",
        "district": "Dĩ An",
        "ward": "Phường Đông Hòa",
        "street": "Đường Trần Hưng Đạo",
        "postal_code": "75308",
        "categories": [
            {
                "name": "Đặc sản & Đồ uống"
            }
        ]
    },
    {
        "name": "Nấm Trà Sữa Sinh Tố Ăn Vặt",
        "latitude": 10.89802,
        "longitude": 106.78222,
        "address": "Nấm Trà Sữa Sinh Tố Ăn Vặt, Đường Trần Hưng Đạo, Phường Đông Hòa, Dĩ An, Bình Dương, Việt Nam",
        "country_code": "VNM",
        "country_name": "Việt Nam",
        "city": "Bình Dương",
        "district": "Dĩ An",
        "ward": "Phường Đông Hòa",
        "street": "Đường Trần Hưng Đạo",
        "postal_code": "75308",
        "categories": [
            {
                "name": "Đặc sản & Đồ uống"
            }
        ]
    },
    {
        "name": "Bánh Tráng Tây Ninh",
        "latitude": 10.90097,
        "longitude": 106.80594,
        "address": "Bánh Tráng Tây Ninh, 224 Đường Bình Thung, Phường Bình Thắng, Dĩ An, Bình Dương, Việt Nam",
        "country_code": "VNM",
        "country_name": "Việt Nam",
        "city": "Bình Dương",
        "district": "Dĩ An",
        "ward": "Phường Bình Thắng",
        "street": "Đường Bình Thung",
        "postal_code": "75309",
        "categories": [
            {
                "name": "Đặc sản & Đồ uống"
            }
        ]
    },
    {
        "name": "Gà Nương Muôi Ơt-Vit Nương Lá Mác Mât",
        "latitude": 10.89943,
        "longitude": 106.80438,
        "address": "Gà Nương Muôi Ơt-Vit Nương Lá Mác Mât, TL.743, Phường Bình Thắng, Dĩ An, Bình Dương, Việt Nam",
        "country_code": "VNM",
        "country_name": "Việt Nam",
        "city": "Bình Dương",
        "district": "Dĩ An",
        "ward": "Phường Bình Thắng",
        "street": "TL.743",
        "postal_code": "75309",
        "categories": [
            {
                "name": "Đặc sản & Đồ uống"
            }
        ]
    },
    {
        "name": "Tiệm Trà Cockymap",
        "latitude": 10.90083,
        "longitude": 106.80613,
        "address": "Tiệm Trà Cockymap, Đường Bình Thung, Phường Bình Thắng, Dĩ An, Bình Dương, Việt Nam",
        "country_code": "VNM",
        "country_name": "Việt Nam",
        "city": "Bình Dương",
        "district": "Dĩ An",
        "ward": "Phường Bình Thắng",
        "street": "Đường Bình Thung",
        "postal_code": "75309",
        "categories": [
            {
                "name": "Đặc sản & Đồ uống"
            }
        ]
    },
    {
        "name": "Xôi Sơn",
        "latitude": 10.89951,
        "longitude": 106.80491,
        "address": "Xôi Sơn, ĐT.743A, Phường Bình Thắng, Dĩ An, Bình Dương, Việt Nam",
        "country_code": "VNM",
        "country_name": "Việt Nam",
        "city": "Bình Dương",
        "district": "Dĩ An",
        "ward": "Phường Bình Thắng",
        "street": "ĐT.743A",
        "postal_code": "75309",
        "categories": [
            {
                "name": "Đặc sản & Đồ uống"
            }
        ]
    },
    {
        "name": "Thanh Trì Bán & Nhận Đặt Giò Chả",
        "latitude": 10.89456,
        "longitude": 106.79118,
        "address": "Thanh Trì Bán & Nhận Đặt Giò Chả, Xa Lộ Hà Nội, Phường Đông Hòa, Dĩ An, Bình Dương, Việt Nam",
        "country_code": "VNM",
        "country_name": "Việt Nam",
        "city": "Bình Dương",
        "district": "Dĩ An",
        "ward": "Phường Đông Hòa",
        "street": "Xa Lộ Hà Nội",
        "postal_code": "75308",
        "categories": [
            {
                "name": "Đặc sản & Đồ uống"
            }
        ]
    },
    {
        "name": "Bánh Xèo-Bánh Khọt Miền Tây",
        "latitude": 10.8961,
        "longitude": 106.78387,
        "address": "Bánh Xèo-Bánh Khọt Miền Tây, Đường Trần Hưng Đạo, Phường Đông Hòa, Dĩ An, Bình Dương, Việt Nam",
        "country_code": "VNM",
        "country_name": "Việt Nam",
        "city": "Bình Dương",
        "district": "Dĩ An",
        "ward": "Phường Đông Hòa",
        "street": "Đường Trần Hưng Đạo",
        "postal_code": "75308",
        "categories": [
            {
                "name": "Đặc sản & Đồ uống"
            }
        ]
    },
    {
        "name": "Tiệm Gà Rán Street Food",
        "latitude": 10.89374,
        "longitude": 106.79242,
        "address": "Tiệm Gà Rán Street Food, Đường Thống Nhất, Phường Đông Hòa, Dĩ An, Bình Dương, Việt Nam",
        "country_code": "VNM",
        "country_name": "Việt Nam",
        "city": "Bình Dương",
        "district": "Dĩ An",
        "ward": "Phường Đông Hòa",
        "street": "Đường Thống Nhất",
        "postal_code": "75308",
        "categories": [
            {
                "name": "Đặc sản & Đồ uống"
            }
        ]
    },
    {
        "name": "Tiệm Trà Bí Đao Trà Sữa Trà Đào",
        "latitude": 10.89348,
        "longitude": 106.79342,
        "address": "Tiệm Trà Bí Đao Trà Sữa Trà Đào, Đường Thống Nhất, Phường Đông Hòa, Dĩ An, Bình Dương, Việt Nam",
        "country_code": "VNM",
        "country_name": "Việt Nam",
        "city": "Bình Dương",
        "district": "Dĩ An",
        "ward": "Phường Đông Hòa",
        "street": "Đường Thống Nhất",
        "postal_code": "75308",
        "categories": [
            {
                "name": "Đặc sản & Đồ uống"
            }
        ]
    },
    {
        "name": "Nước Mía-Nước Giải Khát",
        "latitude": 10.904,
        "longitude": 106.77318,
        "address": "Nước Mía-Nước Giải Khát, Đường Si Li Cát, Phường Dĩ An, Dĩ An, Bình Dương, Việt Nam",
        "country_code": "VNM",
        "country_name": "Việt Nam",
        "city": "Bình Dương",
        "district": "Dĩ An",
        "ward": "Phường Dĩ An",
        "street": "Đường Si Li Cát",
        "postal_code": "75306",
        "categories": [
            {
                "name": "Đặc sản & Đồ uống"
            }
        ]
    },
    {
        "name": "Cô Ba",
        "latitude": 10.9269,
        "longitude": 106.80868,
        "address": "Cô Ba, Đường Nguyễn Tri Phương, Phường Bửu Hòa, Biên Hòa, Đồng Nai, Việt Nam",
        "country_code": "VNM",
        "country_name": "Việt Nam",
        "city": "Đồng Nai",
        "district": "Biên Hòa",
        "ward": "Phường Bửu Hòa",
        "street": "Đường Nguyễn Tri Phương",
        "postal_code": "76125",
        "categories": [
            {
                "name": "Đặc sản & Đồ uống"
            }
        ]
    },
    {
        "name": "Ẩm Thực Rừng-Đồng-Biển",
        "latitude": 10.90371,
        "longitude": 106.77317,
        "address": "Ẩm Thực Rừng-Đồng-Biển, Đường Si Li Cát, Phường Dĩ An, Dĩ An, Bình Dương, Việt Nam",
        "country_code": "VNM",
        "country_name": "Việt Nam",
        "city": "Bình Dương",
        "district": "Dĩ An",
        "ward": "Phường Dĩ An",
        "street": "Đường Si Li Cát",
        "postal_code": "75306",
        "categories": [
            {
                "name": "Đặc sản & Đồ uống"
            }
        ]
    },
    {
        "name": "Gạo Khánh Linh",
        "latitude": 10.89402,
        "longitude": 106.78544,
        "address": "Gạo Khánh Linh, Hẻm 150 Đường Nguyễn Hữu Cảnh, Phường Đông Hòa, Dĩ An, Bình Dương, Việt Nam",
        "country_code": "VNM",
        "country_name": "Việt Nam",
        "city": "Bình Dương",
        "district": "Dĩ An",
        "ward": "Phường Đông Hòa",
        "street": "Hẻm 150 Đường Nguyễn Hữu Cảnh",
        "postal_code": "75308",
        "categories": [
            {
                "name": "Đặc sản & Đồ uống"
            }
        ]
    },
    {
        "name": "Café Mộc",
        "latitude": 10.9014,
        "longitude": 106.77435,
        "address": "Café Mộc, Võ Thị Sáu, Phường Đông Hòa, Dĩ An, Bình Dương, Việt Nam",
        "country_code": "VNM",
        "country_name": "Việt Nam",
        "city": "Bình Dương",
        "district": "Dĩ An",
        "ward": "Phường Đông Hòa",
        "street": "Võ Thị Sáu",
        "postal_code": "75308",
        "categories": [
            {
                "name": "Đặc sản & Đồ uống"
            }
        ]
    },
    {
        "name": "Trà Sữa MR.Bi",
        "latitude": 10.90289,
        "longitude": 106.77317,
        "address": "Trà Sữa MR.Bi, Đường Trần Hưng Đạo, Phường Đông Hòa, Dĩ An, Bình Dương, Việt Nam",
        "country_code": "VNM",
        "country_name": "Việt Nam",
        "city": "Bình Dương",
        "district": "Dĩ An",
        "ward": "Phường Đông Hòa",
        "street": "Đường Trần Hưng Đạo",
        "postal_code": "75308",
        "categories": [
            {
                "name": "Đặc sản & Đồ uống"
            }
        ]
    },
    {
        "name": "Vựa Hải Sản Tươi Sống Bảy Bo",
        "latitude": 10.90289,
        "longitude": 106.77317,
        "address": "Vựa Hải Sản Tươi Sống Bảy Bo, Đường Trần Hưng Đạo, Phường Đông Hòa, Dĩ An, Bình Dương, Việt Nam",
        "country_code": "VNM",
        "country_name": "Việt Nam",
        "city": "Bình Dương",
        "district": "Dĩ An",
        "ward": "Phường Đông Hòa",
        "street": "Đường Trần Hưng Đạo",
        "postal_code": "75308",
        "categories": [
            {
                "name": "Đặc sản & Đồ uống"
            }
        ]
    },
    {
        "name": "Vựa Mít-Sầu Riêng Ngọc Linh",
        "latitude": 10.90962,
        "longitude": 106.77038,
        "address": "Vựa Mít-Sầu Riêng Ngọc Linh, Đường Cây Keo, Phường Dĩ An, Dĩ An, Bình Dương, Việt Nam",
        "country_code": "VNM",
        "country_name": "Việt Nam",
        "city": "Bình Dương",
        "district": "Dĩ An",
        "ward": "Phường Dĩ An",
        "street": "Đường Cây Keo",
        "postal_code": "75306",
        "categories": [
            {
                "name": "Đặc sản & Đồ uống"
            }
        ]
    },
    {
        "name": "Vựa Hải Sản Danh Mập",
        "latitude": 10.89272,
        "longitude": 106.7899,
        "address": "Vựa Hải Sản Danh Mập, Xa Lộ Hà Nội, Phường Đông Hòa, Dĩ An, Bình Dương, Việt Nam",
        "country_code": "VNM",
        "country_name": "Việt Nam",
        "city": "Bình Dương",
        "district": "Dĩ An",
        "ward": "Phường Đông Hòa",
        "street": "Xa Lộ Hà Nội",
        "postal_code": "75308",
        "categories": [
            {
                "name": "Đặc sản & Đồ uống"
            }
        ]
    },
    {
        "name": "Tiến Đạt",
        "latitude": 10.89912,
        "longitude": 106.80748,
        "address": "Tiến Đạt, Đường Bình Thung, Phường Bình Thắng, Dĩ An, Bình Dương, Việt Nam",
        "country_code": "VNM",
        "country_name": "Việt Nam",
        "city": "Bình Dương",
        "district": "Dĩ An",
        "ward": "Phường Bình Thắng",
        "street": "Đường Bình Thung",
        "postal_code": "75309",
        "categories": [
            {
                "name": "Đặc sản & Đồ uống"
            }
        ]
    },
    {
        "name": "Thành Luân Phụ Kiện",
        "latitude": 10.89907,
        "longitude": 106.80751,
        "address": "Thành Luân Phụ Kiện, TL.743, Phường Bình Thắng, Dĩ An, Bình Dương, Việt Nam",
        "country_code": "VNM",
        "country_name": "Việt Nam",
        "city": "Bình Dương",
        "district": "Dĩ An",
        "ward": "Phường Bình Thắng",
        "street": "TL.743",
        "postal_code": "75309",
        "categories": [
            {
                "name": "Đặc sản & Đồ uống"
            },
            {
                "name": "Cửa hàng chuyên dụng"
            }
        ]
    },
    {
        "name": "Đại Lý Tuyến Dụng Chuyên Phân Phối Sỉ & Lẻ Thực Phẩm Chế Biến Đông Lạnh",
        "latitude": 10.90649,
        "longitude": 106.77116,
        "address": "Đại Lý Tuyến Dụng Chuyên Phân Phối Sỉ & Lẻ Thực Phẩm Chế Biến Đông Lạnh, Hẻm 1 Đường Nguyễn Thái Học, Phường Dĩ An, Dĩ An, Bình Dương, Việt Nam",
        "country_code": "VNM",
        "country_name": "Việt Nam",
        "city": "Bình Dương",
        "district": "Dĩ An",
        "ward": "Phường Dĩ An",
        "street": "Hẻm 1 Đường Nguyễn Thái Học",
        "postal_code": "75306",
        "categories": [
            {
                "name": "Đặc sản & Đồ uống"
            }
        ]
    },
    {
        "name": "Góc Ăn Vặt Chi Nhánh Công Ty TNHH TM Thoại An",
        "latitude": 10.91398,
        "longitude": 106.76966,
        "address": "Góc Ăn Vặt Chi Nhánh Công Ty TNHH TM Thoại An, Đường Nguyễn An Ninh, Phường Dĩ An, Dĩ An, Bình Dương, Việt Nam",
        "country_code": "VNM",
        "country_name": "Việt Nam",
        "city": "Bình Dương",
        "district": "Dĩ An",
        "ward": "Phường Dĩ An",
        "street": "Đường Nguyễn An Ninh",
        "postal_code": "75306",
        "categories": [
            {
                "name": "Đặc sản & Đồ uống"
            }
        ]
    },
    {
        "name": "Cơ Sở Giò Chả Xuân Lan",
        "latitude": 10.90981,
        "longitude": 106.77008,
        "address": "Cơ Sở Giò Chả Xuân Lan, Đường Nguyễn An Ninh, Phường Dĩ An, Dĩ An, Bình Dương, Việt Nam",
        "country_code": "VNM",
        "country_name": "Việt Nam",
        "city": "Bình Dương",
        "district": "Dĩ An",
        "ward": "Phường Dĩ An",
        "street": "Đường Nguyễn An Ninh",
        "postal_code": "75306",
        "categories": [
            {
                "name": "Đặc sản & Đồ uống"
            }
        ]
    },
    {
        "name": "Vựa Gạo Toàn Thắng",
        "latitude": 10.90636,
        "longitude": 106.77109,
        "address": "Vựa Gạo Toàn Thắng, Nguyễn Thái Học, Phường Dĩ An, Dĩ An, Bình Dương, Việt Nam",
        "country_code": "VNM",
        "country_name": "Việt Nam",
        "city": "Bình Dương",
        "district": "Dĩ An",
        "ward": "Phường Dĩ An",
        "street": "Nguyễn Thái Học",
        "postal_code": "75306",
        "categories": [
            {
                "name": "Đặc sản & Đồ uống"
            },
            {
                "name": "Cửa hàng chuyên dụng"
            }
        ]
    },
    {
        "name": "Vinh Hạnh",
        "latitude": 10.90636,
        "longitude": 106.77109,
        "address": "Vinh Hạnh, Nguyễn Thái Học, Phường Dĩ An, Dĩ An, Bình Dương, Việt Nam",
        "country_code": "VNM",
        "country_name": "Việt Nam",
        "city": "Bình Dương",
        "district": "Dĩ An",
        "ward": "Phường Dĩ An",
        "street": "Nguyễn Thái Học",
        "postal_code": "75306",
        "categories": [
            {
                "name": "Đặc sản & Đồ uống"
            }
        ]
    },
    {
        "name": "Đậu Hũ Gia Truyền Hùng Vân",
        "latitude": 10.90636,
        "longitude": 106.77109,
        "address": "Đậu Hũ Gia Truyền Hùng Vân, Nguyễn Thái Học, Phường Dĩ An, Dĩ An, Bình Dương, Việt Nam",
        "country_code": "VNM",
        "country_name": "Việt Nam",
        "city": "Bình Dương",
        "district": "Dĩ An",
        "ward": "Phường Dĩ An",
        "street": "Nguyễn Thái Học",
        "postal_code": "75306",
        "categories": [
            {
                "name": "Đặc sản & Đồ uống"
            }
        ]
    },
    {
        "name": "Trân Châu Hạ Long",
        "latitude": 10.9046,
        "longitude": 106.77186,
        "address": "Trân Châu Hạ Long, Đường Trần Hưng Đạo, Phường Dĩ An, Dĩ An, Bình Dương, Việt Nam",
        "country_code": "VNM",
        "country_name": "Việt Nam",
        "city": "Bình Dương",
        "district": "Dĩ An",
        "ward": "Phường Dĩ An",
        "street": "Đường Trần Hưng Đạo",
        "postal_code": "75306",
        "categories": [
            {
                "name": "Đặc sản & Đồ uống"
            }
        ]
    },
    {
        "name": "Cửa Hàng Gạo Huyền",
        "latitude": 10.90703,
        "longitude": 106.77082,
        "address": "Cửa Hàng Gạo Huyền, Đường Cô Bắc, Phường Dĩ An, Dĩ An, Bình Dương, Việt Nam",
        "country_code": "VNM",
        "country_name": "Việt Nam",
        "city": "Bình Dương",
        "district": "Dĩ An",
        "ward": "Phường Dĩ An",
        "street": "Đường Cô Bắc",
        "postal_code": "75306",
        "categories": [
            {
                "name": "Đặc sản & Đồ uống"
            }
        ]
    },
    {
        "name": "Hồng Anh Chuyên Sỉ & Lẻ Trái Cây Sạch",
        "latitude": 10.91396,
        "longitude": 106.76961,
        "address": "Hồng Anh Chuyên Sỉ & Lẻ Trái Cây Sạch, Đường Nguyễn An Ninh, Phường Dĩ An, Dĩ An, Bình Dương, Việt Nam",
        "country_code": "VNM",
        "country_name": "Việt Nam",
        "city": "Bình Dương",
        "district": "Dĩ An",
        "ward": "Phường Dĩ An",
        "street": "Đường Nguyễn An Ninh",
        "postal_code": "75306",
        "categories": [
            {
                "name": "Đặc sản & Đồ uống"
            },
            {
                "name": "Cửa hàng tiện lợi"
            }
        ]
    },
    {
        "name": "Đặc Sản Phố Hoa",
        "latitude": 10.91479,
        "longitude": 106.76958,
        "address": "Đặc Sản Phố Hoa, Đường Nguyễn An Ninh, Phường Dĩ An, Dĩ An, Bình Dương, Việt Nam",
        "country_code": "VNM",
        "country_name": "Việt Nam",
        "city": "Bình Dương",
        "district": "Dĩ An",
        "ward": "Phường Dĩ An",
        "street": "Đường Nguyễn An Ninh",
        "postal_code": "75306",
        "categories": [
            {
                "name": "Đặc sản & Đồ uống"
            },
            {
                "name": "Nhà hàng"
            }
        ]
    },
    {
        "name": "Cơ Sở Hồng Gia",
        "latitude": 10.90044,
        "longitude": 106.77447,
        "address": "Cơ Sở Hồng Gia, Đường Võ Thị Sáu, Phường Đông Hòa, Dĩ An, Bình Dương, Việt Nam",
        "country_code": "VNM",
        "country_name": "Việt Nam",
        "city": "Bình Dương",
        "district": "Dĩ An",
        "ward": "Phường Đông Hòa",
        "street": "Đường Võ Thị Sáu",
        "postal_code": "75308",
        "categories": [
            {
                "name": "Đặc sản & Đồ uống"
            }
        ]
    },
    {
        "name": "Cháo Soup Panda",
        "latitude": 10.90991,
        "longitude": 106.76988,
        "address": "Cháo Soup Panda, Đường Nguyễn An Ninh, Phường Dĩ An, Dĩ An, Bình Dương, Việt Nam",
        "country_code": "VNM",
        "country_name": "Việt Nam",
        "city": "Bình Dương",
        "district": "Dĩ An",
        "ward": "Phường Dĩ An",
        "street": "Đường Nguyễn An Ninh",
        "postal_code": "75306",
        "categories": [
            {
                "name": "Đặc sản & Đồ uống"
            }
        ]
    },
    {
        "name": "Trà Sữa Fantea",
        "latitude": 10.91014,
        "longitude": 106.76982,
        "address": "Trà Sữa Fantea, Đường Nguyễn An Ninh, Phường Dĩ An, Dĩ An, Bình Dương, Việt Nam",
        "country_code": "VNM",
        "country_name": "Việt Nam",
        "city": "Bình Dương",
        "district": "Dĩ An",
        "ward": "Phường Dĩ An",
        "street": "Đường Nguyễn An Ninh",
        "postal_code": "75306",
        "categories": [
            {
                "name": "Đặc sản & Đồ uống"
            }
        ]
    },
    {
        "name": "Tiệm Trà Sữa Hintea",
        "latitude": 10.91014,
        "longitude": 106.76982,
        "address": "Tiệm Trà Sữa Hintea, 319 Đường Nguyễn An Ninh, Phường Dĩ An, Dĩ An, Bình Dương, Việt Nam",
        "country_code": "VNM",
        "country_name": "Việt Nam",
        "city": "Bình Dương",
        "district": "Dĩ An",
        "ward": "Phường Dĩ An",
        "street": "Đường Nguyễn An Ninh",
        "postal_code": "75306",
        "categories": [
            {
                "name": "Đặc sản & Đồ uống"
            }
        ]
    },
    {
        "name": "Ken Ken Nước Cốt Bí Đao",
        "latitude": 10.91014,
        "longitude": 106.76982,
        "address": "Ken Ken Nước Cốt Bí Đao, Đường Nguyễn An Ninh, Phường Dĩ An, Dĩ An, Bình Dương, Việt Nam",
        "country_code": "VNM",
        "country_name": "Việt Nam",
        "city": "Bình Dương",
        "district": "Dĩ An",
        "ward": "Phường Dĩ An",
        "street": "Đường Nguyễn An Ninh",
        "postal_code": "75306",
        "categories": [
            {
                "name": "Đặc sản & Đồ uống"
            }
        ]
    },
    {
        "name": "Sinh Tố Nhung",
        "latitude": 10.91093,
        "longitude": 106.76968,
        "address": "Sinh Tố Nhung, Đường Nguyễn An Ninh, Phường Dĩ An, Dĩ An, Bình Dương, Việt Nam",
        "country_code": "VNM",
        "country_name": "Việt Nam",
        "city": "Bình Dương",
        "district": "Dĩ An",
        "ward": "Phường Dĩ An",
        "street": "Đường Nguyễn An Ninh",
        "postal_code": "75306",
        "categories": [
            {
                "name": "Đặc sản & Đồ uống"
            }
        ]
    },
    {
        "name": "Hân Hân Ice Cream & Fast Food",
        "latitude": 10.89997,
        "longitude": 106.77466,
        "address": "Hân Hân Ice Cream & Fast Food, 254H Đường Võ Thị Sáu, Phường Đông Hòa, Dĩ An, Bình Dương, Việt Nam",
        "country_code": "VNM",
        "country_name": "Việt Nam",
        "city": "Bình Dương",
        "district": "Dĩ An",
        "ward": "Phường Đông Hòa",
        "street": "Đường Võ Thị Sáu",
        "postal_code": "75308",
        "categories": [
            {
                "name": "Đặc sản & Đồ uống"
            }
        ]
    },
    {
        "name": "Đại Lí Gạo Liễu Trúc",
        "latitude": 10.9049,
        "longitude": 106.77139,
        "address": "Đại Lí Gạo Liễu Trúc, Đường Trần Hưng Đạo, Phường Dĩ An, Dĩ An, Bình Dương, Việt Nam",
        "country_code": "VNM",
        "country_name": "Việt Nam",
        "city": "Bình Dương",
        "district": "Dĩ An",
        "ward": "Phường Dĩ An",
        "street": "Đường Trần Hưng Đạo",
        "postal_code": "75306",
        "categories": [
            {
                "name": "Đặc sản & Đồ uống"
            }
        ]
    },
    {
        "name": "Vựa Trái Cây Bốn Mùa",
        "latitude": 10.89219,
        "longitude": 106.78938,
        "address": "Vựa Trái Cây Bốn Mùa, Xa Lộ Hà Nội, Phường Đông Hòa, Dĩ An, Bình Dương, Việt Nam",
        "country_code": "VNM",
        "country_name": "Việt Nam",
        "city": "Bình Dương",
        "district": "Dĩ An",
        "ward": "Phường Đông Hòa",
        "street": "Xa Lộ Hà Nội",
        "postal_code": "75308",
        "categories": [
            {
                "name": "Đặc sản & Đồ uống"
            }
        ]
    },
    {
        "name": "Trà Sữa Amore",
        "latitude": 10.8988,
        "longitude": 106.80789,
        "address": "Trà Sữa Amore, Đường Tỉnh 743A, Phường Bình Thắng, Dĩ An, Bình Dương, Việt Nam",
        "country_code": "VNM",
        "country_name": "Việt Nam",
        "city": "Bình Dương",
        "district": "Dĩ An",
        "ward": "Phường Bình Thắng",
        "street": "Đường Tỉnh 743A",
        "postal_code": "75309",
        "categories": [
            {
                "name": "Đặc sản & Đồ uống"
            },
            {
                "name": "Cà Phê/Trà"
            }
        ]
    },
    {
        "name": "Đậu Hũ Trà Sữa 168",
        "latitude": 10.91507,
        "longitude": 106.76922,
        "address": "Đậu Hũ Trà Sữa 168, 409 Đường Nguyễn An Ninh, Phường Dĩ An, Dĩ An, Bình Dương, Việt Nam",
        "country_code": "VNM",
        "country_name": "Việt Nam",
        "city": "Bình Dương",
        "district": "Dĩ An",
        "ward": "Phường Dĩ An",
        "street": "Đường Nguyễn An Ninh",
        "postal_code": "75306",
        "categories": [
            {
                "name": "Đặc sản & Đồ uống"
            }
        ]
    },
    {
        "name": "Trà Sữa Vy Vy",
        "latitude": 10.91077,
        "longitude": 106.76941,
        "address": "Trà Sữa Vy Vy, 3 Hẻm 33 Đường Nguyễn Du, Phường Dĩ An, Dĩ An, Bình Dương, Việt Nam",
        "country_code": "VNM",
        "country_name": "Việt Nam",
        "city": "Bình Dương",
        "district": "Dĩ An",
        "ward": "Phường Dĩ An",
        "street": "Hẻm 33 Đường Nguyễn Du",
        "postal_code": "75306",
        "categories": [
            {
                "name": "Đặc sản & Đồ uống"
            }
        ]
    },
    {
        "name": "Momo Chà",
        "latitude": 10.91076,
        "longitude": 106.76936,
        "address": "Momo Chà, Đường Nguyễn Du, Phường Dĩ An, Dĩ An, Bình Dương, Việt Nam",
        "country_code": "VNM",
        "country_name": "Việt Nam",
        "city": "Bình Dương",
        "district": "Dĩ An",
        "ward": "Phường Dĩ An",
        "street": "Đường Nguyễn Du",
        "postal_code": "75306",
        "categories": [
            {
                "name": "Đặc sản & Đồ uống"
            }
        ]
    },
    {
        "name": "Cửa Hàng Sữa Kim Cương",
        "latitude": 10.90666,
        "longitude": 106.77041,
        "address": "Cửa Hàng Sữa Kim Cương, Đường Cô Giang, Phường Dĩ An, Dĩ An, Bình Dương, Việt Nam",
        "country_code": "VNM",
        "country_name": "Việt Nam",
        "city": "Bình Dương",
        "district": "Dĩ An",
        "ward": "Phường Dĩ An",
        "street": "Đường Cô Giang",
        "postal_code": "75306",
        "categories": [
            {
                "name": "Đặc sản & Đồ uống"
            }
        ]
    },
    {
        "name": "Trà Sữa 2K",
        "latitude": 10.9108,
        "longitude": 106.76925,
        "address": "Trà Sữa 2K, 7 Hẻm 33 Đường Nguyễn Du, Phường Dĩ An, Dĩ An, Bình Dương, Việt Nam",
        "country_code": "VNM",
        "country_name": "Việt Nam",
        "city": "Bình Dương",
        "district": "Dĩ An",
        "ward": "Phường Dĩ An",
        "street": "Hẻm 33 Đường Nguyễn Du",
        "postal_code": "75306",
        "categories": [
            {
                "name": "Đặc sản & Đồ uống"
            }
        ]
    },
    {
        "name": "Phở Hà Nội",
        "latitude": 10.90282,
        "longitude": 106.81141,
        "address": "Phở Hà Nội, Đường Mỹ Phước-Tân Vạn, Phường Bình Thắng, Dĩ An, Bình Dương, Việt Nam",
        "country_code": "VNM",
        "country_name": "Việt Nam",
        "city": "Bình Dương",
        "district": "Dĩ An",
        "ward": "Phường Bình Thắng",
        "street": "Đường Mỹ Phước-Tân Vạn",
        "postal_code": "75309",
        "categories": [
            {
                "name": "Đặc sản & Đồ uống"
            }
        ]
    },
    {
        "name": "Tiệm Trà Yumi",
        "latitude": 10.90542,
        "longitude": 106.77055,
        "address": "Tiệm Trà Yumi, Trần Quốc Toản, Phường Dĩ An, Dĩ An, Bình Dương, Việt Nam",
        "country_code": "VNM",
        "country_name": "Việt Nam",
        "city": "Bình Dương",
        "district": "Dĩ An",
        "ward": "Phường Dĩ An",
        "street": "Trần Quốc Toản",
        "postal_code": "75306",
        "categories": [
            {
                "name": "Đặc sản & Đồ uống"
            }
        ]
    },
    {
        "name": "Trà Sữa Thế Giới Số 1",
        "latitude": 10.91086,
        "longitude": 106.76897,
        "address": "Trà Sữa Thế Giới Số 1, Đường Nguyễn Du, Phường Dĩ An, Dĩ An, Bình Dương, Việt Nam",
        "country_code": "VNM",
        "country_name": "Việt Nam",
        "city": "Bình Dương",
        "district": "Dĩ An",
        "ward": "Phường Dĩ An",
        "street": "Đường Nguyễn Du",
        "postal_code": "75306",
        "categories": [
            {
                "name": "Đặc sản & Đồ uống"
            },
            {
                "name": "Chợ/Gian hàng ẩm thực"
            }
        ]
    },
    {
        "name": "Ẩm Thực Gia Đình",
        "latitude": 10.91383,
        "longitude": 106.76873,
        "address": "Ẩm Thực Gia Đình, Đường Phan Bội Châu, Phường Dĩ An, Dĩ An, Bình Dương, Việt Nam",
        "country_code": "VNM",
        "country_name": "Việt Nam",
        "city": "Bình Dương",
        "district": "Dĩ An",
        "ward": "Phường Dĩ An",
        "street": "Đường Phan Bội Châu",
        "postal_code": "75306",
        "categories": [
            {
                "name": "Đặc sản & Đồ uống"
            }
        ]
    },
    {
        "name": "Tạp Hóa Hoàng Anh",
        "latitude": 10.9353,
        "longitude": 106.80019,
        "address": "Tạp Hóa Hoàng Anh, Hẻm 126 Đường Hoàng Minh Chánh, Phường Hóa An, Biên Hòa, Đồng Nai, Việt Nam",
        "country_code": "VNM",
        "country_name": "Việt Nam",
        "city": "Đồng Nai",
        "district": "Biên Hòa",
        "ward": "Phường Hóa An",
        "street": "Hẻm 126 Đường Hoàng Minh Chánh",
        "postal_code": "76123",
        "categories": [
            {
                "name": "Đặc sản & Đồ uống"
            }
        ]
    },
    {
        "name": "Thực Phẩm Chay Nhuận Kiều",
        "latitude": 10.91387,
        "longitude": 106.76855,
        "address": "Thực Phẩm Chay Nhuận Kiều, Đường Phan Bội Châu, Phường Dĩ An, Dĩ An, Bình Dương, Việt Nam",
        "country_code": "VNM",
        "country_name": "Việt Nam",
        "city": "Bình Dương",
        "district": "Dĩ An",
        "ward": "Phường Dĩ An",
        "street": "Đường Phan Bội Châu",
        "postal_code": "75306",
        "categories": [
            {
                "name": "Đặc sản & Đồ uống"
            }
        ]
    },
    {
        "name": "Lò Đậu Hủ Nguyên Chất",
        "latitude": 10.91694,
        "longitude": 106.76865,
        "address": "Lò Đậu Hủ Nguyên Chất, Đường Lê Hồng Phong, Phường Tân Đông Hiệp, Dĩ An, Bình Dương, Việt Nam",
        "country_code": "VNM",
        "country_name": "Việt Nam",
        "city": "Bình Dương",
        "district": "Dĩ An",
        "ward": "Phường Tân Đông Hiệp",
        "street": "Đường Lê Hồng Phong",
        "postal_code": "75311",
        "categories": [
            {
                "name": "Đặc sản & Đồ uống"
            }
        ]
    },
    {
        "name": "Ốc Đêm 86",
        "latitude": 10.90466,
        "longitude": 106.77037,
        "address": "Ốc Đêm 86, Trần Quốc Toản, Phường Dĩ An, Dĩ An, Bình Dương, Việt Nam",
        "country_code": "VNM",
        "country_name": "Việt Nam",
        "city": "Bình Dương",
        "district": "Dĩ An",
        "ward": "Phường Dĩ An",
        "street": "Trần Quốc Toản",
        "postal_code": "75306",
        "categories": [
            {
                "name": "Đặc sản & Đồ uống"
            }
        ]
    },
    {
        "name": "Cà Phê Nước Giải Khát Chị Năm",
        "latitude": 10.93477,
        "longitude": 106.80213,
        "address": "Cà Phê Nước Giải Khát Chị Năm, Đường Hoàng Minh Chánh, Phường Hóa An, Biên Hòa, Đồng Nai, Việt Nam",
        "country_code": "VNM",
        "country_name": "Việt Nam",
        "city": "Đồng Nai",
        "district": "Biên Hòa",
        "ward": "Phường Hóa An",
        "street": "Đường Hoàng Minh Chánh",
        "postal_code": "76123",
        "categories": [
            {
                "name": "Đặc sản & Đồ uống"
            }
        ]
    },
    {
        "name": "Bảy Lắm",
        "latitude": 10.93521,
        "longitude": 106.80117,
        "address": "Bảy Lắm, 39 Hẻm 196 Đường Hoàng Minh Chánh, Phường Hóa An, Biên Hòa, Đồng Nai, Việt Nam",
        "country_code": "VNM",
        "country_name": "Việt Nam",
        "city": "Đồng Nai",
        "district": "Biên Hòa",
        "ward": "Phường Hóa An",
        "street": "Hẻm 196 Đường Hoàng Minh Chánh",
        "postal_code": "76123",
        "categories": [
            {
                "name": "Đặc sản & Đồ uống"
            }
        ]
    },
    {
        "name": "KTB Trà Sữa-Ăn Uống",
        "latitude": 10.90656,
        "longitude": 106.76947,
        "address": "KTB Trà Sữa-Ăn Uống, Đường Trần Hưng Đạo, Phường Dĩ An, Dĩ An, Bình Dương, Việt Nam",
        "country_code": "VNM",
        "country_name": "Việt Nam",
        "city": "Bình Dương",
        "district": "Dĩ An",
        "ward": "Phường Dĩ An",
        "street": "Đường Trần Hưng Đạo",
        "postal_code": "75306",
        "categories": [
            {
                "name": "Đặc sản & Đồ uống"
            },
            {
                "name": "Nhà hàng"
            }
        ]
    },
    {
        "name": "Sakura Coffee Trà Sữa",
        "latitude": 10.91086,
        "longitude": 106.76836,
        "address": "Sakura Coffee Trà Sữa, Đường Nguyễn Du, Phường Dĩ An, Dĩ An, Bình Dương, Việt Nam",
        "country_code": "VNM",
        "country_name": "Việt Nam",
        "city": "Bình Dương",
        "district": "Dĩ An",
        "ward": "Phường Dĩ An",
        "street": "Đường Nguyễn Du",
        "postal_code": "75306",
        "categories": [
            {
                "name": "Đặc sản & Đồ uống"
            }
        ]
    },
    {
        "name": "Quán Dâu Tây",
        "latitude": 10.90412,
        "longitude": 106.7703,
        "address": "Quán Dâu Tây, Trần Quốc Toản, Phường Dĩ An, Dĩ An, Bình Dương, Việt Nam",
        "country_code": "VNM",
        "country_name": "Việt Nam",
        "city": "Bình Dương",
        "district": "Dĩ An",
        "ward": "Phường Dĩ An",
        "street": "Trần Quốc Toản",
        "postal_code": "75306",
        "categories": [
            {
                "name": "Đặc sản & Đồ uống"
            }
        ]
    },
    {
        "name": "Yada",
        "latitude": 10.90424,
        "longitude": 106.77007,
        "address": "Yada, Đường Trần Quốc Toản, Phường Dĩ An, Dĩ An, Bình Dương, Việt Nam",
        "country_code": "VNM",
        "country_name": "Việt Nam",
        "city": "Bình Dương",
        "district": "Dĩ An",
        "ward": "Phường Dĩ An",
        "street": "Đường Trần Quốc Toản",
        "postal_code": "75306",
        "categories": [
            {
                "name": "Đặc sản & Đồ uống"
            }
        ]
    },
    {
        "name": "Bơ Sáp Đăk Lăk",
        "latitude": 10.89097,
        "longitude": 106.78751,
        "address": "Bơ Sáp Đăk Lăk, Xa Lộ Hà Nội, Phường Đông Hòa, Dĩ An, Bình Dương, Việt Nam",
        "country_code": "VNM",
        "country_name": "Việt Nam",
        "city": "Bình Dương",
        "district": "Dĩ An",
        "ward": "Phường Đông Hòa",
        "street": "Xa Lộ Hà Nội",
        "postal_code": "75308",
        "categories": [
            {
                "name": "Đặc sản & Đồ uống"
            }
        ]
    },
    {
        "name": "Bánh Mì Hoa",
        "latitude": 10.9066,
        "longitude": 106.76904,
        "address": "Bánh Mì Hoa, 14/21 Đường Trần Hưng Đạo, Phường Dĩ An, Dĩ An, Bình Dương, Việt Nam",
        "country_code": "VNM",
        "country_name": "Việt Nam",
        "city": "Bình Dương",
        "district": "Dĩ An",
        "ward": "Phường Dĩ An",
        "street": "Đường Trần Hưng Đạo",
        "postal_code": "75306",
        "categories": [
            {
                "name": "Đặc sản & Đồ uống"
            },
            {
                "name": "Chợ/Gian hàng ẩm thực"
            }
        ]
    }
]
