[
    {
        "name": "Go! Dĩ An",
        "latitude": 10.88898,
        "longitude": 106.7758,
        "address": "Go! Dĩ An, Đường GS 14, Phường Đông Hòa, Dĩ An, Bình Dương, Việt Nam",
        "country_code": "VNM",
        "country_name": "Việt Nam",
        "city": "Bình Dương",
        "district": "Dĩ An",
        "ward": "Phường Đông Hòa",
        "street": "Đường GS 14",
        "postal_code": "75308",
        "categories": [
            {
                "name": "Trung tâm mua sắm hoặc trung tâm thương mại"
            }
        ]
    },
    {
        "name": "Chợ Bửu Hòa",
        "latitude": 10.92877,
        "longitude": 106.82093,
        "address": "Chợ Bửu Hòa, Đường Nguyễn Tri Phương, Phường Bửu Hòa, Biên Hòa, Đồng Nai, Việt Nam",
        "country_code": "VNM",
        "country_name": "Việt Nam",
        "city": "Đồng Nai",
        "district": "Biên Hòa",
        "ward": "Phường Bửu Hòa",
        "street": "Đường Nguyễn Tri Phương",
        "postal_code": "76125",
        "categories": [
            {
                "name": "Đặc sản & Đồ uống"
            },
            {
                "name": "Chợ/Gian hàng ẩm thực"
            },
            {
                "name": "Cửa hàng tiện lợi"
            },
            {
                "name": "Trung tâm mua sắm hoặc trung tâm thương mại"
            },
            {
                "name": "Siêu thị"
            }
        ]
    },
    {
        "name": "Chợ Xuân Hiệp",
        "latitude": 10.87999,
        "longitude": 106.77307,
        "address": "Chợ Xuân Hiệp, Đường Số 6, Phường Linh Xuân, Thủ Đức, Hồ Chí Minh, Việt Nam",
        "country_code": "VNM",
        "country_name": "Việt Nam",
        "city": "Hồ Chí Minh",
        "district": "Thủ Đức",
        "ward": "Phường Linh Xuân",
        "street": "Đường Số 6",
        "postal_code": "71309",
        "categories": [
            {
                "name": "Trung tâm mua sắm hoặc trung tâm thương mại"
            }
        ]
    },
    {
        "name": "Trung Tâm Thương Mại Biên Hòa",
        "latitude": 10.94579,
        "longitude": 106.81533,
        "address": "Trung Tâm Thương Mại Biên Hòa, Đường Võ Tánh, Phường Thanh Bình, Biên Hòa, Đồng Nai, Việt Nam",
        "country_code": "VNM",
        "country_name": "Việt Nam",
        "city": "Đồng Nai",
        "district": "Biên Hòa",
        "ward": "Phường Thanh Bình",
        "street": "Đường Võ Tánh",
        "postal_code": "76106",
        "categories": [
            {
                "name": "Trung tâm mua sắm hoặc trung tâm thương mại"
            }
        ]
    },
    {
        "name": "TTTM Biên Hòa",
        "latitude": 10.9462,
        "longitude": 106.81563,
        "address": "TTTM Biên Hòa, Đường Võ Tánh, Phường Thanh Bình, Biên Hòa, Đồng Nai, Việt Nam",
        "country_code": "VNM",
        "country_name": "Việt Nam",
        "city": "Đồng Nai",
        "district": "Biên Hòa",
        "ward": "Phường Thanh Bình",
        "street": "Đường Võ Tánh",
        "postal_code": "76106",
        "categories": [
            {
                "name": "Trung tâm mua sắm hoặc trung tâm thương mại"
            }
        ]
    },
    {
        "name": "Coopmart Biên Hòa",
        "latitude": 10.95238,
        "longitude": 106.80759,
        "address": "Coopmart Biên Hòa, Đường Nguyễn Ái Quốc, Phường Hòa Bình, Biên Hòa, Đồng Nai, Việt Nam",
        "country_code": "VNM",
        "country_name": "Việt Nam",
        "city": "Đồng Nai",
        "district": "Biên Hòa",
        "ward": "Phường Hòa Bình",
        "street": "Đường Nguyễn Ái Quốc",
        "postal_code": "76122",
        "categories": [
            {
                "name": "Trung tâm mua sắm hoặc trung tâm thương mại"
            }
        ]
    },
    {
        "name": "Trung Tâm Thương Mại Thành Phố Biên Hòa",
        "latitude": 10.95101,
        "longitude": 106.81817,
        "address": "Trung Tâm Thương Mại Thành Phố Biên Hòa, Đường Phan Đình Phùng, Phường Trung Dũng, Biên Hòa, Đồng Nai, Việt Nam",
        "country_code": "VNM",
        "country_name": "Việt Nam",
        "city": "Đồng Nai",
        "district": "Biên Hòa",
        "ward": "Phường Trung Dũng",
        "street": "Đường Phan Đình Phùng",
        "postal_code": "76118",
        "categories": [
            {
                "name": "Trung tâm mua sắm hoặc trung tâm thương mại"
            }
        ]
    },
    {
        "name": "The Pegasus Plaza",
        "latitude": 10.94702,
        "longitude": 106.82502,
        "address": "The Pegasus Plaza, Đường Võ Thị Sáu, Phường Quyết Thắng, Biên Hòa, Đồng Nai, Việt Nam",
        "country_code": "VNM",
        "country_name": "Việt Nam",
        "city": "Đồng Nai",
        "district": "Biên Hòa",
        "ward": "Phường Quyết Thắng",
        "street": "Đường Võ Thị Sáu",
        "postal_code": "76107",
        "categories": [
            {
                "name": "Trung tâm mua sắm hoặc trung tâm thương mại"
            }
        ]
    },
    {
        "name": "Metro Biên Hoà",
        "latitude": 10.95719,
        "longitude": 106.81388,
        "address": "Metro Biên Hoà, Đường Nguyễn Ái Quốc, Phường Quang Vinh, Biên Hòa, Đồng Nai, Việt Nam",
        "country_code": "VNM",
        "country_name": "Việt Nam",
        "city": "Đồng Nai",
        "district": "Biên Hòa",
        "ward": "Phường Quang Vinh",
        "street": "Đường Nguyễn Ái Quốc",
        "postal_code": "76119",
        "categories": [
            {
                "name": "Trung tâm mua sắm hoặc trung tâm thương mại"
            }
        ]
    },
    {
        "name": "VINCOM",
        "latitude": 10.90856,
        "longitude": 106.74152,
        "address": "VINCOM, TL.743B, Phường Tân Đông Hiệp, Dĩ An, Bình Dương, Việt Nam",
        "country_code": "VNM",
        "country_name": "Việt Nam",
        "city": "Bình Dương",
        "district": "Dĩ An",
        "ward": "Phường Tân Đông Hiệp",
        "street": "TL.743B",
        "postal_code": "75311",
        "categories": [
            {
                "name": "Trung tâm mua sắm hoặc trung tâm thương mại"
            },
            {
                "name": "Hãng môi giới bất động sản"
            }
        ]
    },
    {
        "name": "Đồ si Hồ Khanh",
        "latitude": 10.86143,
        "longitude": 106.78804,
        "address": "Đồ si Hồ Khanh, Đường Số 17, Phường Linh Trung, Thủ Đức, Hồ Chí Minh, Việt Nam",
        "country_code": "VNM",
        "country_name": "Việt Nam",
        "city": "Hồ Chí Minh",
        "district": "Thủ Đức",
        "ward": "Phường Linh Trung",
        "street": "Đường Số 17",
        "postal_code": "71308",
        "categories": [
            {
                "name": "Trung tâm mua sắm hoặc trung tâm thương mại"
            }
        ]
    },
    {
        "name": "Gốm Sứ Bát Tràng Tại Biên Hòa",
        "latitude": 10.9563,
        "longitude": 106.82482,
        "address": "Gốm Sứ Bát Tràng Tại Biên Hòa, Đường Nguyễn Ái Quốc, Phường Trung Dũng, Biên Hòa, Đồng Nai, Việt Nam",
        "country_code": "VNM",
        "country_name": "Việt Nam",
        "city": "Đồng Nai",
        "district": "Biên Hòa",
        "ward": "Phường Trung Dũng",
        "street": "Đường Nguyễn Ái Quốc",
        "postal_code": "76118",
        "categories": [
            {
                "name": "Trung tâm mua sắm hoặc trung tâm thương mại"
            }
        ]
    },
    {
        "name": "Chợ Đêm Sóng Thần",
        "latitude": 10.88477,
        "longitude": 106.74298,
        "address": "Chợ Đêm Sóng Thần, Đại Lộ Độc Lập, Phường Dĩ An, Dĩ An, Bình Dương, Việt Nam",
        "country_code": "VNM",
        "country_name": "Việt Nam",
        "city": "Bình Dương",
        "district": "Dĩ An",
        "ward": "Phường Dĩ An",
        "street": "Đại Lộ Độc Lập",
        "postal_code": "75306",
        "categories": [
            {
                "name": "Trung tâm mua sắm hoặc trung tâm thương mại"
            }
        ]
    },
    {
        "name": "Trung Tâm Chiếu Phim Và Mua Sắm Thanh Bình",
        "latitude": 10.95694,
        "longitude": 106.82917,
        "address": "Trung Tâm Chiếu Phim Và Mua Sắm Thanh Bình, 392 Đường Phạm Văn Thuận, Phường Trung Dũng, Biên Hòa, Đồng Nai, Việt Nam",
        "country_code": "VNM",
        "country_name": "Việt Nam",
        "city": "Đồng Nai",
        "district": "Biên Hòa",
        "ward": "Phường Trung Dũng",
        "street": "Đường Phạm Văn Thuận",
        "postal_code": "76118",
        "categories": [
            {
                "name": "Trung tâm mua sắm hoặc trung tâm thương mại"
            },
            {
                "name": "Rạp chiếu phim"
            },
            {
                "name": "Cửa hàng điện tử gia dụng"
            }
        ]
    },
    {
        "name": "Bách Hóa Huyền Trang",
        "latitude": 10.9071,
        "longitude": 106.73422,
        "address": "Bách Hóa Huyền Trang, Đường Tỉnh 743B, Phường Bình Hòa, Thuận An, Bình Dương, Việt Nam",
        "country_code": "VNM",
        "country_name": "Việt Nam",
        "city": "Bình Dương",
        "district": "Thuận An",
        "ward": "Phường Bình Hòa",
        "street": "Đường Tỉnh 743B",
        "postal_code": "75208",
        "categories": [
            {
                "name": "Trung tâm mua sắm hoặc trung tâm thương mại"
            }
        ]
    },
    {
        "name": "Trung Tâm Thương Mại Big C Đồng Nai",
        "latitude": 10.90561,
        "longitude": 106.85043,
        "address": "Trung Tâm Thương Mại Big C Đồng Nai, Hẻm 1 Quốc Lộ 51, Phường Long Bình Tân, Biên Hòa, Đồng Nai, Việt Nam",
        "country_code": "VNM",
        "country_name": "Việt Nam",
        "city": "Đồng Nai",
        "district": "Biên Hòa",
        "ward": "Phường Long Bình Tân",
        "street": "Hẻm 1 Quốc Lộ 51",
        "postal_code": "76129",
        "categories": [
            {
                "name": "Trung tâm mua sắm hoặc trung tâm thương mại"
            }
        ]
    },
    {
        "name": "Siêu Thị D & F",
        "latitude": 10.95854,
        "longitude": 106.8373,
        "address": "Siêu Thị D & F, Đường Phạm Văn Thuận, Phường Thống Nhất, Biên Hòa, Đồng Nai, Việt Nam",
        "country_code": "VNM",
        "country_name": "Việt Nam",
        "city": "Đồng Nai",
        "district": "Biên Hòa",
        "ward": "Phường Thống Nhất",
        "street": "Đường Phạm Văn Thuận",
        "postal_code": "76108",
        "categories": [
            {
                "name": "Trung tâm mua sắm hoặc trung tâm thương mại"
            }
        ]
    },
    {
        "name": "Cửa Hàng Máy Tính",
        "latitude": 10.95798,
        "longitude": 106.83994,
        "address": "Cửa Hàng Máy Tính, Hẻm 1371 Phạm Văn Thuận, Phường Thống Nhất, Biên Hòa, Đồng Nai, Việt Nam",
        "country_code": "VNM",
        "country_name": "Việt Nam",
        "city": "Đồng Nai",
        "district": "Biên Hòa",
        "ward": "Phường Thống Nhất",
        "street": "Hẻm 1371 Phạm Văn Thuận",
        "postal_code": "76108",
        "categories": [
            {
                "name": "Trung tâm mua sắm hoặc trung tâm thương mại"
            }
        ]
    },
    {
        "name": "Lê Thị Yến Chi",
        "latitude": 10.9786,
        "longitude": 106.79979,
        "address": "Lê Thị Yến Chi, ĐT.768, Xã Bình Hòa, Huyện Vĩnh Cửu, Đồng Nai, Việt Nam",
        "country_code": "VNM",
        "country_name": "Việt Nam",
        "city": "Đồng Nai",
        "district": "Huyện Vĩnh Cửu",
        "ward": "Xã Bình Hòa",
        "street": "ĐT.768",
        "postal_code": "76917",
        "categories": [
            {
                "name": "Trung tâm mua sắm hoặc trung tâm thương mại"
            }
        ]
    },
    {
        "name": "VINCOM",
        "latitude": 10.95748,
        "longitude": 106.84303,
        "address": "VINCOM, Đường Phạm Văn Thuận, Phường Thống Nhất, Biên Hòa, Đồng Nai, Việt Nam",
        "country_code": "VNM",
        "country_name": "Việt Nam",
        "city": "Đồng Nai",
        "district": "Biên Hòa",
        "ward": "Phường Thống Nhất",
        "street": "Đường Phạm Văn Thuận",
        "postal_code": "76108",
        "categories": [
            {
                "name": "Trung tâm mua sắm hoặc trung tâm thương mại"
            },
            {
                "name": "Cửa hàng bán đồ gia dụng/Nội thất"
            },
            {
                "name": "Quần áo & Phụ kiện"
            },
            {
                "name": "Cửa hàng chuyên một loại quần áo"
            },
            {
                "name": "Hàng tiêu dùng"
            },
            {
                "name": "Cửa hàng đồ chơi"
            }
        ]
    },
    {
        "name": "Trung Tâm Thương Mại Vincom Biên Hòa",
        "latitude": 10.95766,
        "longitude": 106.8432,
        "address": "Trung Tâm Thương Mại Vincom Biên Hòa, Đường Phạm Văn Thuận, Phường Thống Nhất, Biên Hòa, Đồng Nai, Việt Nam",
        "country_code": "VNM",
        "country_name": "Việt Nam",
        "city": "Đồng Nai",
        "district": "Biên Hòa",
        "ward": "Phường Thống Nhất",
        "street": "Đường Phạm Văn Thuận",
        "postal_code": "76108",
        "categories": [
            {
                "name": "Trung tâm mua sắm hoặc trung tâm thương mại"
            }
        ]
    },
    {
        "name": "Nguyễn Thanh Dũng",
        "latitude": 10.98129,
        "longitude": 106.79852,
        "address": "Nguyễn Thanh Dũng, Đường Bình Hòa-Cây Dương, Xã Bình Hòa, Huyện Vĩnh Cửu, Đồng Nai, Việt Nam",
        "country_code": "VNM",
        "country_name": "Việt Nam",
        "city": "Đồng Nai",
        "district": "Huyện Vĩnh Cửu",
        "ward": "Xã Bình Hòa",
        "street": "Đường Bình Hòa-Cây Dương",
        "postal_code": "76917",
        "categories": [
            {
                "name": "Trung tâm mua sắm hoặc trung tâm thương mại"
            }
        ]
    },
    {
        "name": "1 Đổi 1 Bảo Hành 365 Ngày",
        "latitude": 10.85016,
        "longitude": 106.76716,
        "address": "1 Đổi 1 Bảo Hành 365 Ngày, Đường Dân Chủ, Phường Bình Thọ, Thủ Đức, Hồ Chí Minh, Việt Nam",
        "country_code": "VNM",
        "country_name": "Việt Nam",
        "city": "Hồ Chí Minh",
        "district": "Thủ Đức",
        "ward": "Phường Bình Thọ",
        "street": "Đường Dân Chủ",
        "postal_code": "71306",
        "categories": [
            {
                "name": "Trung tâm mua sắm hoặc trung tâm thương mại"
            }
        ]
    },
    {
        "name": "VINCOM",
        "latitude": 10.85057,
        "longitude": 106.76519,
        "address": "VINCOM, 216 Võ Văn Ngân, Phường Bình Thọ, Thủ Đức, Hồ Chí Minh, Việt Nam",
        "country_code": "VNM",
        "country_name": "Việt Nam",
        "city": "Hồ Chí Minh",
        "district": "Thủ Đức",
        "ward": "Phường Bình Thọ",
        "street": "Võ Văn Ngân",
        "postal_code": "71306",
        "categories": [
            {
                "name": "Trung tâm mua sắm hoặc trung tâm thương mại"
            },
            {
                "name": "Cửa hàng bách hóa"
            },
            {
                "name": "Quần áo & Phụ kiện"
            },
            {
                "name": "Hàng tiêu dùng"
            },
            {
                "name": "Cửa hàng dụng cụ thể thao"
            },
            {
                "name": "Thợ kim hoàn"
            },
            {
                "name": "Cắt tóc & Tạo mẫu"
            }
        ]
    },
    {
        "name": "Khu Mua Sắm Đêm Man Thiện",
        "latitude": 10.84538,
        "longitude": 106.78671,
        "address": "Khu Mua Sắm Đêm Man Thiện, Đường Man Thiện, Phường Tăng Nhơn Phú A, Thủ Đức, Hồ Chí Minh, Việt Nam",
        "country_code": "VNM",
        "country_name": "Việt Nam",
        "city": "Hồ Chí Minh",
        "district": "Thủ Đức",
        "ward": "Phường Tăng Nhơn Phú A",
        "street": "Đường Man Thiện",
        "postal_code": "71207",
        "categories": [
            {
                "name": "Trung tâm mua sắm hoặc trung tâm thương mại"
            }
        ]
    },
    {
        "name": "Vinmart",
        "latitude": 10.85014,
        "longitude": 106.7652,
        "address": "Vinmart, Võ Văn Ngân, Phường Linh Chiểu, Thủ Đức, Hồ Chí Minh, Việt Nam",
        "country_code": "VNM",
        "country_name": "Việt Nam",
        "city": "Hồ Chí Minh",
        "district": "Thủ Đức",
        "ward": "Phường Linh Chiểu",
        "street": "Võ Văn Ngân",
        "postal_code": "71307",
        "categories": [
            {
                "name": "Trung tâm mua sắm hoặc trung tâm thương mại"
            }
        ]
    },
    {
        "name": "Min Kids",
        "latitude": 10.95754,
        "longitude": 106.84672,
        "address": "Min Kids, 4 Hẻm 11 Đường Võ Cương, Phường Tân Mai, Biên Hòa, Đồng Nai, Việt Nam",
        "country_code": "VNM",
        "country_name": "Việt Nam",
        "city": "Đồng Nai",
        "district": "Biên Hòa",
        "ward": "Phường Tân Mai",
        "street": "Hẻm 11 Đường Võ Cương",
        "postal_code": "76135",
        "categories": [
            {
                "name": "Trung tâm mua sắm hoặc trung tâm thương mại"
            }
        ]
    },
    {
        "name": "Chơ Bắc Ninh Thủ Đức",
        "latitude": 10.84925,
        "longitude": 106.76629,
        "address": "Chơ Bắc Ninh Thủ Đức, Đường Nguyễn Bá Luật, Phường Bình Thọ, Thủ Đức, Hồ Chí Minh, Việt Nam",
        "country_code": "VNM",
        "country_name": "Việt Nam",
        "city": "Hồ Chí Minh",
        "district": "Thủ Đức",
        "ward": "Phường Bình Thọ",
        "street": "Đường Nguyễn Bá Luật",
        "postal_code": "71306",
        "categories": [
            {
                "name": "Trung tâm mua sắm hoặc trung tâm thương mại"
            }
        ]
    },
    {
        "name": "VINCOM",
        "latitude": 10.84549,
        "longitude": 106.77895,
        "address": "VINCOM, 50 Đường Lê Văn Việt, Phường Hiệp Phú, Thủ Đức, Hồ Chí Minh, Việt Nam",
        "country_code": "VNM",
        "country_name": "Việt Nam",
        "city": "Hồ Chí Minh",
        "district": "Thủ Đức",
        "ward": "Phường Hiệp Phú",
        "street": "Đường Lê Văn Việt",
        "postal_code": "71206",
        "categories": [
            {
                "name": "Trung tâm mua sắm hoặc trung tâm thương mại"
            }
        ]
    },
    {
        "name": "Trung Tâm Thương Mại Thủ Đức",
        "latitude": 10.85102,
        "longitude": 106.75514,
        "address": "Trung Tâm Thương Mại Thủ Đức, Đường Võ Văn Ngân, Phường Linh Chiểu, Thủ Đức, Hồ Chí Minh, Việt Nam",
        "country_code": "VNM",
        "country_name": "Việt Nam",
        "city": "Hồ Chí Minh",
        "district": "Thủ Đức",
        "ward": "Phường Linh Chiểu",
        "street": "Đường Võ Văn Ngân",
        "postal_code": "71307",
        "categories": [
            {
                "name": "Trung tâm mua sắm hoặc trung tâm thương mại"
            }
        ]
    },
    {
        "name": "Chợ Thủ Đức",
        "latitude": 10.85095,
        "longitude": 106.75478,
        "address": "Chợ Thủ Đức, Đường Ngã Năm Thủ Đức, Phường Linh Tây, Thủ Đức, Hồ Chí Minh, Việt Nam",
        "country_code": "VNM",
        "country_name": "Việt Nam",
        "city": "Hồ Chí Minh",
        "district": "Thủ Đức",
        "ward": "Phường Linh Tây",
        "street": "Đường Ngã Năm Thủ Đức",
        "postal_code": "71310",
        "categories": [
            {
                "name": "Trung tâm mua sắm hoặc trung tâm thương mại"
            }
        ]
    },
    {
        "name": "Phát Đạt",
        "latitude": 10.92231,
        "longitude": 106.71725,
        "address": "Phát Đạt, Đường Bùi Hữu Nghĩa, Phường Bình Hòa, Thuận An, Bình Dương, Việt Nam",
        "country_code": "VNM",
        "country_name": "Việt Nam",
        "city": "Bình Dương",
        "district": "Thuận An",
        "ward": "Phường Bình Hòa",
        "street": "Đường Bùi Hữu Nghĩa",
        "postal_code": "75208",
        "categories": [
            {
                "name": "Trung tâm mua sắm hoặc trung tâm thương mại"
            },
            {
                "name": "Dịch vụ ăn uống và thực phẩm"
            }
        ]
    },
    {
        "name": "Ái VI Bách Hóa Tổng Hợp",
        "latitude": 10.95548,
        "longitude": 106.8541,
        "address": "Ái VI Bách Hóa Tổng Hợp, Hẻm 738 Phạm Văn Thuận, Phường Tam Hiệp, Biên Hòa, Đồng Nai, Việt Nam",
        "country_code": "VNM",
        "country_name": "Việt Nam",
        "city": "Đồng Nai",
        "district": "Biên Hòa",
        "ward": "Phường Tam Hiệp",
        "street": "Hẻm 738 Phạm Văn Thuận",
        "postal_code": "76109",
        "categories": [
            {
                "name": "Trung tâm mua sắm hoặc trung tâm thương mại"
            }
        ]
    },
    {
        "name": "Co.Op Food",
        "latitude": 10.86018,
        "longitude": 106.73861,
        "address": "Co.Op Food, 43 Đường Cây Keo, Phường Tam Phú, Thủ Đức, Hồ Chí Minh, Việt Nam",
        "country_code": "VNM",
        "country_name": "Việt Nam",
        "city": "Hồ Chí Minh",
        "district": "Thủ Đức",
        "ward": "Phường Tam Phú",
        "street": "Đường Cây Keo",
        "postal_code": "71311",
        "categories": [
            {
                "name": "Trung tâm mua sắm hoặc trung tâm thương mại"
            }
        ]
    },
    {
        "name": "Điện Lạnh Phú Lam",
        "latitude": 10.83915,
        "longitude": 106.77587,
        "address": "Điện Lạnh Phú Lam, Đường Trương Văn Hải, Phường Tăng Nhơn Phú B, Thủ Đức, Hồ Chí Minh, Việt Nam",
        "country_code": "VNM",
        "country_name": "Việt Nam",
        "city": "Hồ Chí Minh",
        "district": "Thủ Đức",
        "ward": "Phường Tăng Nhơn Phú B",
        "street": "Đường Trương Văn Hải",
        "postal_code": "71211",
        "categories": [
            {
                "name": "Trung tâm mua sắm hoặc trung tâm thương mại"
            }
        ]
    },
    {
        "name": "Lotte Mart Bình Dương",
        "latitude": 10.90569,
        "longitude": 106.7126,
        "address": "Lotte Mart Bình Dương, Đại Lộ Bình Dương, Phường Lái Thiêu, Thuận An, Bình Dương, Việt Nam",
        "country_code": "VNM",
        "country_name": "Việt Nam",
        "city": "Bình Dương",
        "district": "Thuận An",
        "ward": "Phường Lái Thiêu",
        "street": "Đại Lộ Bình Dương",
        "postal_code": "75206",
        "categories": [
            {
                "name": "Trung tâm mua sắm hoặc trung tâm thương mại"
            },
            {
                "name": "Siêu thị"
            }
        ]
    },
    {
        "name": "Cửa Hàng FTP",
        "latitude": 10.96709,
        "longitude": 106.85373,
        "address": "Cửa Hàng FTP, Đường Đồng Khởi, Phường Tân Phong, Biên Hòa, Đồng Nai, Việt Nam",
        "country_code": "VNM",
        "country_name": "Việt Nam",
        "city": "Đồng Nai",
        "district": "Biên Hòa",
        "ward": "Phường Tân Phong",
        "street": "Đường Đồng Khởi",
        "postal_code": "76117",
        "categories": [
            {
                "name": "Trung tâm mua sắm hoặc trung tâm thương mại"
            }
        ]
    },
    {
        "name": "Go Tân Hiệp",
        "latitude": 10.96709,
        "longitude": 106.85501,
        "address": "Go Tân Hiệp, Đường Nguyễn Ái Quốc, Phường Trảng Dài, Biên Hòa, Đồng Nai, Việt Nam",
        "country_code": "VNM",
        "country_name": "Việt Nam",
        "city": "Đồng Nai",
        "district": "Biên Hòa",
        "ward": "Phường Trảng Dài",
        "street": "Đường Nguyễn Ái Quốc",
        "postal_code": "76116",
        "categories": [
            {
                "name": "Trung tâm mua sắm hoặc trung tâm thương mại"
            }
        ]
    },
    {
        "name": "Minh Sáng Plaza",
        "latitude": 10.93631,
        "longitude": 106.70993,
        "address": "Minh Sáng Plaza, Đại Lộ Bình Dương, Phường Thuận Giao, Thuận An, Bình Dương, Việt Nam",
        "country_code": "VNM",
        "country_name": "Việt Nam",
        "city": "Bình Dương",
        "district": "Thuận An",
        "ward": "Phường Thuận Giao",
        "street": "Đại Lộ Bình Dương",
        "postal_code": "75211",
        "categories": [
            {
                "name": "Trung tâm mua sắm hoặc trung tâm thương mại"
            },
            {
                "name": "Điểm sự kiện"
            }
        ]
    },
    {
        "name": "Điện Máy Huy Hoàng",
        "latitude": 10.96889,
        "longitude": 106.72608,
        "address": "Điện Máy Huy Hoàng, Đường Bình Chuẩn 27, Phường Thuận Giao, Thuận An, Bình Dương, Việt Nam",
        "country_code": "VNM",
        "country_name": "Việt Nam",
        "city": "Bình Dương",
        "district": "Thuận An",
        "ward": "Phường Thuận Giao",
        "street": "Đường Bình Chuẩn 27",
        "postal_code": "75211",
        "categories": [
            {
                "name": "Trung tâm mua sắm hoặc trung tâm thương mại"
            }
        ]
    },
    {
        "name": "Chợ Tân Phong",
        "latitude": 10.97876,
        "longitude": 106.84798,
        "address": "Chợ Tân Phong, Đường Đồng Khởi, Phường Tân Phong, Biên Hòa, Đồng Nai, Việt Nam",
        "country_code": "VNM",
        "country_name": "Việt Nam",
        "city": "Đồng Nai",
        "district": "Biên Hòa",
        "ward": "Phường Tân Phong",
        "street": "Đường Đồng Khởi",
        "postal_code": "76117",
        "categories": [
            {
                "name": "Trung tâm mua sắm hoặc trung tâm thương mại"
            }
        ]
    },
    {
        "name": "Xe Cũ",
        "latitude": 10.95184,
        "longitude": 106.87079,
        "address": "Xe Cũ, Đường Đồng Khởi, Phường Tân Hiệp, Biên Hòa, Đồng Nai, Việt Nam",
        "country_code": "VNM",
        "country_name": "Việt Nam",
        "city": "Đồng Nai",
        "district": "Biên Hòa",
        "ward": "Phường Tân Hiệp",
        "street": "Đường Đồng Khởi",
        "postal_code": "76111",
        "categories": [
            {
                "name": "Trung tâm mua sắm hoặc trung tâm thương mại"
            }
        ]
    },
    {
        "name": "Trung Tâm Vui Chơi & Mua Sắm Tổng Hợp Sim Maxx",
        "latitude": 10.95803,
        "longitude": 106.71589,
        "address": "Trung Tâm Vui Chơi & Mua Sắm Tổng Hợp Sim Maxx, Đường N9, Phường Thuận Giao, Thuận An, Bình Dương, Việt Nam",
        "country_code": "VNM",
        "country_name": "Việt Nam",
        "city": "Bình Dương",
        "district": "Thuận An",
        "ward": "Phường Thuận Giao",
        "street": "Đường N9",
        "postal_code": "75211",
        "categories": [
            {
                "name": "Trung tâm mua sắm hoặc trung tâm thương mại"
            }
        ]
    },
    {
        "name": "Siêu Thị Điện Máy Thiên Hòa",
        "latitude": 10.95036,
        "longitude": 106.70687,
        "address": "Siêu Thị Điện Máy Thiên Hòa, Đường 22 Tháng 12, Phường Thuận Giao, Thuận An, Bình Dương, Việt Nam",
        "country_code": "VNM",
        "country_name": "Việt Nam",
        "city": "Bình Dương",
        "district": "Thuận An",
        "ward": "Phường Thuận Giao",
        "street": "Đường 22 Tháng 12",
        "postal_code": "75211",
        "categories": [
            {
                "name": "Trung tâm mua sắm hoặc trung tâm thương mại"
            }
        ]
    },
    {
        "name": "Thiên Hòa Plaza",
        "latitude": 10.95053,
        "longitude": 106.70645,
        "address": "Thiên Hòa Plaza, Đại Lộ Bình Dương, Phường Hưng Định, Thuận An, Bình Dương, Việt Nam",
        "country_code": "VNM",
        "country_name": "Việt Nam",
        "city": "Bình Dương",
        "district": "Thuận An",
        "ward": "Phường Hưng Định",
        "street": "Đại Lộ Bình Dương",
        "postal_code": "75213",
        "categories": [
            {
                "name": "Cửa hàng điện tử gia dụng"
            },
            {
                "name": "Trung tâm mua sắm hoặc trung tâm thương mại"
            },
            {
                "name": "Hàng tiêu dùng"
            }
        ]
    },
    {
        "name": "Siêu Thị Vinatex",
        "latitude": 10.90302,
        "longitude": 106.69902,
        "address": "Siêu Thị Vinatex, Đường Phan Đình Phùng, Phường Lái Thiêu, Thuận An, Bình Dương, Việt Nam",
        "country_code": "VNM",
        "country_name": "Việt Nam",
        "city": "Bình Dương",
        "district": "Thuận An",
        "ward": "Phường Lái Thiêu",
        "street": "Đường Phan Đình Phùng",
        "postal_code": "75206",
        "categories": [
            {
                "name": "Trung tâm mua sắm hoặc trung tâm thương mại"
            },
            {
                "name": "Siêu thị"
            }
        ]
    },
    {
        "name": "Siêu Thị Thuận Giao",
        "latitude": 10.95173,
        "longitude": 106.70528,
        "address": "Siêu Thị Thuận Giao, Đại Lộ Bình Dương, Phường Thuận Giao, Thuận An, Bình Dương, Việt Nam",
        "country_code": "VNM",
        "country_name": "Việt Nam",
        "city": "Bình Dương",
        "district": "Thuận An",
        "ward": "Phường Thuận Giao",
        "street": "Đại Lộ Bình Dương",
        "postal_code": "75211",
        "categories": [
            {
                "name": "Trung tâm mua sắm hoặc trung tâm thương mại"
            }
        ]
    },
    {
        "name": "Chợ Đêm Hòa Lâm",
        "latitude": 10.95457,
        "longitude": 106.70057,
        "address": "Chợ Đêm Hòa Lâm, Hẻm 1 Đường Thủ Khoa Huân, Phường An Thạnh, Thuận An, Bình Dương, Việt Nam",
        "country_code": "VNM",
        "country_name": "Việt Nam",
        "city": "Bình Dương",
        "district": "Thuận An",
        "ward": "Phường An Thạnh",
        "street": "Hẻm 1 Đường Thủ Khoa Huân",
        "postal_code": "75212",
        "categories": [
            {
                "name": "Trung tâm mua sắm hoặc trung tâm thương mại"
            }
        ]
    },
    {
        "name": "Cửa Hàng Tiện Lợi Kim Tiến Mart",
        "latitude": 10.95505,
        "longitude": 106.69096,
        "address": "Cửa Hàng Tiện Lợi Kim Tiến Mart, 3 Hẻm 667 Đường N4, Phường An Thạnh, Thuận An, Bình Dương, Việt Nam",
        "country_code": "VNM",
        "country_name": "Việt Nam",
        "city": "Bình Dương",
        "district": "Thuận An",
        "ward": "Phường An Thạnh",
        "street": "Hẻm 667 Đường N4",
        "postal_code": "75212",
        "categories": [
            {
                "name": "Trung tâm mua sắm hoặc trung tâm thương mại"
            }
        ]
    },
    {
        "name": "Co.opmart",
        "latitude": 10.83245,
        "longitude": 106.71536,
        "address": "Co.opmart, Đường Số 10, Phường Hiệp Bình Chánh, Thủ Đức, Hồ Chí Minh, Việt Nam",
        "country_code": "VNM",
        "country_name": "Việt Nam",
        "city": "Hồ Chí Minh",
        "district": "Thủ Đức",
        "ward": "Phường Hiệp Bình Chánh",
        "street": "Đường Số 10",
        "postal_code": "71315",
        "categories": [
            {
                "name": "Trung tâm mua sắm hoặc trung tâm thương mại"
            }
        ]
    },
    {
        "name": "Giga Market",
        "latitude": 10.82767,
        "longitude": 106.72102,
        "address": "Giga Market, 240-242 Đường Phạm Văn Đồng, Phường Hiệp Bình Chánh, Thủ Đức, Hồ Chí Minh, Việt Nam",
        "country_code": "VNM",
        "country_name": "Việt Nam",
        "city": "Hồ Chí Minh",
        "district": "Thủ Đức",
        "ward": "Phường Hiệp Bình Chánh",
        "street": "Đường Phạm Văn Đồng",
        "postal_code": "71315",
        "categories": [
            {
                "name": "Trung tâm mua sắm hoặc trung tâm thương mại"
            },
            {
                "name": "Nhà hàng"
            },
            {
                "name": "Cửa hàng món ngon"
            },
            {
                "name": "Siêu thị"
            }
        ]
    },
    {
        "name": "Trung Tâm Thương Mại",
        "latitude": 10.88578,
        "longitude": 106.682,
        "address": "Trung Tâm Thương Mại, 717A Đường Hà Huy Giáp, Phường Thạnh Xuân, Quận 12, Hồ Chí Minh, Việt Nam",
        "country_code": "VNM",
        "country_name": "Việt Nam",
        "city": "Hồ Chí Minh",
        "district": "Quận 12",
        "ward": "Phường Thạnh Xuân",
        "street": "Đường Hà Huy Giáp",
        "postal_code": "71514",
        "categories": [
            {
                "name": "Trung tâm mua sắm hoặc trung tâm thương mại"
            }
        ]
    },
    {
        "name": "Metro",
        "latitude": 10.96376,
        "longitude": 106.68841,
        "address": "Metro, Đại Lộ Bình Dương, Phường Phú Hòa, Thủ Dầu Một, Bình Dương, Việt Nam",
        "country_code": "VNM",
        "country_name": "Việt Nam",
        "city": "Bình Dương",
        "district": "Thủ Dầu Một",
        "ward": "Phường Phú Hòa",
        "street": "Đại Lộ Bình Dương",
        "postal_code": "75109",
        "categories": [
            {
                "name": "Trung tâm mua sắm hoặc trung tâm thương mại"
            }
        ]
    },
    {
        "name": "Chợ Bình Triệu",
        "latitude": 10.82981,
        "longitude": 106.71495,
        "address": "Chợ Bình Triệu, Đường Số 6, Phường Hiệp Bình Chánh, Thủ Đức, Hồ Chí Minh, Việt Nam",
        "country_code": "VNM",
        "country_name": "Việt Nam",
        "city": "Hồ Chí Minh",
        "district": "Thủ Đức",
        "ward": "Phường Hiệp Bình Chánh",
        "street": "Đường Số 6",
        "postal_code": "71315",
        "categories": [
            {
                "name": "Trung tâm mua sắm hoặc trung tâm thương mại"
            }
        ]
    },
    {
        "name": "Fame Nails Thảo Điền",
        "latitude": 10.81596,
        "longitude": 106.73361,
        "address": "Fame Nails Thảo Điền, Hẻm 197 Nguyễn Văn Hưởng, Phường Thảo Điền, Thủ Đức, Hồ Chí Minh, Việt Nam",
        "country_code": "VNM",
        "country_name": "Việt Nam",
        "city": "Hồ Chí Minh",
        "district": "Thủ Đức",
        "ward": "Phường Thảo Điền",
        "street": "Hẻm 197 Nguyễn Văn Hưởng",
        "postal_code": "71107",
        "categories": [
            {
                "name": "Trung tâm mua sắm hoặc trung tâm thương mại"
            }
        ]
    },
    {
        "name": "Phiên Chợ Vui",
        "latitude": 10.82693,
        "longitude": 106.71494,
        "address": "Phiên Chợ Vui, Đường Kha Vạn Cân, Phường Hiệp Bình Chánh, Thủ Đức, Hồ Chí Minh, Việt Nam",
        "country_code": "VNM",
        "country_name": "Việt Nam",
        "city": "Hồ Chí Minh",
        "district": "Thủ Đức",
        "ward": "Phường Hiệp Bình Chánh",
        "street": "Đường Kha Vạn Cân",
        "postal_code": "71315",
        "categories": [
            {
                "name": "Trung tâm mua sắm hoặc trung tâm thương mại"
            }
        ]
    },
    {
        "name": "186 Catering Grocery Bistro Bakery",
        "latitude": 10.81676,
        "longitude": 106.72878,
        "address": "186 Catering Grocery Bistro Bakery, 186 Đường Nguyễn Văn Hưởng, Phường Thảo Điền, Thủ Đức, Hồ Chí Minh, Việt Nam",
        "country_code": "VNM",
        "country_name": "Việt Nam",
        "city": "Hồ Chí Minh",
        "district": "Thủ Đức",
        "ward": "Phường Thảo Điền",
        "street": "Đường Nguyễn Văn Hưởng",
        "postal_code": "71107",
        "categories": [
            {
                "name": "Trung tâm mua sắm hoặc trung tâm thương mại"
            },
            {
                "name": "Quán rượu nhỏ"
            }
        ]
    },
    {
        "name": "Trung Tâm Mua Sắm Chung Tiến 2",
        "latitude": 11.01324,
        "longitude": 106.85183,
        "address": "Trung Tâm Mua Sắm Chung Tiến 2, Đường Ranh Xã Thiện Tân Thạnh Phú, Xã Thạnh Phú, Huyện Vĩnh Cửu, Đồng Nai, Việt Nam",
        "country_code": "VNM",
        "country_name": "Việt Nam",
        "city": "Đồng Nai",
        "district": "Huyện Vĩnh Cửu",
        "ward": "Xã Thạnh Phú",
        "street": "Đường Ranh Xã Thiện Tân Thạnh Phú",
        "postal_code": "76914",
        "categories": [
            {
                "name": "Trung tâm mua sắm hoặc trung tâm thương mại"
            }
        ]
    },
    {
        "name": "Tiệm Vàng Bích Thu",
        "latitude": 10.81588,
        "longitude": 106.72127,
        "address": "Tiệm Vàng Bích Thu, Đường Thanh Đa, Phường 27, Quận Bình Thạnh, Hồ Chí Minh, Việt Nam",
        "country_code": "VNM",
        "country_name": "Việt Nam",
        "city": "Hồ Chí Minh",
        "district": "Quận Bình Thạnh",
        "ward": "Phường 27",
        "street": "Đường Thanh Đa",
        "postal_code": "72309",
        "categories": [
            {
                "name": "Trung tâm mua sắm hoặc trung tâm thương mại"
            }
        ]
    },
    {
        "name": "Cantavil",
        "latitude": 10.80233,
        "longitude": 106.74656,
        "address": "Cantavil, Xa Lộ Hà Nội, Phường An Phú, Thủ Đức, Hồ Chí Minh, Việt Nam",
        "country_code": "VNM",
        "country_name": "Việt Nam",
        "city": "Hồ Chí Minh",
        "district": "Thủ Đức",
        "ward": "Phường An Phú",
        "street": "Xa Lộ Hà Nội",
        "postal_code": "71106",
        "categories": [
            {
                "name": "Trung tâm mua sắm hoặc trung tâm thương mại"
            }
        ]
    },
    {
        "name": "Tops Market",
        "latitude": 10.80187,
        "longitude": 106.74704,
        "address": "Tops Market, Đường Song Hành, Phường An Phú, Thủ Đức, Hồ Chí Minh, Việt Nam",
        "country_code": "VNM",
        "country_name": "Việt Nam",
        "city": "Hồ Chí Minh",
        "district": "Thủ Đức",
        "ward": "Phường An Phú",
        "street": "Đường Song Hành",
        "postal_code": "71106",
        "categories": [
            {
                "name": "Trung tâm mua sắm hoặc trung tâm thương mại"
            }
        ]
    },
    {
        "name": "Estella Place",
        "latitude": 10.8007,
        "longitude": 106.74872,
        "address": "Estella Place, Đường Song Hành, Phường An Phú, Thủ Đức, Hồ Chí Minh, Việt Nam",
        "country_code": "VNM",
        "country_name": "Việt Nam",
        "city": "Hồ Chí Minh",
        "district": "Thủ Đức",
        "ward": "Phường An Phú",
        "street": "Đường Song Hành",
        "postal_code": "71106",
        "categories": [
            {
                "name": "Trung tâm mua sắm hoặc trung tâm thương mại"
            }
        ]
    },
    {
        "name": "BLOQ",
        "latitude": 10.80453,
        "longitude": 106.73943,
        "address": "BLOQ, 2 Đường Trần Ngọc Diện, Phường Thảo Điền, Thủ Đức, Hồ Chí Minh, Việt Nam",
        "country_code": "VNM",
        "country_name": "Việt Nam",
        "city": "Hồ Chí Minh",
        "district": "Thủ Đức",
        "ward": "Phường Thảo Điền",
        "street": "Đường Trần Ngọc Diện",
        "postal_code": "71107",
        "categories": [
            {
                "name": "Trung tâm mua sắm hoặc trung tâm thương mại"
            }
        ]
    },
    {
        "name": "Vincom Mega Mall Thảo Điền",
        "latitude": 10.80248,
        "longitude": 106.74077,
        "address": "Vincom Mega Mall Thảo Điền, 161 Đường Song Hành Xa Lộ Hà Nội, Phường Thảo Điền, Thủ Đức, Hồ Chí Minh, Việt Nam",
        "country_code": "VNM",
        "country_name": "Việt Nam",
        "city": "Hồ Chí Minh",
        "district": "Thủ Đức",
        "ward": "Phường Thảo Điền",
        "street": "Đường Song Hành Xa Lộ Hà Nội",
        "postal_code": "71107",
        "categories": [
            {
                "name": "Trung tâm mua sắm hoặc trung tâm thương mại"
            }
        ]
    },
    {
        "name": "Little Thaodien",
        "latitude": 10.80372,
        "longitude": 106.73485,
        "address": "Little Thaodien, 94 Đường Xuân Thủy, Phường Thảo Điền, Thủ Đức, Hồ Chí Minh, Việt Nam",
        "country_code": "VNM",
        "country_name": "Việt Nam",
        "city": "Hồ Chí Minh",
        "district": "Thủ Đức",
        "ward": "Phường Thảo Điền",
        "street": "Đường Xuân Thủy",
        "postal_code": "71107",
        "categories": [
            {
                "name": "Trung tâm mua sắm hoặc trung tâm thương mại"
            },
            {
                "name": "Cửa hàng bán đồ gia dụng/Nội thất"
            },
            {
                "name": "Phụ kiện nội thất và gia đình"
            }
        ]
    },
    {
        "name": "Chợ An Nhơn",
        "latitude": 10.8554,
        "longitude": 106.67982,
        "address": "Chợ An Nhơn, Hẻm 106 Hà Huy Giáp, Phường Thạnh Lộc, Quận 12, Hồ Chí Minh, Việt Nam",
        "country_code": "VNM",
        "country_name": "Việt Nam",
        "city": "Hồ Chí Minh",
        "district": "Quận 12",
        "ward": "Phường Thạnh Lộc",
        "street": "Hẻm 106 Hà Huy Giáp",
        "postal_code": "71515",
        "categories": [
            {
                "name": "Trung tâm mua sắm hoặc trung tâm thương mại"
            }
        ]
    },
    {
        "name": "Chợ Phú Hòa",
        "latitude": 10.98628,
        "longitude": 106.68614,
        "address": "Chợ Phú Hòa, Đường Phú Lợi, Phường Phú Lợi, Thủ Dầu Một, Bình Dương, Việt Nam",
        "country_code": "VNM",
        "country_name": "Việt Nam",
        "city": "Bình Dương",
        "district": "Thủ Dầu Một",
        "ward": "Phường Phú Lợi",
        "street": "Đường Phú Lợi",
        "postal_code": "75110",
        "categories": [
            {
                "name": "Trung tâm mua sắm hoặc trung tâm thương mại"
            }
        ]
    },
    {
        "name": "Thời Trang Cao Cấp Việt Tiến",
        "latitude": 10.81226,
        "longitude": 106.71551,
        "address": "Thời Trang Cao Cấp Việt Tiến, Đường Xô Viết Nghệ Tĩnh, Phường 25, Quận Bình Thạnh, Hồ Chí Minh, Việt Nam",
        "country_code": "VNM",
        "country_name": "Việt Nam",
        "city": "Hồ Chí Minh",
        "district": "Quận Bình Thạnh",
        "ward": "Phường 25",
        "street": "Đường Xô Viết Nghệ Tĩnh",
        "postal_code": "72308",
        "categories": [
            {
                "name": "Trung tâm mua sắm hoặc trung tâm thương mại"
            }
        ]
    },
    {
        "name": "Vincom+ Quận 2",
        "latitude": 10.78854,
        "longitude": 106.76575,
        "address": "Vincom+ Quận 2, 307 Đường Nguyễn Duy Trinh, Phường Bình Trưng Tây, Thủ Đức, Hồ Chí Minh, Việt Nam",
        "country_code": "VNM",
        "country_name": "Việt Nam",
        "city": "Hồ Chí Minh",
        "district": "Thủ Đức",
        "ward": "Phường Bình Trưng Tây",
        "street": "Đường Nguyễn Duy Trinh",
        "postal_code": "71113",
        "categories": [
            {
                "name": "Trung tâm mua sắm hoặc trung tâm thương mại"
            }
        ]
    },
    {
        "name": "Vincom",
        "latitude": 10.81616,
        "longitude": 106.70723,
        "address": "Vincom, 188 Đường Nguyễn Xí, Phường 26, Quận Bình Thạnh, Hồ Chí Minh, Việt Nam",
        "country_code": "VNM",
        "country_name": "Việt Nam",
        "city": "Hồ Chí Minh",
        "district": "Quận Bình Thạnh",
        "ward": "Phường 26",
        "street": "Đường Nguyễn Xí",
        "postal_code": "72310",
        "categories": [
            {
                "name": "Trung tâm mua sắm hoặc trung tâm thương mại"
            }
        ]
    },
    {
        "name": "Cửa Hàng Văn Phòng Phẩm Tuấn Trang",
        "latitude": 10.8122,
        "longitude": 106.70677,
        "address": "Cửa Hàng Văn Phòng Phẩm Tuấn Trang, 36 Đường Số 8, Phường 26, Quận Bình Thạnh, Hồ Chí Minh, Việt Nam",
        "country_code": "VNM",
        "country_name": "Việt Nam",
        "city": "Hồ Chí Minh",
        "district": "Quận Bình Thạnh",
        "ward": "Phường 26",
        "street": "Đường Số 8",
        "postal_code": "72310",
        "categories": [
            {
                "name": "Trung tâm mua sắm hoặc trung tâm thương mại"
            }
        ]
    },
    {
        "name": "Emart",
        "latitude": 10.82287,
        "longitude": 106.69288,
        "address": "Emart, Đường Phan Văn Trị, Phường 5, Quận Gò Vấp, Hồ Chí Minh, Việt Nam",
        "country_code": "VNM",
        "country_name": "Việt Nam",
        "city": "Hồ Chí Minh",
        "district": "Quận Gò Vấp",
        "ward": "Phường 5",
        "street": "Đường Phan Văn Trị",
        "postal_code": "71411",
        "categories": [
            {
                "name": "Trung tâm mua sắm hoặc trung tâm thương mại"
            }
        ]
    },
    {
        "name": "VINCOM",
        "latitude": 10.82701,
        "longitude": 106.68903,
        "address": "VINCOM, Đường Nguyễn Thái Sơn, Phường 5, Quận Gò Vấp, Hồ Chí Minh, Việt Nam",
        "country_code": "VNM",
        "country_name": "Việt Nam",
        "city": "Hồ Chí Minh",
        "district": "Quận Gò Vấp",
        "ward": "Phường 5",
        "street": "Đường Nguyễn Thái Sơn",
        "postal_code": "71411",
        "categories": [
            {
                "name": "Trung tâm mua sắm hoặc trung tâm thương mại"
            }
        ]
    },
    {
        "name": "Chợ An Nhơn",
        "latitude": 10.84151,
        "longitude": 106.67733,
        "address": "Chợ An Nhơn, Đường Lê Đức Thọ, Phường 17, Quận Gò Vấp, Hồ Chí Minh, Việt Nam",
        "country_code": "VNM",
        "country_name": "Việt Nam",
        "city": "Hồ Chí Minh",
        "district": "Quận Gò Vấp",
        "ward": "Phường 17",
        "street": "Đường Lê Đức Thọ",
        "postal_code": "71413",
        "categories": [
            {
                "name": "Trung tâm mua sắm hoặc trung tâm thương mại"
            },
            {
                "name": "Siêu thị"
            },
            {
                "name": "Chợ"
            }
        ]
    },
    {
        "name": "ĐT- TM - DV Nữ Hoàng",
        "latitude": 10.78446,
        "longitude": 106.7581,
        "address": "ĐT- TM - DV Nữ Hoàng, Đường Số 6, Phường Bình Trưng Tây, Thủ Đức, Hồ Chí Minh, Việt Nam",
        "country_code": "VNM",
        "country_name": "Việt Nam",
        "city": "Hồ Chí Minh",
        "district": "Thủ Đức",
        "ward": "Phường Bình Trưng Tây",
        "street": "Đường Số 6",
        "postal_code": "71113",
        "categories": [
            {
                "name": "Trung tâm mua sắm hoặc trung tâm thương mại"
            }
        ]
    },
    {
        "name": "Co.Opmart",
        "latitude": 10.79974,
        "longitude": 106.71828,
        "address": "Co.Opmart, Đường Điện Biên Phủ, Phường 25, Quận Bình Thạnh, Hồ Chí Minh, Việt Nam",
        "country_code": "VNM",
        "country_name": "Việt Nam",
        "city": "Hồ Chí Minh",
        "district": "Quận Bình Thạnh",
        "ward": "Phường 25",
        "street": "Đường Điện Biên Phủ",
        "postal_code": "72308",
        "categories": [
            {
                "name": "Trung tâm mua sắm hoặc trung tâm thương mại"
            }
        ]
    },
    {
        "name": "Cửa Hàng Bách Hóa Tự Chọn Gia Đình",
        "latitude": 10.8343,
        "longitude": 106.67924,
        "address": "Cửa Hàng Bách Hóa Tự Chọn Gia Đình, Hẻm 40 Lê Thị Hồng, Phường 17, Quận Gò Vấp, Hồ Chí Minh, Việt Nam",
        "country_code": "VNM",
        "country_name": "Việt Nam",
        "city": "Hồ Chí Minh",
        "district": "Quận Gò Vấp",
        "ward": "Phường 17",
        "street": "Hẻm 40 Lê Thị Hồng",
        "postal_code": "71413",
        "categories": [
            {
                "name": "Trung tâm mua sắm hoặc trung tâm thương mại"
            },
            {
                "name": "Cửa hàng tiện lợi"
            }
        ]
    },
    {
        "name": "VINCOM",
        "latitude": 10.79473,
        "longitude": 106.72229,
        "address": "VINCOM, Điện Biên Phủ, Phường 22, Quận Bình Thạnh, Hồ Chí Minh, Việt Nam",
        "country_code": "VNM",
        "country_name": "Việt Nam",
        "city": "Hồ Chí Minh",
        "district": "Quận Bình Thạnh",
        "ward": "Phường 22",
        "street": "Điện Biên Phủ",
        "postal_code": "72324",
        "categories": [
            {
                "name": "Trung tâm mua sắm hoặc trung tâm thương mại"
            }
        ]
    },
    {
        "name": "Boo's Boutique",
        "latitude": 10.82914,
        "longitude": 106.6813,
        "address": "Boo's Boutique, Đường Số 7, Phường 7, Quận Gò Vấp, Hồ Chí Minh, Việt Nam",
        "country_code": "VNM",
        "country_name": "Việt Nam",
        "city": "Hồ Chí Minh",
        "district": "Quận Gò Vấp",
        "ward": "Phường 7",
        "street": "Đường Số 7",
        "postal_code": "71407",
        "categories": [
            {
                "name": "Quần áo & Phụ kiện"
            },
            {
                "name": "Trung tâm mua sắm hoặc trung tâm thương mại"
            },
            {
                "name": "Hàng tiêu dùng"
            }
        ]
    },
    {
        "name": "Cửa Hàng Tiện Lợi",
        "latitude": 10.83195,
        "longitude": 106.67776,
        "address": "Cửa Hàng Tiện Lợi, Đường Lê Thị Hồng, Phường 17, Quận Gò Vấp, Hồ Chí Minh, Việt Nam",
        "country_code": "VNM",
        "country_name": "Việt Nam",
        "city": "Hồ Chí Minh",
        "district": "Quận Gò Vấp",
        "ward": "Phường 17",
        "street": "Đường Lê Thị Hồng",
        "postal_code": "71413",
        "categories": [
            {
                "name": "Cửa hàng tiện lợi"
            },
            {
                "name": "Trung tâm mua sắm hoặc trung tâm thương mại"
            }
        ]
    },
    {
        "name": "189 Nguyễn Oanh - Gò Vấp",
        "latitude": 10.83473,
        "longitude": 106.67566,
        "address": "189 Nguyễn Oanh - Gò Vấp, 189 Hẻm 192 Nguyễn Oanh, Phường 10, Quận Gò Vấp, Hồ Chí Minh, Việt Nam",
        "country_code": "VNM",
        "country_name": "Việt Nam",
        "city": "Hồ Chí Minh",
        "district": "Quận Gò Vấp",
        "ward": "Phường 10",
        "street": "Hẻm 192 Nguyễn Oanh",
        "postal_code": "71406",
        "categories": [
            {
                "name": "Trung tâm mua sắm hoặc trung tâm thương mại"
            },
            {
                "name": "Phụ kiện nội thất và gia đình"
            },
            {
                "name": "Hàng tiêu dùng"
            }
        ]
    },
    {
        "name": "Thit",
        "latitude": 10.90609,
        "longitude": 106.64933,
        "address": "Thit, Đường Đông Thạnh 6, Xã Đông Thạnh, Huyện Hóc Môn, Hồ Chí Minh, Việt Nam",
        "country_code": "VNM",
        "country_name": "Việt Nam",
        "city": "Hồ Chí Minh",
        "district": "Huyện Hóc Môn",
        "ward": "Xã Đông Thạnh",
        "street": "Đường Đông Thạnh 6",
        "postal_code": "71708",
        "categories": [
            {
                "name": "Trung tâm mua sắm hoặc trung tâm thương mại"
            }
        ]
    },
    {
        "name": "Siêu Thị Văn Hóa Văn Lang",
        "latitude": 10.82649,
        "longitude": 106.67987,
        "address": "Siêu Thị Văn Hóa Văn Lang, Đường Quang Trung, Phường 10, Quận Gò Vấp, Hồ Chí Minh, Việt Nam",
        "country_code": "VNM",
        "country_name": "Việt Nam",
        "city": "Hồ Chí Minh",
        "district": "Quận Gò Vấp",
        "ward": "Phường 10",
        "street": "Đường Quang Trung",
        "postal_code": "71406",
        "categories": [
            {
                "name": "Trung tâm mua sắm hoặc trung tâm thương mại"
            }
        ]
    },
    {
        "name": "Go! Go Vap",
        "latitude": 10.82581,
        "longitude": 106.68022,
        "address": "Go! Go Vap, Đường Phạm Ngũ Lão, Phường 3, Quận Gò Vấp, Hồ Chí Minh, Việt Nam",
        "country_code": "VNM",
        "country_name": "Việt Nam",
        "city": "Hồ Chí Minh",
        "district": "Quận Gò Vấp",
        "ward": "Phường 3",
        "street": "Đường Phạm Ngũ Lão",
        "postal_code": "71409",
        "categories": [
            {
                "name": "Trung tâm mua sắm hoặc trung tâm thương mại"
            }
        ]
    },
    {
        "name": "Bình Dương Square",
        "latitude": 10.98384,
        "longitude": 106.66698,
        "address": "Bình Dương Square, Bình Dương square, Phường Phú Lợi, Thủ Dầu Một, Bình Dương, Việt Nam",
        "country_code": "VNM",
        "country_name": "Việt Nam",
        "city": "Bình Dương",
        "district": "Thủ Dầu Một",
        "ward": "Phường Phú Lợi",
        "street": "Bình Dương square",
        "postal_code": "75110",
        "categories": [
            {
                "name": "Trung tâm mua sắm hoặc trung tâm thương mại"
            },
            {
                "name": "Dịch vụ kinh doanh"
            },
            {
                "name": "Câu lạc bộ thể dục hoặc sức khỏe"
            }
        ]
    },
    {
        "name": "Cửa Hàng Thực Phẩm Tiện Lợi",
        "latitude": 10.84851,
        "longitude": 106.66461,
        "address": "Cửa Hàng Thực Phẩm Tiện Lợi, 551 Đường Thống Nhất, Phường 16, Quận Gò Vấp, Hồ Chí Minh, Việt Nam",
        "country_code": "VNM",
        "country_name": "Việt Nam",
        "city": "Hồ Chí Minh",
        "district": "Quận Gò Vấp",
        "ward": "Phường 16",
        "street": "Đường Thống Nhất",
        "postal_code": "71416",
        "categories": [
            {
                "name": "Trung tâm mua sắm hoặc trung tâm thương mại"
            }
        ]
    },
    {
        "name": "Đầm Bầu Lucy",
        "latitude": 10.81473,
        "longitude": 106.68954,
        "address": "Đầm Bầu Lucy, 417 Đường Lê Quang Định, Phường 11, Quận Bình Thạnh, Hồ Chí Minh, Việt Nam",
        "country_code": "VNM",
        "country_name": "Việt Nam",
        "city": "Hồ Chí Minh",
        "district": "Quận Bình Thạnh",
        "ward": "Phường 11",
        "street": "Đường Lê Quang Định",
        "postal_code": "72313",
        "categories": [
            {
                "name": "Quần áo & Phụ kiện"
            },
            {
                "name": "Trung tâm mua sắm hoặc trung tâm thương mại"
            }
        ]
    },
    {
        "name": "SaiGon Mall",
        "latitude": 10.83213,
        "longitude": 106.67426,
        "address": "SaiGon Mall, Đường Phan Văn Trị, Phường 10, Quận Gò Vấp, Hồ Chí Minh, Việt Nam",
        "country_code": "VNM",
        "country_name": "Việt Nam",
        "city": "Hồ Chí Minh",
        "district": "Quận Gò Vấp",
        "ward": "Phường 10",
        "street": "Đường Phan Văn Trị",
        "postal_code": "71406",
        "categories": [
            {
                "name": "Trung tâm mua sắm hoặc trung tâm thương mại"
            }
        ]
    },
    {
        "name": "Saigon Pearl",
        "latitude": 10.79093,
        "longitude": 106.7183,
        "address": "Saigon Pearl, Đường Nguyễn Hữu Cảnh, Phường 22, Quận Bình Thạnh, Hồ Chí Minh, Việt Nam",
        "country_code": "VNM",
        "country_name": "Việt Nam",
        "city": "Hồ Chí Minh",
        "district": "Quận Bình Thạnh",
        "ward": "Phường 22",
        "street": "Đường Nguyễn Hữu Cảnh",
        "postal_code": "72324",
        "categories": [
            {
                "name": "Trung tâm mua sắm hoặc trung tâm thương mại"
            }
        ]
    }
]
