[
    {
        "name": "Trung Phát",
        "latitude": 10.90698,
        "longitude": 106.79368,
        "address": "Trung Phát, ĐT.743B, Phường Bình Thắng, Dĩ An, Bình Dương, Việt Nam",
        "country_code": "VNM",
        "country_name": "Việt Nam",
        "city": "Bình Dương",
        "district": "Dĩ An",
        "ward": "Phường Bình Thắng",
        "street": "ĐT.743B",
        "postal_code": "75309",
        "categories": [
            {
                "name": "Hiệu bánh"
            }
        ]
    },
    {
        "name": "Bánh Kem Su Su",
        "latitude": 10.91367,
        "longitude": 106.7822,
        "address": "Bánh Kem Su Su, Đường D1, Phường Tân Đông Hiệp, Dĩ An, Bình Dương, Việt Nam",
        "country_code": "VNM",
        "country_name": "Việt Nam",
        "city": "Bình Dương",
        "district": "Dĩ An",
        "ward": "Phường Tân Đông Hiệp",
        "street": "Đường D1",
        "postal_code": "75311",
        "categories": [
            {
                "name": "Hiệu bánh"
            }
        ]
    },
    {
        "name": "Bánh Kem Ngọc Xuân",
        "latitude": 10.90663,
        "longitude": 106.7715,
        "address": "Bánh Kem Ngọc Xuân, Đường Cô Bắc, Phường Dĩ An, Dĩ An, Bình Dương, Việt Nam",
        "country_code": "VNM",
        "country_name": "Việt Nam",
        "city": "Bình Dương",
        "district": "Dĩ An",
        "ward": "Phường Dĩ An",
        "street": "Đường Cô Bắc",
        "postal_code": "75306",
        "categories": [
            {
                "name": "Hiệu bánh"
            }
        ]
    },
    {
        "name": "Bánh Kem Hồng Phượng",
        "latitude": 10.90631,
        "longitude": 106.77111,
        "address": "Bánh Kem Hồng Phượng, Đường Nguyễn Thái Học, Phường Dĩ An, Dĩ An, Bình Dương, Việt Nam",
        "country_code": "VNM",
        "country_name": "Việt Nam",
        "city": "Bình Dương",
        "district": "Dĩ An",
        "ward": "Phường Dĩ An",
        "street": "Đường Nguyễn Thái Học",
        "postal_code": "75306",
        "categories": [
            {
                "name": "Cửa hàng chuyên dụng"
            },
            {
                "name": "Nhà hàng"
            },
            {
                "name": "Hiệu bánh"
            }
        ]
    },
    {
        "name": "Tiệm Bánh Kem Cao Loan",
        "latitude": 10.90592,
        "longitude": 106.77089,
        "address": "Tiệm Bánh Kem Cao Loan, 18 Đường Nguyễn Thái Học, Phường Dĩ An, Dĩ An, Bình Dương, Việt Nam",
        "country_code": "VNM",
        "country_name": "Việt Nam",
        "city": "Bình Dương",
        "district": "Dĩ An",
        "ward": "Phường Dĩ An",
        "street": "Đường Nguyễn Thái Học",
        "postal_code": "75306",
        "categories": [
            {
                "name": "Cửa hàng chuyên dụng"
            },
            {
                "name": "Hiệu bánh"
            }
        ]
    },
    {
        "name": "Tâm Đức",
        "latitude": 10.89881,
        "longitude": 106.80794,
        "address": "Tâm Đức, Đường Tỉnh 743A, Phường Bình Thắng, Dĩ An, Bình Dương, Việt Nam",
        "country_code": "VNM",
        "country_name": "Việt Nam",
        "city": "Bình Dương",
        "district": "Dĩ An",
        "ward": "Phường Bình Thắng",
        "street": "Đường Tỉnh 743A",
        "postal_code": "75309",
        "categories": [
            {
                "name": "Cửa hàng chuyên dụng"
            },
            {
                "name": "Hiệu bánh"
            }
        ]
    },
    {
        "name": "Tiệm Bánh Vy Choco",
        "latitude": 10.89811,
        "longitude": 106.77532,
        "address": "Tiệm Bánh Vy Choco, 222 Đường Võ Thị Sáu, Phường Đông Hòa, Dĩ An, Bình Dương, Việt Nam",
        "country_code": "VNM",
        "country_name": "Việt Nam",
        "city": "Bình Dương",
        "district": "Dĩ An",
        "ward": "Phường Đông Hòa",
        "street": "Đường Võ Thị Sáu",
        "postal_code": "75308",
        "categories": [
            {
                "name": "Hiệu bánh"
            }
        ]
    },
    {
        "name": "Tiệm Bánh Tân Hương Ký",
        "latitude": 10.93664,
        "longitude": 106.80499,
        "address": "Tiệm Bánh Tân Hương Ký, Đường Nguyễn Ái Quốc, Phường Hóa An, Biên Hòa, Đồng Nai, Việt Nam",
        "country_code": "VNM",
        "country_name": "Việt Nam",
        "city": "Đồng Nai",
        "district": "Biên Hòa",
        "ward": "Phường Hóa An",
        "street": "Đường Nguyễn Ái Quốc",
        "postal_code": "76123",
        "categories": [
            {
                "name": "Hiệu bánh"
            },
            {
                "name": "Đặc sản & Đồ uống"
            }
        ]
    },
    {
        "name": "Cơ Sở Sản Xuất Bánh Mì Thanh Tâm",
        "latitude": 10.93688,
        "longitude": 106.80533,
        "address": "Cơ Sở Sản Xuất Bánh Mì Thanh Tâm, Đường Hoàng Minh Chánh, Phường Hóa An, Biên Hòa, Đồng Nai, Việt Nam",
        "country_code": "VNM",
        "country_name": "Việt Nam",
        "city": "Đồng Nai",
        "district": "Biên Hòa",
        "ward": "Phường Hóa An",
        "street": "Đường Hoàng Minh Chánh",
        "postal_code": "76123",
        "categories": [
            {
                "name": "Hiệu bánh"
            }
        ]
    },
    {
        "name": "Nhận Đặt Bánh Kem",
        "latitude": 10.93068,
        "longitude": 106.8131,
        "address": "Nhận Đặt Bánh Kem, Đường Nguyễn Thị Tồn, Phường Bửu Hòa, Biên Hòa, Đồng Nai, Việt Nam",
        "country_code": "VNM",
        "country_name": "Việt Nam",
        "city": "Đồng Nai",
        "district": "Biên Hòa",
        "ward": "Phường Bửu Hòa",
        "street": "Đường Nguyễn Thị Tồn",
        "postal_code": "76125",
        "categories": [
            {
                "name": "Hiệu bánh"
            }
        ]
    },
    {
        "name": "Bánh Kem Cao Loan II",
        "latitude": 10.91447,
        "longitude": 106.76255,
        "address": "Bánh Kem Cao Loan II, TL.743, Phường Tân Đông Hiệp, Dĩ An, Bình Dương, Việt Nam",
        "country_code": "VNM",
        "country_name": "Việt Nam",
        "city": "Bình Dương",
        "district": "Dĩ An",
        "ward": "Phường Tân Đông Hiệp",
        "street": "TL.743",
        "postal_code": "75311",
        "categories": [
            {
                "name": "Cửa hàng chuyên dụng"
            },
            {
                "name": "Hiệu bánh"
            }
        ]
    },
    {
        "name": "Tiệm Bánh Sài Gòn BK",
        "latitude": 10.92725,
        "longitude": 106.76081,
        "address": "Tiệm Bánh Sài Gòn BK, Đường Lê Hồng Phong, Phường Tân Đông Hiệp, Dĩ An, Bình Dương, Việt Nam",
        "country_code": "VNM",
        "country_name": "Việt Nam",
        "city": "Bình Dương",
        "district": "Dĩ An",
        "ward": "Phường Tân Đông Hiệp",
        "street": "Đường Lê Hồng Phong",
        "postal_code": "75311",
        "categories": [
            {
                "name": "Cửa hàng chuyên dụng"
            },
            {
                "name": "Hiệu bánh"
            }
        ]
    },
    {
        "name": "Hồng Phát Bakery",
        "latitude": 10.90782,
        "longitude": 106.75837,
        "address": "Hồng Phát Bakery, Đường Lý Thường Kiệt, Phường Tân Đông Hiệp, Dĩ An, Bình Dương, Việt Nam",
        "country_code": "VNM",
        "country_name": "Việt Nam",
        "city": "Bình Dương",
        "district": "Dĩ An",
        "ward": "Phường Tân Đông Hiệp",
        "street": "Đường Lý Thường Kiệt",
        "postal_code": "75311",
        "categories": [
            {
                "name": "Hiệu bánh"
            }
        ]
    },
    {
        "name": "Tiệm Bánh Âu",
        "latitude": 10.92735,
        "longitude": 106.76018,
        "address": "Tiệm Bánh Âu, Đường Nguyễn Thị Minh Khai, Phường Tân Đông Hiệp, Dĩ An, Bình Dương, Việt Nam",
        "country_code": "VNM",
        "country_name": "Việt Nam",
        "city": "Bình Dương",
        "district": "Dĩ An",
        "ward": "Phường Tân Đông Hiệp",
        "street": "Đường Nguyễn Thị Minh Khai",
        "postal_code": "75311",
        "categories": [
            {
                "name": "Hiệu bánh"
            }
        ]
    },
    {
        "name": "Bakery Quỳnh Chi",
        "latitude": 10.91404,
        "longitude": 106.75631,
        "address": "Bakery Quỳnh Chi, Đường Đoàn Thị Kia, Phường Tân Đông Hiệp, Dĩ An, Bình Dương, Việt Nam",
        "country_code": "VNM",
        "country_name": "Việt Nam",
        "city": "Bình Dương",
        "district": "Dĩ An",
        "ward": "Phường Tân Đông Hiệp",
        "street": "Đường Đoàn Thị Kia",
        "postal_code": "75311",
        "categories": [
            {
                "name": "Hiệu bánh"
            }
        ]
    },
    {
        "name": "Bakery Hoàng Nhi",
        "latitude": 10.90499,
        "longitude": 106.7565,
        "address": "Bakery Hoàng Nhi, Đường Nguyễn Trãi, Phường Dĩ An, Dĩ An, Bình Dương, Việt Nam",
        "country_code": "VNM",
        "country_name": "Việt Nam",
        "city": "Bình Dương",
        "district": "Dĩ An",
        "ward": "Phường Dĩ An",
        "street": "Đường Nguyễn Trãi",
        "postal_code": "75306",
        "categories": [
            {
                "name": "Hiệu bánh"
            }
        ]
    },
    {
        "name": "Tiệm Bánh Mimi",
        "latitude": 10.87831,
        "longitude": 106.77633,
        "address": "Tiệm Bánh Mimi, 129 Đường Số 8, Phường Linh Xuân, Thủ Đức, Hồ Chí Minh, Việt Nam",
        "country_code": "VNM",
        "country_name": "Việt Nam",
        "city": "Hồ Chí Minh",
        "district": "Thủ Đức",
        "ward": "Phường Linh Xuân",
        "street": "Đường Số 8",
        "postal_code": "71309",
        "categories": [
            {
                "name": "Hiệu bánh"
            }
        ]
    },
    {
        "name": "Tiệm Bánh Q Bakery",
        "latitude": 10.95267,
        "longitude": 106.78553,
        "address": "Tiệm Bánh Q Bakery, Đường Bùi Hữu Nghĩa, Phường Tân Hạnh, Biên Hòa, Đồng Nai, Việt Nam",
        "country_code": "VNM",
        "country_name": "Việt Nam",
        "city": "Đồng Nai",
        "district": "Biên Hòa",
        "ward": "Phường Tân Hạnh",
        "street": "Đường Bùi Hữu Nghĩa",
        "postal_code": "76121",
        "categories": [
            {
                "name": "Cửa hàng chuyên dụng"
            },
            {
                "name": "Hiệu bánh"
            }
        ]
    },
    {
        "name": "Bakery Diễm Lê",
        "latitude": 10.9115,
        "longitude": 106.75171,
        "address": "Bakery Diễm Lê, TL.743B, Phường Tân Đông Hiệp, Dĩ An, Bình Dương, Việt Nam",
        "country_code": "VNM",
        "country_name": "Việt Nam",
        "city": "Bình Dương",
        "district": "Dĩ An",
        "ward": "Phường Tân Đông Hiệp",
        "street": "TL.743B",
        "postal_code": "75311",
        "categories": [
            {
                "name": "Hiệu bánh"
            }
        ]
    },
    {
        "name": "Lò Bánh Mì Hà Nội",
        "latitude": 10.94415,
        "longitude": 106.82006,
        "address": "Lò Bánh Mì Hà Nội, 173 Đường Cách Mạng Tháng 8, Phường Quyết Thắng, Biên Hòa, Đồng Nai, Việt Nam",
        "country_code": "VNM",
        "country_name": "Việt Nam",
        "city": "Đồng Nai",
        "district": "Biên Hòa",
        "ward": "Phường Quyết Thắng",
        "street": "Đường Cách Mạng Tháng 8",
        "postal_code": "76107",
        "categories": [
            {
                "name": "Hiệu bánh"
            },
            {
                "name": "Đặc sản & Đồ uống"
            }
        ]
    },
    {
        "name": "Bánh Bông Lan Cô Dung",
        "latitude": 10.94967,
        "longitude": 106.81262,
        "address": "Bánh Bông Lan Cô Dung, Đường Huỳnh Văn Lũy, Phường Hòa Bình, Biên Hòa, Đồng Nai, Việt Nam",
        "country_code": "VNM",
        "country_name": "Việt Nam",
        "city": "Đồng Nai",
        "district": "Biên Hòa",
        "ward": "Phường Hòa Bình",
        "street": "Đường Huỳnh Văn Lũy",
        "postal_code": "76122",
        "categories": [
            {
                "name": "Hiệu bánh"
            }
        ]
    },
    {
        "name": "Cơ Sở Bánh Mì Bảo Thy",
        "latitude": 10.87801,
        "longitude": 106.77162,
        "address": "Cơ Sở Bánh Mì Bảo Thy, 141D Đường Số 6, Phường Linh Xuân, Thủ Đức, Hồ Chí Minh, Việt Nam",
        "country_code": "VNM",
        "country_name": "Việt Nam",
        "city": "Hồ Chí Minh",
        "district": "Thủ Đức",
        "ward": "Phường Linh Xuân",
        "street": "Đường Số 6",
        "postal_code": "71309",
        "categories": [
            {
                "name": "Hiệu bánh"
            }
        ]
    },
    {
        "name": "Đại Lý-Bánh Bía-Lạp Xưởng Tân Hưng",
        "latitude": 10.94296,
        "longitude": 106.82166,
        "address": "Đại Lý-Bánh Bía-Lạp Xưởng Tân Hưng, Đường Cách Mạng Tháng 8, Phường Quyết Thắng, Biên Hòa, Đồng Nai, Việt Nam",
        "country_code": "VNM",
        "country_name": "Việt Nam",
        "city": "Đồng Nai",
        "district": "Biên Hòa",
        "ward": "Phường Quyết Thắng",
        "street": "Đường Cách Mạng Tháng 8",
        "postal_code": "76107",
        "categories": [
            {
                "name": "Hiệu bánh"
            }
        ]
    },
    {
        "name": "Cơ Sở Bánh Ngọt Tuấn Phát 2",
        "latitude": 10.94892,
        "longitude": 106.81415,
        "address": "Cơ Sở Bánh Ngọt Tuấn Phát 2, 87A Đường Cách Mạng Tháng 8, Phường Hòa Bình, Biên Hòa, Đồng Nai, Việt Nam",
        "country_code": "VNM",
        "country_name": "Việt Nam",
        "city": "Đồng Nai",
        "district": "Biên Hòa",
        "ward": "Phường Hòa Bình",
        "street": "Đường Cách Mạng Tháng 8",
        "postal_code": "76122",
        "categories": [
            {
                "name": "Hiệu bánh"
            }
        ]
    },
    {
        "name": "Tiệm Bánh Sinh Nhật",
        "latitude": 10.88674,
        "longitude": 106.75983,
        "address": "Tiệm Bánh Sinh Nhật, Đường Nguyễn Tri Phương, Phường An Bình, Dĩ An, Bình Dương, Việt Nam",
        "country_code": "VNM",
        "country_name": "Việt Nam",
        "city": "Bình Dương",
        "district": "Dĩ An",
        "ward": "Phường An Bình",
        "street": "Đường Nguyễn Tri Phương",
        "postal_code": "75307",
        "categories": [
            {
                "name": "Hiệu bánh"
            }
        ]
    },
    {
        "name": "Ngoại Ngữ Tin Học Quốc Tế Âu Mỹ",
        "latitude": 10.88696,
        "longitude": 106.75959,
        "address": "Ngoại Ngữ Tin Học Quốc Tế Âu Mỹ, Đường Nguyễn Tri Phương, Phường An Bình, Dĩ An, Bình Dương, Việt Nam",
        "country_code": "VNM",
        "country_name": "Việt Nam",
        "city": "Bình Dương",
        "district": "Dĩ An",
        "ward": "Phường An Bình",
        "street": "Đường Nguyễn Tri Phương",
        "postal_code": "75307",
        "categories": [
            {
                "name": "Hiệu bánh"
            },
            {
                "name": "Dịch vụ kinh doanh"
            }
        ]
    },
    {
        "name": "Hồng Ân Bakery",
        "latitude": 10.87956,
        "longitude": 106.76719,
        "address": "Hồng Ân Bakery, Xa Lộ Hà Nội, Phường Linh Xuân, Thủ Đức, Hồ Chí Minh, Việt Nam",
        "country_code": "VNM",
        "country_name": "Việt Nam",
        "city": "Hồ Chí Minh",
        "district": "Thủ Đức",
        "ward": "Phường Linh Xuân",
        "street": "Xa Lộ Hà Nội",
        "postal_code": "71309",
        "categories": [
            {
                "name": "Cửa hàng chuyên dụng"
            },
            {
                "name": "Đặc sản & Đồ uống"
            },
            {
                "name": "Hiệu bánh"
            },
            {
                "name": "Hàng tiêu dùng"
            }
        ]
    },
    {
        "name": "Bánh Bông Lan Nhà Làm",
        "latitude": 10.9482,
        "longitude": 106.81714,
        "address": "Bánh Bông Lan Nhà Làm, Đường Phan Đình Phùng, Phường Quang Vinh, Biên Hòa, Đồng Nai, Việt Nam",
        "country_code": "VNM",
        "country_name": "Việt Nam",
        "city": "Đồng Nai",
        "district": "Biên Hòa",
        "ward": "Phường Quang Vinh",
        "street": "Đường Phan Đình Phùng",
        "postal_code": "76119",
        "categories": [
            {
                "name": "Hiệu bánh"
            }
        ]
    },
    {
        "name": "Bánh Kem Đông Á",
        "latitude": 10.88553,
        "longitude": 106.75974,
        "address": "Bánh Kem Đông Á, Đường Nguyễn Tri Phương, Phường An Bình, Dĩ An, Bình Dương, Việt Nam",
        "country_code": "VNM",
        "country_name": "Việt Nam",
        "city": "Bình Dương",
        "district": "Dĩ An",
        "ward": "Phường An Bình",
        "street": "Đường Nguyễn Tri Phương",
        "postal_code": "75307",
        "categories": [
            {
                "name": "Hiệu bánh"
            },
            {
                "name": "Hàng tiêu dùng"
            },
            {
                "name": "Dịch vụ ăn uống và thực phẩm"
            }
        ]
    },
    {
        "name": "Pizza&Kebab Vikings",
        "latitude": 10.95195,
        "longitude": 106.81149,
        "address": "Pizza&Kebab Vikings, 223A Đường Cách Mạng Tháng 8, Phường Hòa Bình, Biên Hòa, Đồng Nai, Việt Nam",
        "country_code": "VNM",
        "country_name": "Việt Nam",
        "city": "Đồng Nai",
        "district": "Biên Hòa",
        "ward": "Phường Hòa Bình",
        "street": "Đường Cách Mạng Tháng 8",
        "postal_code": "76122",
        "categories": [
            {
                "name": "Hiệu bánh"
            }
        ]
    },
    {
        "name": "Tiệm Bánh Yeni Cakes",
        "latitude": 10.93426,
        "longitude": 106.83,
        "address": "Tiệm Bánh Yeni Cakes, Đường Đặng Văn Trơn, Phường Hiệp Hòa, Biên Hòa, Đồng Nai, Việt Nam",
        "country_code": "VNM",
        "country_name": "Việt Nam",
        "city": "Đồng Nai",
        "district": "Biên Hòa",
        "ward": "Phường Hiệp Hòa",
        "street": "Đường Đặng Văn Trơn",
        "postal_code": "76126",
        "categories": [
            {
                "name": "Hiệu bánh"
            }
        ]
    },
    {
        "name": "Bánh Mì Thổ Nhĩ Kỳ",
        "latitude": 10.87381,
        "longitude": 106.80761,
        "address": "Bánh Mì Thổ Nhĩ Kỳ, Đường Số 621, Phường Linh Trung, Thủ Đức, Hồ Chí Minh, Việt Nam",
        "country_code": "VNM",
        "country_name": "Việt Nam",
        "city": "Hồ Chí Minh",
        "district": "Thủ Đức",
        "ward": "Phường Linh Trung",
        "street": "Đường Số 621",
        "postal_code": "71308",
        "categories": [
            {
                "name": "Hiệu bánh"
            }
        ]
    },
    {
        "name": "Bánh Sinh Nhật-Rau Câu Thanh Trúc",
        "latitude": 10.94954,
        "longitude": 106.81734,
        "address": "Bánh Sinh Nhật-Rau Câu Thanh Trúc, Đường Nguyễn Văn Ký, Phường Quang Vinh, Biên Hòa, Đồng Nai, Việt Nam",
        "country_code": "VNM",
        "country_name": "Việt Nam",
        "city": "Đồng Nai",
        "district": "Biên Hòa",
        "ward": "Phường Quang Vinh",
        "street": "Đường Nguyễn Văn Ký",
        "postal_code": "76119",
        "categories": [
            {
                "name": "Hiệu bánh"
            }
        ]
    },
    {
        "name": "Bánh Kem Sữa Tươi Cao Cấp Hải Long",
        "latitude": 10.90233,
        "longitude": 106.74905,
        "address": "Bánh Kem Sữa Tươi Cao Cấp Hải Long, Đường Nguyễn Đức Thiệu, Phường Dĩ An, Dĩ An, Bình Dương, Việt Nam",
        "country_code": "VNM",
        "country_name": "Việt Nam",
        "city": "Bình Dương",
        "district": "Dĩ An",
        "ward": "Phường Dĩ An",
        "street": "Đường Nguyễn Đức Thiệu",
        "postal_code": "75306",
        "categories": [
            {
                "name": "Hiệu bánh"
            }
        ]
    },
    {
        "name": "Bánh Mì Hà Nội",
        "latitude": 10.87357,
        "longitude": 106.80823,
        "address": "Bánh Mì Hà Nội, Đường 621, Phường Đông Hòa, Dĩ An, Bình Dương, Việt Nam",
        "country_code": "VNM",
        "country_name": "Việt Nam",
        "city": "Bình Dương",
        "district": "Dĩ An",
        "ward": "Phường Đông Hòa",
        "street": "Đường 621",
        "postal_code": "75308",
        "categories": [
            {
                "name": "Hiệu bánh"
            }
        ]
    },
    {
        "name": "Tiệm Bánh Linh Đa",
        "latitude": 10.94616,
        "longitude": 106.82369,
        "address": "Tiệm Bánh Linh Đa, Hẻm 58 Võ Thị Sáu, Phường Quyết Thắng, Biên Hòa, Đồng Nai, Việt Nam",
        "country_code": "VNM",
        "country_name": "Việt Nam",
        "city": "Đồng Nai",
        "district": "Biên Hòa",
        "ward": "Phường Quyết Thắng",
        "street": "Hẻm 58 Võ Thị Sáu",
        "postal_code": "76107",
        "categories": [
            {
                "name": "Hiệu bánh"
            }
        ]
    },
    {
        "name": "Bánh Mì Thu Hà",
        "latitude": 10.95089,
        "longitude": 106.81798,
        "address": "Bánh Mì Thu Hà, 57 Đường Phan Đình Phùng, Phường Trung Dũng, Biên Hòa, Đồng Nai, Việt Nam",
        "country_code": "VNM",
        "country_name": "Việt Nam",
        "city": "Đồng Nai",
        "district": "Biên Hòa",
        "ward": "Phường Trung Dũng",
        "street": "Đường Phan Đình Phùng",
        "postal_code": "76118",
        "categories": [
            {
                "name": "Cửa hàng chuyên dụng"
            },
            {
                "name": "Nhà hàng"
            },
            {
                "name": "Chợ/Gian hàng ẩm thực"
            },
            {
                "name": "Hiệu bánh"
            },
            {
                "name": "Sản xuất thực phẩm"
            }
        ]
    },
    {
        "name": "Síu Síu",
        "latitude": 10.95068,
        "longitude": 106.81846,
        "address": "Síu Síu, 16 Đường Hưng Đạo Vương, Phường Thanh Bình, Biên Hòa, Đồng Nai, Việt Nam",
        "country_code": "VNM",
        "country_name": "Việt Nam",
        "city": "Đồng Nai",
        "district": "Biên Hòa",
        "ward": "Phường Thanh Bình",
        "street": "Đường Hưng Đạo Vương",
        "postal_code": "76106",
        "categories": [
            {
                "name": "Hiệu bánh"
            },
            {
                "name": "Quán cà phê"
            },
            {
                "name": "Cửa hàng chuyên dụng"
            }
        ]
    },
    {
        "name": "Bánh Kem Tiên Ân 2",
        "latitude": 10.87897,
        "longitude": 106.76253,
        "address": "Bánh Kem Tiên Ân 2, Đường Bà Giang, Phường Linh Xuân, Thủ Đức, Hồ Chí Minh, Việt Nam",
        "country_code": "VNM",
        "country_name": "Việt Nam",
        "city": "Hồ Chí Minh",
        "district": "Thủ Đức",
        "ward": "Phường Linh Xuân",
        "street": "Đường Bà Giang",
        "postal_code": "71309",
        "categories": [
            {
                "name": "Hiệu bánh"
            }
        ]
    },
    {
        "name": "Dâu Tây",
        "latitude": 10.87379,
        "longitude": 106.76858,
        "address": "Dâu Tây, 94 Đường Số 4, Phường Linh Xuân, Thủ Đức, Hồ Chí Minh, Việt Nam",
        "country_code": "VNM",
        "country_name": "Việt Nam",
        "city": "Hồ Chí Minh",
        "district": "Thủ Đức",
        "ward": "Phường Linh Xuân",
        "street": "Đường Số 4",
        "postal_code": "71309",
        "categories": [
            {
                "name": "Hiệu bánh"
            }
        ]
    },
    {
        "name": "Trung Tâm Tư Vấn Hỗ Trợ Doanh Nghiệp",
        "latitude": 10.94976,
        "longitude": 106.8222,
        "address": "Trung Tâm Tư Vấn Hỗ Trợ Doanh Nghiệp, 135H Đường Hà Huy Giáp, Phường Quyết Thắng, Biên Hòa, Đồng Nai, Việt Nam",
        "country_code": "VNM",
        "country_name": "Việt Nam",
        "city": "Đồng Nai",
        "district": "Biên Hòa",
        "ward": "Phường Quyết Thắng",
        "street": "Đường Hà Huy Giáp",
        "postal_code": "76107",
        "categories": [
            {
                "name": "Hiệu bánh"
            },
            {
                "name": "Văn phòng chính phủ"
            }
        ]
    },
    {
        "name": "Chewychewy",
        "latitude": 10.94701,
        "longitude": 106.82689,
        "address": "Chewychewy, Đường Võ Thị Sáu, Phường Thống Nhất, Biên Hòa, Đồng Nai, Việt Nam",
        "country_code": "VNM",
        "country_name": "Việt Nam",
        "city": "Đồng Nai",
        "district": "Biên Hòa",
        "ward": "Phường Thống Nhất",
        "street": "Đường Võ Thị Sáu",
        "postal_code": "76108",
        "categories": [
            {
                "name": "Hiệu bánh"
            }
        ]
    },
    {
        "name": "Bánh Mì Táo Đỏ",
        "latitude": 10.95464,
        "longitude": 106.81777,
        "address": "Bánh Mì Táo Đỏ, 185 Đường Phan Đình Phùng, Phường Quang Vinh, Biên Hòa, Đồng Nai, Việt Nam",
        "country_code": "VNM",
        "country_name": "Việt Nam",
        "city": "Đồng Nai",
        "district": "Biên Hòa",
        "ward": "Phường Quang Vinh",
        "street": "Đường Phan Đình Phùng",
        "postal_code": "76119",
        "categories": [
            {
                "name": "Hiệu bánh"
            },
            {
                "name": "Nhà hàng"
            }
        ]
    },
    {
        "name": "Tiệm Bánh Tuấn Phát Tài",
        "latitude": 10.95504,
        "longitude": 106.81785,
        "address": "Tiệm Bánh Tuấn Phát Tài, 20 Đường Phan Đình Phùng, Phường Trung Dũng, Biên Hòa, Đồng Nai, Việt Nam",
        "country_code": "VNM",
        "country_name": "Việt Nam",
        "city": "Đồng Nai",
        "district": "Biên Hòa",
        "ward": "Phường Trung Dũng",
        "street": "Đường Phan Đình Phùng",
        "postal_code": "76118",
        "categories": [
            {
                "name": "Hiệu bánh"
            },
            {
                "name": "Cửa hàng chuyên dụng"
            }
        ]
    },
    {
        "name": "Bánh Kem Ruby",
        "latitude": 10.90911,
        "longitude": 106.74227,
        "address": "Bánh Kem Ruby, TL.743B, Phường Tân Đông Hiệp, Dĩ An, Bình Dương, Việt Nam",
        "country_code": "VNM",
        "country_name": "Việt Nam",
        "city": "Bình Dương",
        "district": "Dĩ An",
        "ward": "Phường Tân Đông Hiệp",
        "street": "TL.743B",
        "postal_code": "75311",
        "categories": [
            {
                "name": "Cửa hàng chuyên dụng"
            },
            {
                "name": "Hiệu bánh"
            }
        ]
    },
    {
        "name": "Mkk Bakery",
        "latitude": 10.95576,
        "longitude": 106.81791,
        "address": "Mkk Bakery, 243 Đường Phan Đình Phùng, Phường Quang Vinh, Biên Hòa, Đồng Nai, Việt Nam",
        "country_code": "VNM",
        "country_name": "Việt Nam",
        "city": "Đồng Nai",
        "district": "Biên Hòa",
        "ward": "Phường Quang Vinh",
        "street": "Đường Phan Đình Phùng",
        "postal_code": "76119",
        "categories": [
            {
                "name": "Hiệu bánh"
            }
        ]
    },
    {
        "name": "Le Macaron Bakery - Võ Thị Sáu",
        "latitude": 10.94729,
        "longitude": 106.82851,
        "address": "Le Macaron Bakery - Võ Thị Sáu, F233 Đường Võ Thị Sáu, Phường Thống Nhất, Biên Hòa, Đồng Nai, Việt Nam",
        "country_code": "VNM",
        "country_name": "Việt Nam",
        "city": "Đồng Nai",
        "district": "Biên Hòa",
        "ward": "Phường Thống Nhất",
        "street": "Đường Võ Thị Sáu",
        "postal_code": "76108",
        "categories": [
            {
                "name": "Hiệu bánh"
            },
            {
                "name": "Nhà hàng"
            },
            {
                "name": "Quán ăn bình dân"
            },
            {
                "name": "Quán cà phê"
            },
            {
                "name": "Cửa hàng chuyên dụng"
            }
        ]
    },
    {
        "name": "Tiệm Bánh Le Macaron",
        "latitude": 10.94732,
        "longitude": 106.82855,
        "address": "Tiệm Bánh Le Macaron, Đường Võ Thị Sáu, Phường Thống Nhất, Biên Hòa, Đồng Nai, Việt Nam",
        "country_code": "VNM",
        "country_name": "Việt Nam",
        "city": "Đồng Nai",
        "district": "Biên Hòa",
        "ward": "Phường Thống Nhất",
        "street": "Đường Võ Thị Sáu",
        "postal_code": "76108",
        "categories": [
            {
                "name": "Hiệu bánh"
            }
        ]
    },
    {
        "name": "Tiệm Bánh Mỳ Kebab Táo Đỏ",
        "latitude": 10.95239,
        "longitude": 106.82344,
        "address": "Tiệm Bánh Mỳ Kebab Táo Đỏ, 226 Đường 30 Tháng 4, Phường Trung Dũng, Biên Hòa, Đồng Nai, Việt Nam",
        "country_code": "VNM",
        "country_name": "Việt Nam",
        "city": "Đồng Nai",
        "district": "Biên Hòa",
        "ward": "Phường Trung Dũng",
        "street": "Đường 30 Tháng 4",
        "postal_code": "76118",
        "categories": [
            {
                "name": "Hiệu bánh"
            }
        ]
    },
    {
        "name": "Tím Coffee & Cakes",
        "latitude": 10.95898,
        "longitude": 106.81555,
        "address": "Tím Coffee & Cakes, 29 Hẻm 1 Khu Phố 10, Phường Tân Phong, Biên Hòa, Đồng Nai, Việt Nam",
        "country_code": "VNM",
        "country_name": "Việt Nam",
        "city": "Đồng Nai",
        "district": "Biên Hòa",
        "ward": "Phường Tân Phong",
        "street": "Hẻm 1 Khu Phố 10",
        "postal_code": "76117",
        "categories": [
            {
                "name": "Hiệu bánh"
            },
            {
                "name": "Nhà hàng"
            },
            {
                "name": "Quán cà phê"
            }
        ]
    },
    {
        "name": "Bánh Bao Kim Sa",
        "latitude": 10.95501,
        "longitude": 106.82626,
        "address": "Bánh Bao Kim Sa, Đường 30 Tháng 4, Phường Trung Dũng, Biên Hòa, Đồng Nai, Việt Nam",
        "country_code": "VNM",
        "country_name": "Việt Nam",
        "city": "Đồng Nai",
        "district": "Biên Hòa",
        "ward": "Phường Trung Dũng",
        "street": "Đường 30 Tháng 4",
        "postal_code": "76118",
        "categories": [
            {
                "name": "Hiệu bánh"
            },
            {
                "name": "Cửa hàng chuyên dụng"
            }
        ]
    },
    {
        "name": "Tea Coffee",
        "latitude": 10.95501,
        "longitude": 106.82626,
        "address": "Tea Coffee, 334 Đường 30 Tháng 4, Phường Trung Dũng, Biên Hòa, Đồng Nai, Việt Nam",
        "country_code": "VNM",
        "country_name": "Việt Nam",
        "city": "Đồng Nai",
        "district": "Biên Hòa",
        "ward": "Phường Trung Dũng",
        "street": "Đường 30 Tháng 4",
        "postal_code": "76118",
        "categories": [
            {
                "name": "Hiệu bánh"
            },
            {
                "name": "Quán cà phê"
            }
        ]
    },
    {
        "name": "Tiệm Bánh Sài Gòn BK",
        "latitude": 10.94488,
        "longitude": 106.7473,
        "address": "Tiệm Bánh Sài Gòn BK, Đường Mỹ Phước-Tân Vạn, Phường An Phú, Thuận An, Bình Dương, Việt Nam",
        "country_code": "VNM",
        "country_name": "Việt Nam",
        "city": "Bình Dương",
        "district": "Thuận An",
        "ward": "Phường An Phú",
        "street": "Đường Mỹ Phước-Tân Vạn",
        "postal_code": "75209",
        "categories": [
            {
                "name": "Hiệu bánh"
            }
        ]
    },
    {
        "name": "Lò Bánh Mì Ngọc Huyền",
        "latitude": 10.94612,
        "longitude": 106.74738,
        "address": "Lò Bánh Mì Ngọc Huyền, Đường Trần Quang Diệu, Phường An Phú, Thuận An, Bình Dương, Việt Nam",
        "country_code": "VNM",
        "country_name": "Việt Nam",
        "city": "Bình Dương",
        "district": "Thuận An",
        "ward": "Phường An Phú",
        "street": "Đường Trần Quang Diệu",
        "postal_code": "75209",
        "categories": [
            {
                "name": "Hiệu bánh"
            }
        ]
    },
    {
        "name": "Xumi",
        "latitude": 10.9463,
        "longitude": 106.74737,
        "address": "Xumi, Đường Trần Quang Diệu, Phường An Phú, Thuận An, Bình Dương, Việt Nam",
        "country_code": "VNM",
        "country_name": "Việt Nam",
        "city": "Bình Dương",
        "district": "Thuận An",
        "ward": "Phường An Phú",
        "street": "Đường Trần Quang Diệu",
        "postal_code": "75209",
        "categories": [
            {
                "name": "Hiệu bánh"
            }
        ]
    },
    {
        "name": "Tiệm Bánh Min",
        "latitude": 10.86083,
        "longitude": 106.77874,
        "address": "Tiệm Bánh Min, Đường Lê Văn Chí, Phường Linh Trung, Thủ Đức, Hồ Chí Minh, Việt Nam",
        "country_code": "VNM",
        "country_name": "Việt Nam",
        "city": "Hồ Chí Minh",
        "district": "Thủ Đức",
        "ward": "Phường Linh Trung",
        "street": "Đường Lê Văn Chí",
        "postal_code": "71308",
        "categories": [
            {
                "name": "Hiệu bánh"
            }
        ]
    },
    {
        "name": "Cà phê Cafe 85",
        "latitude": 10.95696,
        "longitude": 106.82672,
        "address": "Cà phê Cafe 85, Đường Trần Công An, Phường Tân Phong, Biên Hòa, Đồng Nai, Việt Nam",
        "country_code": "VNM",
        "country_name": "Việt Nam",
        "city": "Đồng Nai",
        "district": "Biên Hòa",
        "ward": "Phường Tân Phong",
        "street": "Đường Trần Công An",
        "postal_code": "76117",
        "categories": [
            {
                "name": "Quán cà phê"
            },
            {
                "name": "Hiệu bánh"
            }
        ]
    },
    {
        "name": "Cơ Sở Sản Xuất Bánh Ngọt Phát Đạt Bakery",
        "latitude": 10.87318,
        "longitude": 106.75417,
        "address": "Cơ Sở Sản Xuất Bánh Ngọt Phát Đạt Bakery, Đường An Bình, Phường An Bình, Dĩ An, Bình Dương, Việt Nam",
        "country_code": "VNM",
        "country_name": "Việt Nam",
        "city": "Bình Dương",
        "district": "Dĩ An",
        "ward": "Phường An Bình",
        "street": "Đường An Bình",
        "postal_code": "75307",
        "categories": [
            {
                "name": "Hiệu bánh"
            }
        ]
    },
    {
        "name": "Tiệm Bánh Thu Phương",
        "latitude": 10.90755,
        "longitude": 106.73589,
        "address": "Tiệm Bánh Thu Phương, Đường Tỉnh 743B, Phường Bình Hòa, Thuận An, Bình Dương, Việt Nam",
        "country_code": "VNM",
        "country_name": "Việt Nam",
        "city": "Bình Dương",
        "district": "Thuận An",
        "ward": "Phường Bình Hòa",
        "street": "Đường Tỉnh 743B",
        "postal_code": "75208",
        "categories": [
            {
                "name": "Hiệu bánh"
            }
        ]
    },
    {
        "name": "Bánh Kem Ngọc Trinh",
        "latitude": 10.86319,
        "longitude": 106.81354,
        "address": "Bánh Kem Ngọc Trinh, 298 Đường Hoàng Hữu Nam, Phường Tân Phú, Thủ Đức, Hồ Chí Minh, Việt Nam",
        "country_code": "VNM",
        "country_name": "Việt Nam",
        "city": "Hồ Chí Minh",
        "district": "Thủ Đức",
        "ward": "Phường Tân Phú",
        "street": "Đường Hoàng Hữu Nam",
        "postal_code": "71218",
        "categories": [
            {
                "name": "Hiệu bánh"
            }
        ]
    },
    {
        "name": "Hoan Hiển",
        "latitude": 10.86164,
        "longitude": 106.77224,
        "address": "Hoan Hiển, 18 Đường Số 14, Phường Linh Trung, Thủ Đức, Hồ Chí Minh, Việt Nam",
        "country_code": "VNM",
        "country_name": "Việt Nam",
        "city": "Hồ Chí Minh",
        "district": "Thủ Đức",
        "ward": "Phường Linh Trung",
        "street": "Đường Số 14",
        "postal_code": "71308",
        "categories": [
            {
                "name": "Hiệu bánh"
            }
        ]
    },
    {
        "name": "Tiệm Bánh Kem M",
        "latitude": 10.95689,
        "longitude": 106.82897,
        "address": "Tiệm Bánh Kem M, 388 Đường Phạm Văn Thuận, Phường Trung Dũng, Biên Hòa, Đồng Nai, Việt Nam",
        "country_code": "VNM",
        "country_name": "Việt Nam",
        "city": "Đồng Nai",
        "district": "Biên Hòa",
        "ward": "Phường Trung Dũng",
        "street": "Đường Phạm Văn Thuận",
        "postal_code": "76118",
        "categories": [
            {
                "name": "Hiệu bánh"
            }
        ]
    },
    {
        "name": "Gia Hỷ Bakery",
        "latitude": 10.85917,
        "longitude": 106.77807,
        "address": "Gia Hỷ Bakery, 36 Đường Lê Văn Chí, Phường Linh Trung, Thủ Đức, Hồ Chí Minh, Việt Nam",
        "country_code": "VNM",
        "country_name": "Việt Nam",
        "city": "Hồ Chí Minh",
        "district": "Thủ Đức",
        "ward": "Phường Linh Trung",
        "street": "Đường Lê Văn Chí",
        "postal_code": "71308",
        "categories": [
            {
                "name": "Hiệu bánh"
            }
        ]
    },
    {
        "name": "Gift Cake Tiệm Bánh Kem",
        "latitude": 10.85981,
        "longitude": 106.7682,
        "address": "Gift Cake Tiệm Bánh Kem, 5N Đường Số 6, Phường Linh Trung, Thủ Đức, Hồ Chí Minh, Việt Nam",
        "country_code": "VNM",
        "country_name": "Việt Nam",
        "city": "Hồ Chí Minh",
        "district": "Thủ Đức",
        "ward": "Phường Linh Trung",
        "street": "Đường Số 6",
        "postal_code": "71308",
        "categories": [
            {
                "name": "Hiệu bánh"
            }
        ]
    },
    {
        "name": "Wei Bakery",
        "latitude": 10.85896,
        "longitude": 106.81345,
        "address": "Wei Bakery, Đường Hoàng Hữu Nam, Phường Tân Phú, Thủ Đức, Hồ Chí Minh, Việt Nam",
        "country_code": "VNM",
        "country_name": "Việt Nam",
        "city": "Hồ Chí Minh",
        "district": "Thủ Đức",
        "ward": "Phường Tân Phú",
        "street": "Đường Hoàng Hữu Nam",
        "postal_code": "71218",
        "categories": [
            {
                "name": "Hiệu bánh"
            }
        ]
    },
    {
        "name": "Bánh Ngọt 999",
        "latitude": 10.85893,
        "longitude": 106.81359,
        "address": "Bánh Ngọt 999, Đường Hoàng Hữu Nam, Phường Tân Phú, Thủ Đức, Hồ Chí Minh, Việt Nam",
        "country_code": "VNM",
        "country_name": "Việt Nam",
        "city": "Hồ Chí Minh",
        "district": "Thủ Đức",
        "ward": "Phường Tân Phú",
        "street": "Đường Hoàng Hữu Nam",
        "postal_code": "71218",
        "categories": [
            {
                "name": "Hiệu bánh"
            }
        ]
    },
    {
        "name": "Bánh Mì Thu Phương",
        "latitude": 10.94667,
        "longitude": 106.74022,
        "address": "Bánh Mì Thu Phương, Đường 22 Tháng 2, Phường An Phú, Thuận An, Bình Dương, Việt Nam",
        "country_code": "VNM",
        "country_name": "Việt Nam",
        "city": "Bình Dương",
        "district": "Thuận An",
        "ward": "Phường An Phú",
        "street": "Đường 22 Tháng 2",
        "postal_code": "75209",
        "categories": [
            {
                "name": "Hiệu bánh"
            }
        ]
    },
    {
        "name": "Henna Cake & Class",
        "latitude": 10.95132,
        "longitude": 106.84155,
        "address": "Henna Cake & Class, Đường Võ Thị Sáu, Phường Thống Nhất, Biên Hòa, Đồng Nai, Việt Nam",
        "country_code": "VNM",
        "country_name": "Việt Nam",
        "city": "Đồng Nai",
        "district": "Biên Hòa",
        "ward": "Phường Thống Nhất",
        "street": "Đường Võ Thị Sáu",
        "postal_code": "76108",
        "categories": [
            {
                "name": "Hiệu bánh"
            }
        ]
    },
    {
        "name": "Tiệm Bánh Uchi",
        "latitude": 10.90551,
        "longitude": 106.72821,
        "address": "Tiệm Bánh Uchi, Đường Tỉnh 743B, Phường Bình Hòa, Thuận An, Bình Dương, Việt Nam",
        "country_code": "VNM",
        "country_name": "Việt Nam",
        "city": "Bình Dương",
        "district": "Thuận An",
        "ward": "Phường Bình Hòa",
        "street": "Đường Tỉnh 743B",
        "postal_code": "75208",
        "categories": [
            {
                "name": "Hiệu bánh"
            }
        ]
    },
    {
        "name": "Hoàng Phúc",
        "latitude": 10.8985,
        "longitude": 106.85442,
        "address": "Hoàng Phúc, Đường Nguyễn Văn Tỏ, Phường Long Bình Tân, Biên Hòa, Đồng Nai, Việt Nam",
        "country_code": "VNM",
        "country_name": "Việt Nam",
        "city": "Đồng Nai",
        "district": "Biên Hòa",
        "ward": "Phường Long Bình Tân",
        "street": "Đường Nguyễn Văn Tỏ",
        "postal_code": "76129",
        "categories": [
            {
                "name": "Hiệu bánh"
            }
        ]
    },
    {
        "name": "Trường Phú Bánh Mì",
        "latitude": 10.85426,
        "longitude": 106.76947,
        "address": "Trường Phú Bánh Mì, Đường Hoàng Diệu 2, Phường Linh Trung, Thủ Đức, Hồ Chí Minh, Việt Nam",
        "country_code": "VNM",
        "country_name": "Việt Nam",
        "city": "Hồ Chí Minh",
        "district": "Thủ Đức",
        "ward": "Phường Linh Trung",
        "street": "Đường Hoàng Diệu 2",
        "postal_code": "71308",
        "categories": [
            {
                "name": "Hiệu bánh"
            }
        ]
    },
    {
        "name": "Lò Bánh Mì Đặc Ruột Tuấn Thanh",
        "latitude": 10.85877,
        "longitude": 106.75919,
        "address": "Lò Bánh Mì Đặc Ruột Tuấn Thanh, 1120 Đường Kha Vạn Cân, Phường Linh Tây, Thủ Đức, Hồ Chí Minh, Việt Nam",
        "country_code": "VNM",
        "country_name": "Việt Nam",
        "city": "Hồ Chí Minh",
        "district": "Thủ Đức",
        "ward": "Phường Linh Tây",
        "street": "Đường Kha Vạn Cân",
        "postal_code": "71310",
        "categories": [
            {
                "name": "Cửa hàng chuyên dụng"
            },
            {
                "name": "Hiệu bánh"
            }
        ]
    },
    {
        "name": "Chang Hi",
        "latitude": 10.85379,
        "longitude": 106.76963,
        "address": "Chang Hi, 25 Đường Số 6, Phường Linh Chiểu, Thủ Đức, Hồ Chí Minh, Việt Nam",
        "country_code": "VNM",
        "country_name": "Việt Nam",
        "city": "Hồ Chí Minh",
        "district": "Thủ Đức",
        "ward": "Phường Linh Chiểu",
        "street": "Đường Số 6",
        "postal_code": "71307",
        "categories": [
            {
                "name": "Hiệu bánh"
            },
            {
                "name": "Đặc sản & Đồ uống"
            }
        ]
    },
    {
        "name": "Tiệm Bánh Thọ Phát",
        "latitude": 10.85403,
        "longitude": 106.7685,
        "address": "Tiệm Bánh Thọ Phát, 110 Hẻm 72 Đường Tô Vĩnh Diện, Phường Linh Chiểu, Thủ Đức, Hồ Chí Minh, Việt Nam",
        "country_code": "VNM",
        "country_name": "Việt Nam",
        "city": "Hồ Chí Minh",
        "district": "Thủ Đức",
        "ward": "Phường Linh Chiểu",
        "street": "Hẻm 72 Đường Tô Vĩnh Diện",
        "postal_code": "71307",
        "categories": [
            {
                "name": "Hiệu bánh"
            },
            {
                "name": "Nhà hàng"
            }
        ]
    },
    {
        "name": "Hạnh Phúc Bakery",
        "latitude": 10.95797,
        "longitude": 106.83977,
        "address": "Hạnh Phúc Bakery, Hẻm Số 1371 Phạm Văn Thuận, Phường Thống Nhất, Biên Hòa, Đồng Nai, Việt Nam",
        "country_code": "VNM",
        "country_name": "Việt Nam",
        "city": "Đồng Nai",
        "district": "Biên Hòa",
        "ward": "Phường Thống Nhất",
        "street": "Hẻm Số 1371 Phạm Văn Thuận",
        "postal_code": "76108",
        "categories": [
            {
                "name": "Hiệu bánh"
            },
            {
                "name": "Cà Phê/Trà"
            },
            {
                "name": "Cửa hàng chuyên dụng"
            },
            {
                "name": "Dịch vụ B2B"
            }
        ]
    },
    {
        "name": "Trạm Bánh Mì",
        "latitude": 10.93314,
        "longitude": 106.85442,
        "address": "Trạm Bánh Mì, Đường Trần Thị Hoa, Phường An Bình, Biên Hòa, Đồng Nai, Việt Nam",
        "country_code": "VNM",
        "country_name": "Việt Nam",
        "city": "Đồng Nai",
        "district": "Biên Hòa",
        "ward": "Phường An Bình",
        "street": "Đường Trần Thị Hoa",
        "postal_code": "76128",
        "categories": [
            {
                "name": "Hiệu bánh"
            }
        ]
    },
    {
        "name": "Đông Bakery",
        "latitude": 10.89168,
        "longitude": 106.73021,
        "address": "Đông Bakery, Hẻm 14 Đường Bình Hòa 24, Phường Bình Hòa, Thuận An, Bình Dương, Việt Nam",
        "country_code": "VNM",
        "country_name": "Việt Nam",
        "city": "Bình Dương",
        "district": "Thuận An",
        "ward": "Phường Bình Hòa",
        "street": "Hẻm 14 Đường Bình Hòa 24",
        "postal_code": "75208",
        "categories": [
            {
                "name": "Cửa hàng chuyên dụng"
            },
            {
                "name": "Hiệu bánh"
            }
        ]
    },
    {
        "name": "Bánh Kem Tiến Phát",
        "latitude": 10.94231,
        "longitude": 106.73271,
        "address": "Bánh Kem Tiến Phát, Đường D1, Phường An Phú, Thuận An, Bình Dương, Việt Nam",
        "country_code": "VNM",
        "country_name": "Việt Nam",
        "city": "Bình Dương",
        "district": "Thuận An",
        "ward": "Phường An Phú",
        "street": "Đường D1",
        "postal_code": "75209",
        "categories": [
            {
                "name": "Hiệu bánh"
            },
            {
                "name": "Đặc sản & Đồ uống"
            }
        ]
    },
    {
        "name": "Đỗ Ca Bakery",
        "latitude": 10.96229,
        "longitude": 106.83572,
        "address": "Đỗ Ca Bakery, Đường Nguyễn Ái Quốc, Phường Tân Tiến, Biên Hòa, Đồng Nai, Việt Nam",
        "country_code": "VNM",
        "country_name": "Việt Nam",
        "city": "Đồng Nai",
        "district": "Biên Hòa",
        "ward": "Phường Tân Tiến",
        "street": "Đường Nguyễn Ái Quốc",
        "postal_code": "76115",
        "categories": [
            {
                "name": "Hiệu bánh"
            }
        ]
    },
    {
        "name": "Hoàng Nam Lò Bánh Mì Đặc Ruột",
        "latitude": 10.89563,
        "longitude": 106.85506,
        "address": "Hoàng Nam Lò Bánh Mì Đặc Ruột, Đường Nguyễn Văn Tỏ, Phường Long Bình Tân, Biên Hòa, Đồng Nai, Việt Nam",
        "country_code": "VNM",
        "country_name": "Việt Nam",
        "city": "Đồng Nai",
        "district": "Biên Hòa",
        "ward": "Phường Long Bình Tân",
        "street": "Đường Nguyễn Văn Tỏ",
        "postal_code": "76129",
        "categories": [
            {
                "name": "Hiệu bánh"
            }
        ]
    },
    {
        "name": "Bánh Mỳ Chay- Mặn",
        "latitude": 10.8508,
        "longitude": 106.77651,
        "address": "Bánh Mỳ Chay- Mặn, Xa Lộ Hà Nội, Phường Hiệp Phú, Thủ Đức, Hồ Chí Minh, Việt Nam",
        "country_code": "VNM",
        "country_name": "Việt Nam",
        "city": "Hồ Chí Minh",
        "district": "Thủ Đức",
        "ward": "Phường Hiệp Phú",
        "street": "Xa Lộ Hà Nội",
        "postal_code": "71206",
        "categories": [
            {
                "name": "Hiệu bánh"
            }
        ]
    },
    {
        "name": "Cookie Shop",
        "latitude": 10.84889,
        "longitude": 106.7902,
        "address": "Cookie Shop, Đường 106, Phường Tăng Nhơn Phú A, Thủ Đức, Hồ Chí Minh, Việt Nam",
        "country_code": "VNM",
        "country_name": "Việt Nam",
        "city": "Hồ Chí Minh",
        "district": "Thủ Đức",
        "ward": "Phường Tăng Nhơn Phú A",
        "street": "Đường 106",
        "postal_code": "71207",
        "categories": [
            {
                "name": "Hiệu bánh"
            }
        ]
    },
    {
        "name": "Bakery Hoa Tranh",
        "latitude": 10.96281,
        "longitude": 106.8362,
        "address": "Bakery Hoa Tranh, Hẻm 1592 Nguyễn Ái Quốc, Phường Tân Phong, Biên Hòa, Đồng Nai, Việt Nam",
        "country_code": "VNM",
        "country_name": "Việt Nam",
        "city": "Đồng Nai",
        "district": "Biên Hòa",
        "ward": "Phường Tân Phong",
        "street": "Hẻm 1592 Nguyễn Ái Quốc",
        "postal_code": "76117",
        "categories": [
            {
                "name": "Hiệu bánh"
            }
        ]
    },
    {
        "name": "Lê Thảo Bakery",
        "latitude": 10.85239,
        "longitude": 106.7685,
        "address": "Lê Thảo Bakery, Đường Số 5, Phường Linh Chiểu, Thủ Đức, Hồ Chí Minh, Việt Nam",
        "country_code": "VNM",
        "country_name": "Việt Nam",
        "city": "Hồ Chí Minh",
        "district": "Thủ Đức",
        "ward": "Phường Linh Chiểu",
        "street": "Đường Số 5",
        "postal_code": "71307",
        "categories": [
            {
                "name": "Hiệu bánh"
            }
        ]
    },
    {
        "name": "Bakery Thơm",
        "latitude": 10.90476,
        "longitude": 106.72532,
        "address": "Bakery Thơm, Tỉnh Lộ 743, Phường Bình Hòa, Thuận An, Bình Dương, Việt Nam",
        "country_code": "VNM",
        "country_name": "Việt Nam",
        "city": "Bình Dương",
        "district": "Thuận An",
        "ward": "Phường Bình Hòa",
        "street": "Tỉnh Lộ 743",
        "postal_code": "75208",
        "categories": [
            {
                "name": "Hiệu bánh"
            }
        ]
    },
    {
        "name": "Thế Giới Bánh",
        "latitude": 10.94829,
        "longitude": 106.73386,
        "address": "Thế Giới Bánh, Đường 22 Tháng 12, Phường An Phú, Thuận An, Bình Dương, Việt Nam",
        "country_code": "VNM",
        "country_name": "Việt Nam",
        "city": "Bình Dương",
        "district": "Thuận An",
        "ward": "Phường An Phú",
        "street": "Đường 22 Tháng 12",
        "postal_code": "75209",
        "categories": [
            {
                "name": "Hiệu bánh"
            }
        ]
    },
    {
        "name": "Bánh Mì Hà Nội Hoàng Long",
        "latitude": 10.8569,
        "longitude": 106.75699,
        "address": "Bánh Mì Hà Nội Hoàng Long, 1064 Đường Kha Vạn Cân, Phường Linh Tây, Thủ Đức, Hồ Chí Minh, Việt Nam",
        "country_code": "VNM",
        "country_name": "Việt Nam",
        "city": "Hồ Chí Minh",
        "district": "Thủ Đức",
        "ward": "Phường Linh Tây",
        "street": "Đường Kha Vạn Cân",
        "postal_code": "71310",
        "categories": [
            {
                "name": "Cửa hàng chuyên dụng"
            },
            {
                "name": "Chợ/Gian hàng ẩm thực"
            },
            {
                "name": "Hiệu bánh"
            }
        ]
    },
    {
        "name": "Yummy Sandwich - Phú Châu",
        "latitude": 10.8645,
        "longitude": 106.74642,
        "address": "Yummy Sandwich - Phú Châu, 46 Đường Phú Châu, Phường Tam Phú, Thủ Đức, Hồ Chí Minh, Việt Nam",
        "country_code": "VNM",
        "country_name": "Việt Nam",
        "city": "Hồ Chí Minh",
        "district": "Thủ Đức",
        "ward": "Phường Tam Phú",
        "street": "Đường Phú Châu",
        "postal_code": "71311",
        "categories": [
            {
                "name": "Hiệu bánh"
            },
            {
                "name": "Nhà hàng"
            }
        ]
    },
    {
        "name": "Bánh Mì Việt-Hàn",
        "latitude": 10.85482,
        "longitude": 106.76051,
        "address": "Bánh Mì Việt-Hàn, Đường Số 17, Phường Linh Chiểu, Thủ Đức, Hồ Chí Minh, Việt Nam",
        "country_code": "VNM",
        "country_name": "Việt Nam",
        "city": "Hồ Chí Minh",
        "district": "Thủ Đức",
        "ward": "Phường Linh Chiểu",
        "street": "Đường Số 17",
        "postal_code": "71307",
        "categories": [
            {
                "name": "Hiệu bánh"
            }
        ]
    },
    {
        "name": "Alo Bánh Kem",
        "latitude": 10.88881,
        "longitude": 106.7286,
        "address": "Alo Bánh Kem, Hẻm 1100 Tỉnh Lộ 43, Phường Bình Chiểu, Thủ Đức, Hồ Chí Minh, Việt Nam",
        "country_code": "VNM",
        "country_name": "Việt Nam",
        "city": "Hồ Chí Minh",
        "district": "Thủ Đức",
        "ward": "Phường Bình Chiểu",
        "street": "Hẻm 1100 Tỉnh Lộ 43",
        "postal_code": "71313",
        "categories": [
            {
                "name": "Hiệu bánh"
            }
        ]
    },
    {
        "name": "Cơ Sở Sản Xuất & Kinh Doanh Bánh Mì Đặc Ruột Nhật Phong",
        "latitude": 10.95706,
        "longitude": 106.84416,
        "address": "Cơ Sở Sản Xuất & Kinh Doanh Bánh Mì Đặc Ruột Nhật Phong, 1259 Đường Phạm Văn Thuận, Phường Thống Nhất, Biên Hòa, Đồng Nai, Việt Nam",
        "country_code": "VNM",
        "country_name": "Việt Nam",
        "city": "Đồng Nai",
        "district": "Biên Hòa",
        "ward": "Phường Thống Nhất",
        "street": "Đường Phạm Văn Thuận",
        "postal_code": "76108",
        "categories": [
            {
                "name": "Hiệu bánh"
            }
        ]
    },
    {
        "name": "Bánh Mì Thanh Tâm",
        "latitude": 10.84817,
        "longitude": 106.77905,
        "address": "Bánh Mì Thanh Tâm, Hẻm 77 Đường Tân Lập 2, Phường Hiệp Phú, Thủ Đức, Hồ Chí Minh, Việt Nam",
        "country_code": "VNM",
        "country_name": "Việt Nam",
        "city": "Hồ Chí Minh",
        "district": "Thủ Đức",
        "ward": "Phường Hiệp Phú",
        "street": "Hẻm 77 Đường Tân Lập 2",
        "postal_code": "71206",
        "categories": [
            {
                "name": "Hiệu bánh"
            }
        ]
    },
    {
        "name": "Tiệm Bánh Nhật Linh",
        "latitude": 10.84707,
        "longitude": 106.78689,
        "address": "Tiệm Bánh Nhật Linh, 77 Đường Man Thiện, Phường Hiệp Phú, Thủ Đức, Hồ Chí Minh, Việt Nam",
        "country_code": "VNM",
        "country_name": "Việt Nam",
        "city": "Hồ Chí Minh",
        "district": "Thủ Đức",
        "ward": "Phường Hiệp Phú",
        "street": "Đường Man Thiện",
        "postal_code": "71206",
        "categories": [
            {
                "name": "Hiệu bánh"
            }
        ]
    }
]
