[
    {
        "name": "Cà Phê Thúy Hằng",
        "latitude": 10.91187,
        "longitude": 106.79659,
        "address": "Cà Phê Thúy Hằng, Xa Lộ Hà Nội, Phường Tân Đông Hiệp, Dĩ An, Bình Dương, Việt Nam",
        "country_code": "VNM",
        "country_name": "Việt Nam",
        "city": "Bình Dương",
        "district": "Dĩ An",
        "ward": "Phường Tân Đông Hiệp",
        "street": "Xa Lộ Hà Nội",
        "postal_code": "75311",
        "categories": [
            {
                "name": "Cửa hàng tiện lợi"
            }
        ]
    },
    {
        "name": "Tạp Hóa-Cafe-Giải Khát 234",
        "latitude": 10.91198,
        "longitude": 106.79665,
        "address": "Tạp Hóa-Cafe-Giải Khát 234, Xa Lộ Hà Nội, Phường Tân Đông Hiệp, Dĩ An, Bình Dương, Việt Nam",
        "country_code": "VNM",
        "country_name": "Việt Nam",
        "city": "Bình Dương",
        "district": "Dĩ An",
        "ward": "Phường Tân Đông Hiệp",
        "street": "Xa Lộ Hà Nội",
        "postal_code": "75311",
        "categories": [
            {
                "name": "Cửa hàng tiện lợi"
            }
        ]
    },
    {
        "name": "Tạp Hóa Phương Thảo",
        "latitude": 10.90774,
        "longitude": 106.79059,
        "address": "Tạp Hóa Phương Thảo, TL.743, Phường Tân Đông Hiệp, Dĩ An, Bình Dương, Việt Nam",
        "country_code": "VNM",
        "country_name": "Việt Nam",
        "city": "Bình Dương",
        "district": "Dĩ An",
        "ward": "Phường Tân Đông Hiệp",
        "street": "TL.743",
        "postal_code": "75311",
        "categories": [
            {
                "name": "Cửa hàng tiện lợi"
            }
        ]
    },
    {
        "name": "Tạp Hóa Trung Nguyên",
        "latitude": 10.90774,
        "longitude": 106.79059,
        "address": "Tạp Hóa Trung Nguyên, TL.743, Phường Tân Đông Hiệp, Dĩ An, Bình Dương, Việt Nam",
        "country_code": "VNM",
        "country_name": "Việt Nam",
        "city": "Bình Dương",
        "district": "Dĩ An",
        "ward": "Phường Tân Đông Hiệp",
        "street": "TL.743",
        "postal_code": "75311",
        "categories": [
            {
                "name": "Cửa hàng tiện lợi"
            }
        ]
    },
    {
        "name": "Tạp Hóa Hải Yến",
        "latitude": 10.90774,
        "longitude": 106.79059,
        "address": "Tạp Hóa Hải Yến, TL.743, Phường Tân Đông Hiệp, Dĩ An, Bình Dương, Việt Nam",
        "country_code": "VNM",
        "country_name": "Việt Nam",
        "city": "Bình Dương",
        "district": "Dĩ An",
        "ward": "Phường Tân Đông Hiệp",
        "street": "TL.743",
        "postal_code": "75311",
        "categories": [
            {
                "name": "Cửa hàng tiện lợi"
            }
        ]
    },
    {
        "name": "Tạp Hóa Sáng",
        "latitude": 10.90745,
        "longitude": 106.79159,
        "address": "Tạp Hóa Sáng, TL.743, Phường Tân Đông Hiệp, Dĩ An, Bình Dương, Việt Nam",
        "country_code": "VNM",
        "country_name": "Việt Nam",
        "city": "Bình Dương",
        "district": "Dĩ An",
        "ward": "Phường Tân Đông Hiệp",
        "street": "TL.743",
        "postal_code": "75311",
        "categories": [
            {
                "name": "Cửa hàng tiện lợi"
            }
        ]
    },
    {
        "name": "Tạp Hóa Ngọc Dung",
        "latitude": 10.90863,
        "longitude": 106.78785,
        "address": "Tạp Hóa Ngọc Dung, TL.743, Phường Tân Đông Hiệp, Dĩ An, Bình Dương, Việt Nam",
        "country_code": "VNM",
        "country_name": "Việt Nam",
        "city": "Bình Dương",
        "district": "Dĩ An",
        "ward": "Phường Tân Đông Hiệp",
        "street": "TL.743",
        "postal_code": "75311",
        "categories": [
            {
                "name": "Cửa hàng tiện lợi"
            }
        ]
    },
    {
        "name": "Tạp Hóa Kim Ngan",
        "latitude": 10.90733,
        "longitude": 106.79196,
        "address": "Tạp Hóa Kim Ngan, TL.743, Phường Tân Đông Hiệp, Dĩ An, Bình Dương, Việt Nam",
        "country_code": "VNM",
        "country_name": "Việt Nam",
        "city": "Bình Dương",
        "district": "Dĩ An",
        "ward": "Phường Tân Đông Hiệp",
        "street": "TL.743",
        "postal_code": "75311",
        "categories": [
            {
                "name": "Cửa hàng tiện lợi"
            }
        ]
    },
    {
        "name": "Tạp Hóa Ngọc Hà",
        "latitude": 10.90811,
        "longitude": 106.79544,
        "address": "Tạp Hóa Ngọc Hà, Xa Lộ Hà Nội, Phường Tân Đông Hiệp, Dĩ An, Bình Dương, Việt Nam",
        "country_code": "VNM",
        "country_name": "Việt Nam",
        "city": "Bình Dương",
        "district": "Dĩ An",
        "ward": "Phường Tân Đông Hiệp",
        "street": "Xa Lộ Hà Nội",
        "postal_code": "75311",
        "categories": [
            {
                "name": "Cửa hàng tiện lợi"
            }
        ]
    },
    {
        "name": "Tạp Hóa Ngọc Thu",
        "latitude": 10.90865,
        "longitude": 106.78699,
        "address": "Tạp Hóa Ngọc Thu, TL.743, Phường Tân Đông Hiệp, Dĩ An, Bình Dương, Việt Nam",
        "country_code": "VNM",
        "country_name": "Việt Nam",
        "city": "Bình Dương",
        "district": "Dĩ An",
        "ward": "Phường Tân Đông Hiệp",
        "street": "TL.743",
        "postal_code": "75311",
        "categories": [
            {
                "name": "Cửa hàng tiện lợi"
            }
        ]
    },
    {
        "name": "Moonmart - Emuspirit",
        "latitude": 10.90689,
        "longitude": 106.79398,
        "address": "Moonmart - Emuspirit, TL.743, Phường Bình Thắng, Dĩ An, Bình Dương, Việt Nam",
        "country_code": "VNM",
        "country_name": "Việt Nam",
        "city": "Bình Dương",
        "district": "Dĩ An",
        "ward": "Phường Bình Thắng",
        "street": "TL.743",
        "postal_code": "75309",
        "categories": [
            {
                "name": "Cửa hàng tiện lợi"
            }
        ]
    },
    {
        "name": "Tạp Hóa Thanh Minh",
        "latitude": 10.90721,
        "longitude": 106.79504,
        "address": "Tạp Hóa Thanh Minh, Xa Lộ Hà Nội, Phường Bình Thắng, Dĩ An, Bình Dương, Việt Nam",
        "country_code": "VNM",
        "country_name": "Việt Nam",
        "city": "Bình Dương",
        "district": "Dĩ An",
        "ward": "Phường Bình Thắng",
        "street": "Xa Lộ Hà Nội",
        "postal_code": "75309",
        "categories": [
            {
                "name": "Cửa hàng tiện lợi"
            }
        ]
    },
    {
        "name": "Tạp Hóa Kim Hằng",
        "latitude": 10.91893,
        "longitude": 106.78486,
        "address": "Tạp Hóa Kim Hằng, Đường N8, Phường Tân Đông Hiệp, Dĩ An, Bình Dương, Việt Nam",
        "country_code": "VNM",
        "country_name": "Việt Nam",
        "city": "Bình Dương",
        "district": "Dĩ An",
        "ward": "Phường Tân Đông Hiệp",
        "street": "Đường N8",
        "postal_code": "75311",
        "categories": [
            {
                "name": "Cửa hàng tiện lợi"
            }
        ]
    },
    {
        "name": "Tạp Hóa Thái Bảo 2",
        "latitude": 10.90953,
        "longitude": 106.78431,
        "address": "Tạp Hóa Thái Bảo 2, TL.743, Phường Tân Đông Hiệp, Dĩ An, Bình Dương, Việt Nam",
        "country_code": "VNM",
        "country_name": "Việt Nam",
        "city": "Bình Dương",
        "district": "Dĩ An",
        "ward": "Phường Tân Đông Hiệp",
        "street": "TL.743",
        "postal_code": "75311",
        "categories": [
            {
                "name": "Cửa hàng tiện lợi"
            }
        ]
    },
    {
        "name": "Tạp Hóa Anh Tú",
        "latitude": 10.91897,
        "longitude": 106.78396,
        "address": "Tạp Hóa Anh Tú, Đường N8, Phường Tân Đông Hiệp, Dĩ An, Bình Dương, Việt Nam",
        "country_code": "VNM",
        "country_name": "Việt Nam",
        "city": "Bình Dương",
        "district": "Dĩ An",
        "ward": "Phường Tân Đông Hiệp",
        "street": "Đường N8",
        "postal_code": "75311",
        "categories": [
            {
                "name": "Cửa hàng tiện lợi"
            }
        ]
    },
    {
        "name": "Tạp Hóa Kim Liên",
        "latitude": 10.90504,
        "longitude": 106.79404,
        "address": "Tạp Hóa Kim Liên, Xa Lộ Hà Nội, Phường Bình Thắng, Dĩ An, Bình Dương, Việt Nam",
        "country_code": "VNM",
        "country_name": "Việt Nam",
        "city": "Bình Dương",
        "district": "Dĩ An",
        "ward": "Phường Bình Thắng",
        "street": "Xa Lộ Hà Nội",
        "postal_code": "75309",
        "categories": [
            {
                "name": "Cửa hàng tiện lợi"
            }
        ]
    },
    {
        "name": "Tạp Hóa Châu Anh",
        "latitude": 10.90499,
        "longitude": 106.79441,
        "address": "Tạp Hóa Châu Anh, Xa Lộ Hà Nội, Phường Bình Thắng, Dĩ An, Bình Dương, Việt Nam",
        "country_code": "VNM",
        "country_name": "Việt Nam",
        "city": "Bình Dương",
        "district": "Dĩ An",
        "ward": "Phường Bình Thắng",
        "street": "Xa Lộ Hà Nội",
        "postal_code": "75309",
        "categories": [
            {
                "name": "Cửa hàng tiện lợi"
            }
        ]
    },
    {
        "name": "WinMart+",
        "latitude": 10.9155,
        "longitude": 106.78208,
        "address": "WinMart+, Đường D1, Phường Tân Đông Hiệp, Dĩ An, Bình Dương, Việt Nam",
        "country_code": "VNM",
        "country_name": "Việt Nam",
        "city": "Bình Dương",
        "district": "Dĩ An",
        "ward": "Phường Tân Đông Hiệp",
        "street": "Đường D1",
        "postal_code": "75311",
        "categories": [
            {
                "name": "Cửa hàng tiện lợi"
            }
        ]
    },
    {
        "name": "Tạp Hóa Vân Anh",
        "latitude": 10.91653,
        "longitude": 106.78179,
        "address": "Tạp Hóa Vân Anh, Đường Đông An, Phường Tân Đông Hiệp, Dĩ An, Bình Dương, Việt Nam",
        "country_code": "VNM",
        "country_name": "Việt Nam",
        "city": "Bình Dương",
        "district": "Dĩ An",
        "ward": "Phường Tân Đông Hiệp",
        "street": "Đường Đông An",
        "postal_code": "75311",
        "categories": [
            {
                "name": "Cửa hàng tiện lợi"
            }
        ]
    },
    {
        "name": "Tạp Hóa Hưng Phát",
        "latitude": 10.91931,
        "longitude": 106.78291,
        "address": "Tạp Hóa Hưng Phát, Đường N8, Phường Tân Đông Hiệp, Dĩ An, Bình Dương, Việt Nam",
        "country_code": "VNM",
        "country_name": "Việt Nam",
        "city": "Bình Dương",
        "district": "Dĩ An",
        "ward": "Phường Tân Đông Hiệp",
        "street": "Đường N8",
        "postal_code": "75311",
        "categories": [
            {
                "name": "Cửa hàng tiện lợi"
            }
        ]
    },
    {
        "name": "Bách Hóa Trâm Anh",
        "latitude": 10.90411,
        "longitude": 106.79404,
        "address": "Bách Hóa Trâm Anh, Xa Lộ Hà Nội, Phường Bình Thắng, Dĩ An, Bình Dương, Việt Nam",
        "country_code": "VNM",
        "country_name": "Việt Nam",
        "city": "Bình Dương",
        "district": "Dĩ An",
        "ward": "Phường Bình Thắng",
        "street": "Xa Lộ Hà Nội",
        "postal_code": "75309",
        "categories": [
            {
                "name": "Cửa hàng tiện lợi"
            }
        ]
    },
    {
        "name": "Tạp Hóa Anh Hà",
        "latitude": 10.913,
        "longitude": 106.78136,
        "address": "Tạp Hóa Anh Hà, Đường Đông An, Phường Tân Đông Hiệp, Dĩ An, Bình Dương, Việt Nam",
        "country_code": "VNM",
        "country_name": "Việt Nam",
        "city": "Bình Dương",
        "district": "Dĩ An",
        "ward": "Phường Tân Đông Hiệp",
        "street": "Đường Đông An",
        "postal_code": "75311",
        "categories": [
            {
                "name": "Cửa hàng tiện lợi"
            }
        ]
    },
    {
        "name": "Tạp Hóa Hải Yến",
        "latitude": 10.90939,
        "longitude": 106.78104,
        "address": "Tạp Hóa Hải Yến, Hẻm 8C Đường Hai Bà Trưng, Phường Tân Đông Hiệp, Dĩ An, Bình Dương, Việt Nam",
        "country_code": "VNM",
        "country_name": "Việt Nam",
        "city": "Bình Dương",
        "district": "Dĩ An",
        "ward": "Phường Tân Đông Hiệp",
        "street": "Hẻm 8C Đường Hai Bà Trưng",
        "postal_code": "75311",
        "categories": [
            {
                "name": "Cửa hàng tiện lợi"
            }
        ]
    },
    {
        "name": "Tạp Hóa Nam Phương",
        "latitude": 10.90894,
        "longitude": 106.78116,
        "address": "Tạp Hóa Nam Phương, Hẻm 8C Đường Hai Bà Trưng, Phường Tân Đông Hiệp, Dĩ An, Bình Dương, Việt Nam",
        "country_code": "VNM",
        "country_name": "Việt Nam",
        "city": "Bình Dương",
        "district": "Dĩ An",
        "ward": "Phường Tân Đông Hiệp",
        "street": "Hẻm 8C Đường Hai Bà Trưng",
        "postal_code": "75311",
        "categories": [
            {
                "name": "Cửa hàng tiện lợi"
            }
        ]
    },
    {
        "name": "Tạp Hóa Thúy Vân",
        "latitude": 10.90719,
        "longitude": 106.80158,
        "address": "Tạp Hóa Thúy Vân, Đường Bình Thung, Phường Bình Thắng, Dĩ An, Bình Dương, Việt Nam",
        "country_code": "VNM",
        "country_name": "Việt Nam",
        "city": "Bình Dương",
        "district": "Dĩ An",
        "ward": "Phường Bình Thắng",
        "street": "Đường Bình Thung",
        "postal_code": "75309",
        "categories": [
            {
                "name": "Cửa hàng tiện lợi"
            }
        ]
    },
    {
        "name": "Tạp Hóa Chú Út",
        "latitude": 10.90704,
        "longitude": 106.80165,
        "address": "Tạp Hóa Chú Út, Đường Bình Thung, Phường Bình Thắng, Dĩ An, Bình Dương, Việt Nam",
        "country_code": "VNM",
        "country_name": "Việt Nam",
        "city": "Bình Dương",
        "district": "Dĩ An",
        "ward": "Phường Bình Thắng",
        "street": "Đường Bình Thung",
        "postal_code": "75309",
        "categories": [
            {
                "name": "Cửa hàng tiện lợi"
            }
        ]
    },
    {
        "name": "Tạp Hóa Ngọc Đăng",
        "latitude": 10.91243,
        "longitude": 106.77931,
        "address": "Tạp Hóa Ngọc Đăng, TL.743, Phường Tân Đông Hiệp, Dĩ An, Bình Dương, Việt Nam",
        "country_code": "VNM",
        "country_name": "Việt Nam",
        "city": "Bình Dương",
        "district": "Dĩ An",
        "ward": "Phường Tân Đông Hiệp",
        "street": "TL.743",
        "postal_code": "75311",
        "categories": [
            {
                "name": "Cửa hàng tiện lợi"
            }
        ]
    },
    {
        "name": "Tạp Hoá Chương Hợi",
        "latitude": 10.90224,
        "longitude": 106.79559,
        "address": "Tạp Hoá Chương Hợi, ĐT.743A, Phường Bình Thắng, Dĩ An, Bình Dương, Việt Nam",
        "country_code": "VNM",
        "country_name": "Việt Nam",
        "city": "Bình Dương",
        "district": "Dĩ An",
        "ward": "Phường Bình Thắng",
        "street": "ĐT.743A",
        "postal_code": "75309",
        "categories": [
            {
                "name": "Cửa hàng tiện lợi"
            }
        ]
    },
    {
        "name": "Tạp Hóa Hoàn Châu",
        "latitude": 10.9071,
        "longitude": 106.78119,
        "address": "Tạp Hóa Hoàn Châu, 66 Hẻm 181 Đường Hai Bà Trưng, Phường Tân Đông Hiệp, Dĩ An, Bình Dương, Việt Nam",
        "country_code": "VNM",
        "country_name": "Việt Nam",
        "city": "Bình Dương",
        "district": "Dĩ An",
        "ward": "Phường Tân Đông Hiệp",
        "street": "Hẻm 181 Đường Hai Bà Trưng",
        "postal_code": "75311",
        "categories": [
            {
                "name": "Cửa hàng tiện lợi"
            }
        ]
    },
    {
        "name": "Gia Dụng Tiện Ích",
        "latitude": 10.90655,
        "longitude": 106.78116,
        "address": "Gia Dụng Tiện Ích, Đường Hai Bà Trưng, Phường Tân Đông Hiệp, Dĩ An, Bình Dương, Việt Nam",
        "country_code": "VNM",
        "country_name": "Việt Nam",
        "city": "Bình Dương",
        "district": "Dĩ An",
        "ward": "Phường Tân Đông Hiệp",
        "street": "Đường Hai Bà Trưng",
        "postal_code": "75311",
        "categories": [
            {
                "name": "Cửa hàng tiện lợi"
            }
        ]
    },
    {
        "name": "Vinmart",
        "latitude": 10.90198,
        "longitude": 106.7961,
        "address": "Vinmart, Đường Tỉnh 743A, Phường Bình Thắng, Dĩ An, Bình Dương, Việt Nam",
        "country_code": "VNM",
        "country_name": "Việt Nam",
        "city": "Bình Dương",
        "district": "Dĩ An",
        "ward": "Phường Bình Thắng",
        "street": "Đường Tỉnh 743A",
        "postal_code": "75309",
        "categories": [
            {
                "name": "Cửa hàng tiện lợi"
            }
        ]
    },
    {
        "name": "Tạp Hóa Ngọc Hương",
        "latitude": 10.9062,
        "longitude": 106.78111,
        "address": "Tạp Hóa Ngọc Hương, Đường Hai Bà Trưng, Phường Tân Đông Hiệp, Dĩ An, Bình Dương, Việt Nam",
        "country_code": "VNM",
        "country_name": "Việt Nam",
        "city": "Bình Dương",
        "district": "Dĩ An",
        "ward": "Phường Tân Đông Hiệp",
        "street": "Đường Hai Bà Trưng",
        "postal_code": "75311",
        "categories": [
            {
                "name": "Cửa hàng tiện lợi"
            }
        ]
    },
    {
        "name": "Tạp Hóa Nguyễn Thùy",
        "latitude": 10.91332,
        "longitude": 106.77765,
        "address": "Tạp Hóa Nguyễn Thùy, TL.743, Phường Tân Đông Hiệp, Dĩ An, Bình Dương, Việt Nam",
        "country_code": "VNM",
        "country_name": "Việt Nam",
        "city": "Bình Dương",
        "district": "Dĩ An",
        "ward": "Phường Tân Đông Hiệp",
        "street": "TL.743",
        "postal_code": "75311",
        "categories": [
            {
                "name": "Cửa hàng tiện lợi"
            }
        ]
    },
    {
        "name": "Tạp Hóa Nước Giải Khác Coffee Ban Mê",
        "latitude": 10.90023,
        "longitude": 106.79362,
        "address": "Tạp Hóa Nước Giải Khác Coffee Ban Mê, Đường Trần Đại Nghĩa, Phường Bình Thắng, Dĩ An, Bình Dương, Việt Nam",
        "country_code": "VNM",
        "country_name": "Việt Nam",
        "city": "Bình Dương",
        "district": "Dĩ An",
        "ward": "Phường Bình Thắng",
        "street": "Đường Trần Đại Nghĩa",
        "postal_code": "75309",
        "categories": [
            {
                "name": "Cửa hàng tiện lợi"
            }
        ]
    },
    {
        "name": "Tạp Hóa Thanh Thoảng",
        "latitude": 10.90833,
        "longitude": 106.77851,
        "address": "Tạp Hóa Thanh Thoảng, Đường Nguyễn Thái Học, Phường Tân Đông Hiệp, Dĩ An, Bình Dương, Việt Nam",
        "country_code": "VNM",
        "country_name": "Việt Nam",
        "city": "Bình Dương",
        "district": "Dĩ An",
        "ward": "Phường Tân Đông Hiệp",
        "street": "Đường Nguyễn Thái Học",
        "postal_code": "75311",
        "categories": [
            {
                "name": "Cửa hàng tiện lợi"
            }
        ]
    },
    {
        "name": "Tạp Hóa Nhật Long",
        "latitude": 10.90457,
        "longitude": 106.78079,
        "address": "Tạp Hóa Nhật Long, Đường Hai Bà Trưng, Phường Tân Đông Hiệp, Dĩ An, Bình Dương, Việt Nam",
        "country_code": "VNM",
        "country_name": "Việt Nam",
        "city": "Bình Dương",
        "district": "Dĩ An",
        "ward": "Phường Tân Đông Hiệp",
        "street": "Đường Hai Bà Trưng",
        "postal_code": "75311",
        "categories": [
            {
                "name": "Cửa hàng tiện lợi"
            }
        ]
    },
    {
        "name": "Tạp Hóa Mi Mi",
        "latitude": 10.89923,
        "longitude": 106.79264,
        "address": "Tạp Hóa Mi Mi, Xa Lộ Hà Nội, Phường Bình Thắng, Dĩ An, Bình Dương, Việt Nam",
        "country_code": "VNM",
        "country_name": "Việt Nam",
        "city": "Bình Dương",
        "district": "Dĩ An",
        "ward": "Phường Bình Thắng",
        "street": "Xa Lộ Hà Nội",
        "postal_code": "75309",
        "categories": [
            {
                "name": "Cửa hàng tiện lợi"
            }
        ]
    },
    {
        "name": "Bích Huyền",
        "latitude": 10.90059,
        "longitude": 106.78521,
        "address": "Bích Huyền, Đường Nguyễn Công Trứ, Phường Đông Hòa, Dĩ An, Bình Dương, Việt Nam",
        "country_code": "VNM",
        "country_name": "Việt Nam",
        "city": "Bình Dương",
        "district": "Dĩ An",
        "ward": "Phường Đông Hòa",
        "street": "Đường Nguyễn Công Trứ",
        "postal_code": "75308",
        "categories": [
            {
                "name": "Cửa hàng tiện lợi"
            }
        ]
    },
    {
        "name": "Tạp Hóa Hải Phát",
        "latitude": 10.92348,
        "longitude": 106.80445,
        "address": "Tạp Hóa Hải Phát, Đường Nguyễn Ái Quốc, Phường Hóa An, Biên Hòa, Đồng Nai, Việt Nam",
        "country_code": "VNM",
        "country_name": "Việt Nam",
        "city": "Đồng Nai",
        "district": "Biên Hòa",
        "ward": "Phường Hóa An",
        "street": "Đường Nguyễn Ái Quốc",
        "postal_code": "76123",
        "categories": [
            {
                "name": "Cửa hàng tiện lợi"
            }
        ]
    },
    {
        "name": "Tạp Hóa Chị Bé",
        "latitude": 10.92348,
        "longitude": 106.80445,
        "address": "Tạp Hóa Chị Bé, 82/12 Đường Nguyễn Ái Quốc, Phường Hóa An, Biên Hòa, Đồng Nai, Việt Nam",
        "country_code": "VNM",
        "country_name": "Việt Nam",
        "city": "Đồng Nai",
        "district": "Biên Hòa",
        "ward": "Phường Hóa An",
        "street": "Đường Nguyễn Ái Quốc",
        "postal_code": "76123",
        "categories": [
            {
                "name": "Cửa hàng tiện lợi"
            }
        ]
    },
    {
        "name": "Tạp Hóa Hải Đăng",
        "latitude": 10.90054,
        "longitude": 106.78383,
        "address": "Tạp Hóa Hải Đăng, Đường Nguyễn Đình Chiểu, Phường Đông Hòa, Dĩ An, Bình Dương, Việt Nam",
        "country_code": "VNM",
        "country_name": "Việt Nam",
        "city": "Bình Dương",
        "district": "Dĩ An",
        "ward": "Phường Đông Hòa",
        "street": "Đường Nguyễn Đình Chiểu",
        "postal_code": "75308",
        "categories": [
            {
                "name": "Cửa hàng tiện lợi"
            }
        ]
    },
    {
        "name": "Tạp Hóa Huy Đào",
        "latitude": 10.89898,
        "longitude": 106.7873,
        "address": "Tạp Hóa Huy Đào, Đường Đào Duy Từ, Phường Đông Hòa, Dĩ An, Bình Dương, Việt Nam",
        "country_code": "VNM",
        "country_name": "Việt Nam",
        "city": "Bình Dương",
        "district": "Dĩ An",
        "ward": "Phường Đông Hòa",
        "street": "Đường Đào Duy Từ",
        "postal_code": "75308",
        "categories": [
            {
                "name": "Cửa hàng tiện lợi"
            }
        ]
    },
    {
        "name": "Tạp Hóa Thanh Nga",
        "latitude": 10.90382,
        "longitude": 106.77871,
        "address": "Tạp Hóa Thanh Nga, Đường Nguyễn Bính, Phường Đông Hòa, Dĩ An, Bình Dương, Việt Nam",
        "country_code": "VNM",
        "country_name": "Việt Nam",
        "city": "Bình Dương",
        "district": "Dĩ An",
        "ward": "Phường Đông Hòa",
        "street": "Đường Nguyễn Bính",
        "postal_code": "75308",
        "categories": [
            {
                "name": "Cửa hàng tiện lợi"
            }
        ]
    },
    {
        "name": "Tạp Hóa Cô Thảo",
        "latitude": 10.90071,
        "longitude": 106.7815,
        "address": "Tạp Hóa Cô Thảo, Hai Bà Trưng, Phường Đông Hòa, Dĩ An, Bình Dương, Việt Nam",
        "country_code": "VNM",
        "country_name": "Việt Nam",
        "city": "Bình Dương",
        "district": "Dĩ An",
        "ward": "Phường Đông Hòa",
        "street": "Hai Bà Trưng",
        "postal_code": "75308",
        "categories": [
            {
                "name": "Cửa hàng tiện lợi"
            }
        ]
    },
    {
        "name": "Tạp Hóa Đức Thịnh",
        "latitude": 10.92563,
        "longitude": 106.80417,
        "address": "Tạp Hóa Đức Thịnh, Đường Nguyễn Văn Lung, Phường Hóa An, Biên Hòa, Đồng Nai, Việt Nam",
        "country_code": "VNM",
        "country_name": "Việt Nam",
        "city": "Đồng Nai",
        "district": "Biên Hòa",
        "ward": "Phường Hóa An",
        "street": "Đường Nguyễn Văn Lung",
        "postal_code": "76123",
        "categories": [
            {
                "name": "Cửa hàng tiện lợi"
            }
        ]
    },
    {
        "name": "Tạp Hóa Thu Hiền",
        "latitude": 10.90635,
        "longitude": 106.77658,
        "address": "Tạp Hóa Thu Hiền, Đường Đông Tác, Phường Tân Đông Hiệp, Dĩ An, Bình Dương, Việt Nam",
        "country_code": "VNM",
        "country_name": "Việt Nam",
        "city": "Bình Dương",
        "district": "Dĩ An",
        "ward": "Phường Tân Đông Hiệp",
        "street": "Đường Đông Tác",
        "postal_code": "75311",
        "categories": [
            {
                "name": "Cửa hàng tiện lợi"
            }
        ]
    },
    {
        "name": "Tạp Hóa Thu Hồng 2",
        "latitude": 10.90073,
        "longitude": 106.78141,
        "address": "Tạp Hóa Thu Hồng 2, Hai Bà Trưng, Phường Đông Hòa, Dĩ An, Bình Dương, Việt Nam",
        "country_code": "VNM",
        "country_name": "Việt Nam",
        "city": "Bình Dương",
        "district": "Dĩ An",
        "ward": "Phường Đông Hòa",
        "street": "Hai Bà Trưng",
        "postal_code": "75308",
        "categories": [
            {
                "name": "Cửa hàng tiện lợi"
            }
        ]
    },
    {
        "name": "Tạp Hóa Ngọc Trâm",
        "latitude": 10.90835,
        "longitude": 106.77565,
        "address": "Tạp Hóa Ngọc Trâm, Đường Nguyễn Thái Học, Phường Tân Đông Hiệp, Dĩ An, Bình Dương, Việt Nam",
        "country_code": "VNM",
        "country_name": "Việt Nam",
        "city": "Bình Dương",
        "district": "Dĩ An",
        "ward": "Phường Tân Đông Hiệp",
        "street": "Đường Nguyễn Thái Học",
        "postal_code": "75311",
        "categories": [
            {
                "name": "Cửa hàng tiện lợi"
            }
        ]
    },
    {
        "name": "Cửa Hàng Tạp Hóa Trang Nhung",
        "latitude": 10.89729,
        "longitude": 106.79188,
        "address": "Cửa Hàng Tạp Hóa Trang Nhung, Xa Lộ Hà Nội, Phường Bình Thắng, Dĩ An, Bình Dương, Việt Nam",
        "country_code": "VNM",
        "country_name": "Việt Nam",
        "city": "Bình Dương",
        "district": "Dĩ An",
        "ward": "Phường Bình Thắng",
        "street": "Xa Lộ Hà Nội",
        "postal_code": "75309",
        "categories": [
            {
                "name": "Cửa hàng tiện lợi"
            }
        ]
    },
    {
        "name": "Tạp Hóa Lan Anh",
        "latitude": 10.90654,
        "longitude": 106.77587,
        "address": "Tạp Hóa Lan Anh, Hẻm 7C Đường Trần Quang Khải, Phường Tân Đông Hiệp, Dĩ An, Bình Dương, Việt Nam",
        "country_code": "VNM",
        "country_name": "Việt Nam",
        "city": "Bình Dương",
        "district": "Dĩ An",
        "ward": "Phường Tân Đông Hiệp",
        "street": "Hẻm 7C Đường Trần Quang Khải",
        "postal_code": "75311",
        "categories": [
            {
                "name": "Cửa hàng tiện lợi"
            }
        ]
    },
    {
        "name": "Tạp Hóa Cô Lụa",
        "latitude": 10.92575,
        "longitude": 106.80494,
        "address": "Tạp Hóa Cô Lụa, Hẻm 21 Đường Nguyễn Văn Lung, Phường Hóa An, Biên Hòa, Đồng Nai, Việt Nam",
        "country_code": "VNM",
        "country_name": "Việt Nam",
        "city": "Đồng Nai",
        "district": "Biên Hòa",
        "ward": "Phường Hóa An",
        "street": "Hẻm 21 Đường Nguyễn Văn Lung",
        "postal_code": "76123",
        "categories": [
            {
                "name": "Cửa hàng tiện lợi"
            }
        ]
    },
    {
        "name": "Tạp Hóa Minh Trí",
        "latitude": 10.90558,
        "longitude": 106.77586,
        "address": "Tạp Hóa Minh Trí, Đường Trần Quang Khải, Phường Tân Đông Hiệp, Dĩ An, Bình Dương, Việt Nam",
        "country_code": "VNM",
        "country_name": "Việt Nam",
        "city": "Bình Dương",
        "district": "Dĩ An",
        "ward": "Phường Tân Đông Hiệp",
        "street": "Đường Trần Quang Khải",
        "postal_code": "75311",
        "categories": [
            {
                "name": "Cửa hàng tiện lợi"
            }
        ]
    },
    {
        "name": "Tạp Hóa Thu Huyền",
        "latitude": 10.92579,
        "longitude": 106.8054,
        "address": "Tạp Hóa Thu Huyền, Đường Nguyễn Văn Lung, Phường Hóa An, Biên Hòa, Đồng Nai, Việt Nam",
        "country_code": "VNM",
        "country_name": "Việt Nam",
        "city": "Đồng Nai",
        "district": "Biên Hòa",
        "ward": "Phường Hóa An",
        "street": "Đường Nguyễn Văn Lung",
        "postal_code": "76123",
        "categories": [
            {
                "name": "Cửa hàng tiện lợi"
            }
        ]
    },
    {
        "name": "Tạp Hóa Ngọc",
        "latitude": 10.90211,
        "longitude": 106.80513,
        "address": "Tạp Hóa Ngọc, Đường Bình Thung, Phường Bình Thắng, Dĩ An, Bình Dương, Việt Nam",
        "country_code": "VNM",
        "country_name": "Việt Nam",
        "city": "Bình Dương",
        "district": "Dĩ An",
        "ward": "Phường Bình Thắng",
        "street": "Đường Bình Thung",
        "postal_code": "75309",
        "categories": [
            {
                "name": "Cửa hàng tiện lợi"
            }
        ]
    },
    {
        "name": "Tạp Hóa Út Nga",
        "latitude": 10.91451,
        "longitude": 106.77334,
        "address": "Tạp Hóa Út Nga, TL.743, Phường Tân Đông Hiệp, Dĩ An, Bình Dương, Việt Nam",
        "country_code": "VNM",
        "country_name": "Việt Nam",
        "city": "Bình Dương",
        "district": "Dĩ An",
        "ward": "Phường Tân Đông Hiệp",
        "street": "TL.743",
        "postal_code": "75311",
        "categories": [
            {
                "name": "Cửa hàng tiện lợi"
            }
        ]
    },
    {
        "name": "Tạp Hóa Ngọc Nhàn",
        "latitude": 10.91451,
        "longitude": 106.77334,
        "address": "Tạp Hóa Ngọc Nhàn, TL.743, Phường Tân Đông Hiệp, Dĩ An, Bình Dương, Việt Nam",
        "country_code": "VNM",
        "country_name": "Việt Nam",
        "city": "Bình Dương",
        "district": "Dĩ An",
        "ward": "Phường Tân Đông Hiệp",
        "street": "TL.743",
        "postal_code": "75311",
        "categories": [
            {
                "name": "Cửa hàng tiện lợi"
            }
        ]
    },
    {
        "name": "Bách Hóa Tổng Hợp Ngọc Nhi",
        "latitude": 10.89996,
        "longitude": 106.78018,
        "address": "Bách Hóa Tổng Hợp Ngọc Nhi, Đường Trần Hưng Đạo, Phường Đông Hòa, Dĩ An, Bình Dương, Việt Nam",
        "country_code": "VNM",
        "country_name": "Việt Nam",
        "city": "Bình Dương",
        "district": "Dĩ An",
        "ward": "Phường Đông Hòa",
        "street": "Đường Trần Hưng Đạo",
        "postal_code": "75308",
        "categories": [
            {
                "name": "Cửa hàng tiện lợi"
            }
        ]
    },
    {
        "name": "Cửa Hàng Bách Hóa Lan",
        "latitude": 10.89938,
        "longitude": 106.8028,
        "address": "Cửa Hàng Bách Hóa Lan, TL.743, Phường Bình Thắng, Dĩ An, Bình Dương, Việt Nam",
        "country_code": "VNM",
        "country_name": "Việt Nam",
        "city": "Bình Dương",
        "district": "Dĩ An",
        "ward": "Phường Bình Thắng",
        "street": "TL.743",
        "postal_code": "75309",
        "categories": [
            {
                "name": "Cửa hàng tiện lợi"
            }
        ]
    },
    {
        "name": "Tạp Hóa Dì Hai",
        "latitude": 10.89869,
        "longitude": 106.78161,
        "address": "Tạp Hóa Dì Hai, Đường Trần Hưng Đạo, Phường Đông Hòa, Dĩ An, Bình Dương, Việt Nam",
        "country_code": "VNM",
        "country_name": "Việt Nam",
        "city": "Bình Dương",
        "district": "Dĩ An",
        "ward": "Phường Đông Hòa",
        "street": "Đường Trần Hưng Đạo",
        "postal_code": "75308",
        "categories": [
            {
                "name": "Cửa hàng tiện lợi"
            }
        ]
    },
    {
        "name": "Tạp Hóa Hậu",
        "latitude": 10.91671,
        "longitude": 106.77316,
        "address": "Tạp Hóa Hậu, Đường Đỗ Tấn Phong, Phường Tân Đông Hiệp, Dĩ An, Bình Dương, Việt Nam",
        "country_code": "VNM",
        "country_name": "Việt Nam",
        "city": "Bình Dương",
        "district": "Dĩ An",
        "ward": "Phường Tân Đông Hiệp",
        "street": "Đường Đỗ Tấn Phong",
        "postal_code": "75311",
        "categories": [
            {
                "name": "Cửa hàng tiện lợi"
            }
        ]
    },
    {
        "name": "Tạp Hóa Cô Công",
        "latitude": 10.89935,
        "longitude": 106.80324,
        "address": "Tạp Hóa Cô Công, TL.743, Phường Bình Thắng, Dĩ An, Bình Dương, Việt Nam",
        "country_code": "VNM",
        "country_name": "Việt Nam",
        "city": "Bình Dương",
        "district": "Dĩ An",
        "ward": "Phường Bình Thắng",
        "street": "TL.743",
        "postal_code": "75309",
        "categories": [
            {
                "name": "Cửa hàng tiện lợi"
            }
        ]
    },
    {
        "name": "Tạp Hoá Thảo Nhi",
        "latitude": 10.89762,
        "longitude": 106.78298,
        "address": "Tạp Hoá Thảo Nhi, Đường Trần Hưng Đạo, Phường Đông Hòa, Dĩ An, Bình Dương, Việt Nam",
        "country_code": "VNM",
        "country_name": "Việt Nam",
        "city": "Bình Dương",
        "district": "Dĩ An",
        "ward": "Phường Đông Hòa",
        "street": "Đường Trần Hưng Đạo",
        "postal_code": "75308",
        "categories": [
            {
                "name": "Cửa hàng tiện lợi"
            }
        ]
    },
    {
        "name": "Tạp Hoá Phúc Đạt",
        "latitude": 10.90346,
        "longitude": 106.77617,
        "address": "Tạp Hoá Phúc Đạt, 27 Hẻm 28 Đường Trần Quang Khải, Phường Đông Hòa, Dĩ An, Bình Dương, Việt Nam",
        "country_code": "VNM",
        "country_name": "Việt Nam",
        "city": "Bình Dương",
        "district": "Dĩ An",
        "ward": "Phường Đông Hòa",
        "street": "Hẻm 28 Đường Trần Quang Khải",
        "postal_code": "75308",
        "categories": [
            {
                "name": "Cửa hàng tiện lợi"
            }
        ]
    },
    {
        "name": "Đại Lý Vĩnh Nghiệp",
        "latitude": 10.91462,
        "longitude": 106.77257,
        "address": "Đại Lý Vĩnh Nghiệp, TL.743, Phường Tân Đông Hiệp, Dĩ An, Bình Dương, Việt Nam",
        "country_code": "VNM",
        "country_name": "Việt Nam",
        "city": "Bình Dương",
        "district": "Dĩ An",
        "ward": "Phường Tân Đông Hiệp",
        "street": "TL.743",
        "postal_code": "75311",
        "categories": [
            {
                "name": "Cửa hàng tiện lợi"
            }
        ]
    },
    {
        "name": "Cửa Hàng Quỳnh Như",
        "latitude": 10.89935,
        "longitude": 106.80391,
        "address": "Cửa Hàng Quỳnh Như, TL.743, Phường Bình Thắng, Dĩ An, Bình Dương, Việt Nam",
        "country_code": "VNM",
        "country_name": "Việt Nam",
        "city": "Bình Dương",
        "district": "Dĩ An",
        "ward": "Phường Bình Thắng",
        "street": "TL.743",
        "postal_code": "75309",
        "categories": [
            {
                "name": "Cửa hàng tiện lợi"
            }
        ]
    },
    {
        "name": "Tạp Hóa Sam",
        "latitude": 10.90243,
        "longitude": 106.77631,
        "address": "Tạp Hóa Sam, 4 Hẻm 22 Đường Trần Quang Khải, Phường Đông Hòa, Dĩ An, Bình Dương, Việt Nam",
        "country_code": "VNM",
        "country_name": "Việt Nam",
        "city": "Bình Dương",
        "district": "Dĩ An",
        "ward": "Phường Đông Hòa",
        "street": "Hẻm 22 Đường Trần Quang Khải",
        "postal_code": "75308",
        "categories": [
            {
                "name": "Cửa hàng tiện lợi"
            }
        ]
    },
    {
        "name": "Tạp Hóa Mười",
        "latitude": 10.89641,
        "longitude": 106.78407,
        "address": "Tạp Hóa Mười, Đường Trần Hưng Đạo, Phường Đông Hòa, Dĩ An, Bình Dương, Việt Nam",
        "country_code": "VNM",
        "country_name": "Việt Nam",
        "city": "Bình Dương",
        "district": "Dĩ An",
        "ward": "Phường Đông Hòa",
        "street": "Đường Trần Hưng Đạo",
        "postal_code": "75308",
        "categories": [
            {
                "name": "Cửa hàng tiện lợi"
            }
        ]
    },
    {
        "name": "Tạp Hóa Gia Hưng",
        "latitude": 10.90734,
        "longitude": 106.77317,
        "address": "Tạp Hóa Gia Hưng, Nguyễn Thái Học, Phường Dĩ An, Dĩ An, Bình Dương, Việt Nam",
        "country_code": "VNM",
        "country_name": "Việt Nam",
        "city": "Bình Dương",
        "district": "Dĩ An",
        "ward": "Phường Dĩ An",
        "street": "Nguyễn Thái Học",
        "postal_code": "75306",
        "categories": [
            {
                "name": "Cửa hàng tiện lợi"
            }
        ]
    },
    {
        "name": "Bách Hóa Duy Thịnh",
        "latitude": 10.91502,
        "longitude": 106.77187,
        "address": "Bách Hóa Duy Thịnh, TL.743, Phường Tân Đông Hiệp, Dĩ An, Bình Dương, Việt Nam",
        "country_code": "VNM",
        "country_name": "Việt Nam",
        "city": "Bình Dương",
        "district": "Dĩ An",
        "ward": "Phường Tân Đông Hiệp",
        "street": "TL.743",
        "postal_code": "75311",
        "categories": [
            {
                "name": "Cửa hàng tiện lợi"
            }
        ]
    },
    {
        "name": "Thương Lê",
        "latitude": 10.90104,
        "longitude": 106.7766,
        "address": "Thương Lê, Đường Trần Hưng Đạo, Phường Đông Hòa, Dĩ An, Bình Dương, Việt Nam",
        "country_code": "VNM",
        "country_name": "Việt Nam",
        "city": "Bình Dương",
        "district": "Dĩ An",
        "ward": "Phường Đông Hòa",
        "street": "Đường Trần Hưng Đạo",
        "postal_code": "75308",
        "categories": [
            {
                "name": "Cửa hàng tiện lợi"
            }
        ]
    },
    {
        "name": "Tạp Hóa Nguyệt Lan",
        "latitude": 10.89948,
        "longitude": 106.80569,
        "address": "Tạp Hóa Nguyệt Lan, TL.743, Phường Bình Thắng, Dĩ An, Bình Dương, Việt Nam",
        "country_code": "VNM",
        "country_name": "Việt Nam",
        "city": "Bình Dương",
        "district": "Dĩ An",
        "ward": "Phường Bình Thắng",
        "street": "TL.743",
        "postal_code": "75309",
        "categories": [
            {
                "name": "Cửa hàng tiện lợi"
            }
        ]
    },
    {
        "name": "Bách Hóa Tổng Hợp Trâm Anh",
        "latitude": 10.91681,
        "longitude": 106.77146,
        "address": "Bách Hóa Tổng Hợp Trâm Anh, Đường Đỗ Tấn Phong, Phường Tân Đông Hiệp, Dĩ An, Bình Dương, Việt Nam",
        "country_code": "VNM",
        "country_name": "Việt Nam",
        "city": "Bình Dương",
        "district": "Dĩ An",
        "ward": "Phường Tân Đông Hiệp",
        "street": "Đường Đỗ Tấn Phong",
        "postal_code": "75311",
        "categories": [
            {
                "name": "Cửa hàng tiện lợi"
            }
        ]
    },
    {
        "name": "Tạp Hóa Cô Tư",
        "latitude": 10.93398,
        "longitude": 106.796,
        "address": "Tạp Hóa Cô Tư, 18 Hẻm 108 Đường Hoàng Minh Chánh, Phường Hóa An, Biên Hòa, Đồng Nai, Việt Nam",
        "country_code": "VNM",
        "country_name": "Việt Nam",
        "city": "Đồng Nai",
        "district": "Biên Hòa",
        "ward": "Phường Hóa An",
        "street": "Hẻm 108 Đường Hoàng Minh Chánh",
        "postal_code": "76123",
        "categories": [
            {
                "name": "Cửa hàng tiện lợi"
            }
        ]
    },
    {
        "name": "Tạp Hóa Nhật Linh 2",
        "latitude": 10.89474,
        "longitude": 106.78518,
        "address": "Tạp Hóa Nhật Linh 2, Đường Nguyễn Hữu Cảnh, Phường Đông Hòa, Dĩ An, Bình Dương, Việt Nam",
        "country_code": "VNM",
        "country_name": "Việt Nam",
        "city": "Bình Dương",
        "district": "Dĩ An",
        "ward": "Phường Đông Hòa",
        "street": "Đường Nguyễn Hữu Cảnh",
        "postal_code": "75308",
        "categories": [
            {
                "name": "Cửa hàng tiện lợi"
            }
        ]
    },
    {
        "name": "Tạp Hóa Cô Phượng",
        "latitude": 10.89946,
        "longitude": 106.80635,
        "address": "Tạp Hóa Cô Phượng, TL.743, Phường Bình Thắng, Dĩ An, Bình Dương, Việt Nam",
        "country_code": "VNM",
        "country_name": "Việt Nam",
        "city": "Bình Dương",
        "district": "Dĩ An",
        "ward": "Phường Bình Thắng",
        "street": "TL.743",
        "postal_code": "75309",
        "categories": [
            {
                "name": "Cửa hàng tiện lợi"
            }
        ]
    },
    {
        "name": "Đại Lý Thu Hồng Chuyên Sỉ Và Lẻ Bia Nước Giải Khát Các Loại",
        "latitude": 10.91699,
        "longitude": 106.77096,
        "address": "Đại Lý Thu Hồng Chuyên Sỉ Và Lẻ Bia Nước Giải Khát Các Loại, Đường Đỗ Tấn Phong, Phường Tân Đông Hiệp, Dĩ An, Bình Dương, Việt Nam",
        "country_code": "VNM",
        "country_name": "Việt Nam",
        "city": "Bình Dương",
        "district": "Dĩ An",
        "ward": "Phường Tân Đông Hiệp",
        "street": "Đường Đỗ Tấn Phong",
        "postal_code": "75311",
        "categories": [
            {
                "name": "Cửa hàng tiện lợi"
            }
        ]
    },
    {
        "name": "Tạp Hóa Ngọc Bích",
        "latitude": 10.91508,
        "longitude": 106.77077,
        "address": "Tạp Hóa Ngọc Bích, TL.743, Phường Tân Đông Hiệp, Dĩ An, Bình Dương, Việt Nam",
        "country_code": "VNM",
        "country_name": "Việt Nam",
        "city": "Bình Dương",
        "district": "Dĩ An",
        "ward": "Phường Tân Đông Hiệp",
        "street": "TL.743",
        "postal_code": "75311",
        "categories": [
            {
                "name": "Cửa hàng tiện lợi"
            }
        ]
    },
    {
        "name": "Cà Phê Nước Giải Khát Kim Hoàng",
        "latitude": 10.9251,
        "longitude": 106.80952,
        "address": "Cà Phê Nước Giải Khát Kim Hoàng, Hẻm 44 Nguyễn Tri Phương, Phường Bửu Hòa, Biên Hòa, Đồng Nai, Việt Nam",
        "country_code": "VNM",
        "country_name": "Việt Nam",
        "city": "Đồng Nai",
        "district": "Biên Hòa",
        "ward": "Phường Bửu Hòa",
        "street": "Hẻm 44 Nguyễn Tri Phương",
        "postal_code": "76125",
        "categories": [
            {
                "name": "Cửa hàng tiện lợi"
            }
        ]
    },
    {
        "name": "Tạp Hóa Kim Nguyên",
        "latitude": 10.92675,
        "longitude": 106.80839,
        "address": "Tạp Hóa Kim Nguyên, Đường Nguyễn Tri Phương, Phường Bửu Hòa, Biên Hòa, Đồng Nai, Việt Nam",
        "country_code": "VNM",
        "country_name": "Việt Nam",
        "city": "Đồng Nai",
        "district": "Biên Hòa",
        "ward": "Phường Bửu Hòa",
        "street": "Đường Nguyễn Tri Phương",
        "postal_code": "76125",
        "categories": [
            {
                "name": "Cửa hàng tiện lợi"
            }
        ]
    },
    {
        "name": "Monari",
        "latitude": 10.90199,
        "longitude": 106.77453,
        "address": "Monari, Đường Võ Thị Sáu, Phường Đông Hòa, Dĩ An, Bình Dương, Việt Nam",
        "country_code": "VNM",
        "country_name": "Việt Nam",
        "city": "Bình Dương",
        "district": "Dĩ An",
        "ward": "Phường Đông Hòa",
        "street": "Đường Võ Thị Sáu",
        "postal_code": "75308",
        "categories": [
            {
                "name": "Cửa hàng tiện lợi"
            },
            {
                "name": "Siêu thị"
            }
        ]
    },
    {
        "name": "Tạp Hóa Mạnh Dũng",
        "latitude": 10.93263,
        "longitude": 106.7819,
        "address": "Tạp Hóa Mạnh Dũng, Hẻm 14 Đường N3, Phường Tân Bình, Dĩ An, Bình Dương, Việt Nam",
        "country_code": "VNM",
        "country_name": "Việt Nam",
        "city": "Bình Dương",
        "district": "Dĩ An",
        "ward": "Phường Tân Bình",
        "street": "Hẻm 14 Đường N3",
        "postal_code": "75312",
        "categories": [
            {
                "name": "Cửa hàng tiện lợi"
            }
        ]
    },
    {
        "name": "Tap Hóa Hôn Hơp",
        "latitude": 10.89961,
        "longitude": 106.80715,
        "address": "Tap Hóa Hôn Hơp, Đường Bình Thung, Phường Bình Thắng, Dĩ An, Bình Dương, Việt Nam",
        "country_code": "VNM",
        "country_name": "Việt Nam",
        "city": "Bình Dương",
        "district": "Dĩ An",
        "ward": "Phường Bình Thắng",
        "street": "Đường Bình Thung",
        "postal_code": "75309",
        "categories": [
            {
                "name": "Cửa hàng tiện lợi"
            }
        ]
    },
    {
        "name": "Tạp Hóa Bà Hai",
        "latitude": 10.93458,
        "longitude": 106.79731,
        "address": "Tạp Hóa Bà Hai, Đường Hoàng Minh Chánh, Phường Hóa An, Biên Hòa, Đồng Nai, Việt Nam",
        "country_code": "VNM",
        "country_name": "Việt Nam",
        "city": "Đồng Nai",
        "district": "Biên Hòa",
        "ward": "Phường Hóa An",
        "street": "Đường Hoàng Minh Chánh",
        "postal_code": "76123",
        "categories": [
            {
                "name": "Siêu thị"
            },
            {
                "name": "Cửa hàng tiện lợi"
            }
        ]
    }
]
