[
    {
        "name": "Hưng Phú Mobile",
        "latitude": 10.93832,
        "longitude": 106.85932,
        "address": "Hưng Phú Mobile, Đường Trần Quốc Toản, Phường Bình Đa, Biên Hòa, Đồng Nai, Việt Nam",
        "country_code": "VNM",
        "country_name": "Việt Nam",
        "city": "Đồng Nai",
        "district": "Biên Hòa",
        "ward": "Phường Bình Đa",
        "street": "Đường Trần Quốc Toản",
        "postal_code": "76127",
        "categories": [
            {
                "name": "Cửa hàng bán lẻ điện thoại di động"
            },
            {
                "name": "Sửa chữa và bảo dưỡng điện thoại di động"
            }
        ]
    },
    {
        "name": "Abv Shop",
        "latitude": 10.82611,
        "longitude": 106.76367,
        "address": "Abv Shop, 128 Đường Tây Hòa, Phường Phước Long A, Thủ Đức, Hồ Chí Minh, Việt Nam",
        "country_code": "VNM",
        "country_name": "Việt Nam",
        "city": "Hồ Chí Minh",
        "district": "Thủ Đức",
        "ward": "Phường Phước Long A",
        "street": "Đường Tây Hòa",
        "postal_code": "71208",
        "categories": [
            {
                "name": "Sửa chữa và bảo dưỡng điện thoại di động"
            }
        ]
    },
    {
        "name": "Minh Huy 2",
        "latitude": 10.84352,
        "longitude": 106.65106,
        "address": "Minh Huy 2, Đường Nguyễn Văn Khối, Phường 8, Quận Gò Vấp, Hồ Chí Minh, Việt Nam",
        "country_code": "VNM",
        "country_name": "Việt Nam",
        "city": "Hồ Chí Minh",
        "district": "Quận Gò Vấp",
        "ward": "Phường 8",
        "street": "Đường Nguyễn Văn Khối",
        "postal_code": "71419",
        "categories": [
            {
                "name": "Sửa chữa và bảo dưỡng điện thoại di động"
            },
            {
                "name": "Quán cà phê"
            }
        ]
    },
    {
        "name": "Samsung Galaxy",
        "latitude": 10.76448,
        "longitude": 106.6671,
        "address": "Samsung Galaxy, 163 Đường Nhật Tảo, Phường 8, Quận 10, Hồ Chí Minh, Việt Nam",
        "country_code": "VNM",
        "country_name": "Việt Nam",
        "city": "Hồ Chí Minh",
        "district": "Quận 10",
        "ward": "Phường 8",
        "street": "Đường Nhật Tảo",
        "postal_code": "72513",
        "categories": [
            {
                "name": "Sửa chữa và bảo dưỡng điện thoại di động"
            }
        ]
    },
    {
        "name": "Cưa Hàng Sưa Chưa Điên Thoai Toha",
        "latitude": 10.78176,
        "longitude": 106.63517,
        "address": "Cưa Hàng Sưa Chưa Điên Thoai Toha, 4 Hẻm 122 Thoại Ngọc Hầu, Phường Phú Thọ Hòa, Quận Tân Phú, Hồ Chí Minh, Việt Nam",
        "country_code": "VNM",
        "country_name": "Việt Nam",
        "city": "Hồ Chí Minh",
        "district": "Quận Tân Phú",
        "ward": "Phường Phú Thọ Hòa",
        "street": "Hẻm 122 Thoại Ngọc Hầu",
        "postal_code": "72012",
        "categories": [
            {
                "name": "Sửa chữa và bảo dưỡng điện thoại di động"
            },
            {
                "name": "Quần áo & Phụ kiện"
            },
            {
                "name": "Trung tâm hội nghị"
            }
        ]
    },
    {
        "name": "Ốp Lưng Chất",
        "latitude": 10.77474,
        "longitude": 106.55227,
        "address": "Ốp Lưng Chất, 1A216 Đường Vĩnh Lộc, Xã Phạm Văn Hai, Huyện Bình Chánh, Hồ Chí Minh, Việt Nam",
        "country_code": "VNM",
        "country_name": "Việt Nam",
        "city": "Hồ Chí Minh",
        "district": "Huyện Bình Chánh",
        "ward": "Xã Phạm Văn Hai",
        "street": "Đường Vĩnh Lộc",
        "postal_code": "71820",
        "categories": [
            {
                "name": "Sửa chữa và bảo dưỡng điện thoại di động"
            }
        ]
    },
    {
        "name": "Viễn Thông A 2 Quang Trung",
        "latitude": 10.02927,
        "longitude": 105.77957,
        "address": "Viễn Thông A 2 Quang Trung, Đường 30 Tháng 4, Phường An Phú, Quận Ninh Kiều, Cần Thơ, Việt Nam",
        "country_code": "VNM",
        "country_name": "Việt Nam",
        "city": "Cần Thơ",
        "district": "Quận Ninh Kiều",
        "ward": "Phường An Phú",
        "street": "Đường 30 Tháng 4",
        "postal_code": "94114",
        "categories": [
            {
                "name": "Sửa chữa và bảo dưỡng điện thoại di động"
            }
        ]
    }
]
