[
    {
        "name": "Cửa Hàng Tạp Hóa Tiên",
        "latitude": 10.91922,
        "longitude": 106.80136,
        "address": "Cửa Hàng Tạp Hóa Tiên, Đường Nguyễn Ái Quốc, Phường Tân Đông Hiệp, Dĩ An, Bình Dương, Việt Nam",
        "country_code": "VNM",
        "country_name": "Việt Nam",
        "city": "Bình Dương",
        "district": "Dĩ An",
        "ward": "Phường Tân Đông Hiệp",
        "street": "Đường Nguyễn Ái Quốc",
        "postal_code": "75311",
        "categories": [
            {
                "name": "Cửa hàng bách hóa"
            }
        ]
    },
    {
        "name": "Cửa Hàng Hùng Hợp",
        "latitude": 10.90099,
        "longitude": 106.77446,
        "address": "Cửa Hàng Hùng Hợp, Đường Võ Thị Sáu, Phường Đông Hòa, Dĩ An, Bình Dương, Việt Nam",
        "country_code": "VNM",
        "country_name": "Việt Nam",
        "city": "Bình Dương",
        "district": "Dĩ An",
        "ward": "Phường Đông Hòa",
        "street": "Đường Võ Thị Sáu",
        "postal_code": "75308",
        "categories": [
            {
                "name": "Cửa hàng bách hóa"
            }
        ]
    },
    {
        "name": "Sieu Thi Big C Di An",
        "latitude": 10.89837,
        "longitude": 106.80795,
        "address": "Sieu Thi Big C Di An, Đường Tỉnh 743A, Phường Bình Thắng, Dĩ An, Bình Dương, Việt Nam",
        "country_code": "VNM",
        "country_name": "Việt Nam",
        "city": "Bình Dương",
        "district": "Dĩ An",
        "ward": "Phường Bình Thắng",
        "street": "Đường Tỉnh 743A",
        "postal_code": "75309",
        "categories": [
            {
                "name": "Cửa hàng bách hóa"
            }
        ]
    },
    {
        "name": "Bach Dang Foods",
        "latitude": 10.90482,
        "longitude": 106.77046,
        "address": "Bach Dang Foods, Đường Trần Quốc Toản, Phường Dĩ An, Dĩ An, Bình Dương, Việt Nam",
        "country_code": "VNM",
        "country_name": "Việt Nam",
        "city": "Bình Dương",
        "district": "Dĩ An",
        "ward": "Phường Dĩ An",
        "street": "Đường Trần Quốc Toản",
        "postal_code": "75306",
        "categories": [
            {
                "name": "Cửa hàng bách hóa"
            }
        ]
    },
    {
        "name": "Cửa Hàng Tạp Hóa Thanh Thảo",
        "latitude": 10.9168,
        "longitude": 106.76845,
        "address": "Cửa Hàng Tạp Hóa Thanh Thảo, Đường Lê Hồng Phong, Phường Tân Đông Hiệp, Dĩ An, Bình Dương, Việt Nam",
        "country_code": "VNM",
        "country_name": "Việt Nam",
        "city": "Bình Dương",
        "district": "Dĩ An",
        "ward": "Phường Tân Đông Hiệp",
        "street": "Đường Lê Hồng Phong",
        "postal_code": "75311",
        "categories": [
            {
                "name": "Cửa hàng bách hóa"
            }
        ]
    },
    {
        "name": "Hàng Tiêu Dùng Thái Lan Út Anh",
        "latitude": 10.92538,
        "longitude": 106.76421,
        "address": "Hàng Tiêu Dùng Thái Lan Út Anh, 776 Đường Lê Hồng Phong, Phường Tân Đông Hiệp, Dĩ An, Bình Dương, Việt Nam",
        "country_code": "VNM",
        "country_name": "Việt Nam",
        "city": "Bình Dương",
        "district": "Dĩ An",
        "ward": "Phường Tân Đông Hiệp",
        "street": "Đường Lê Hồng Phong",
        "postal_code": "75311",
        "categories": [
            {
                "name": "Cửa hàng bách hóa"
            }
        ]
    },
    {
        "name": "Bách Hóa Tổng Hợp Anh Quân",
        "latitude": 10.93429,
        "longitude": 106.76945,
        "address": "Bách Hóa Tổng Hợp Anh Quân, 59A Đường Huỳnh Thị Tươi, Phường Tân Bình, Dĩ An, Bình Dương, Việt Nam",
        "country_code": "VNM",
        "country_name": "Việt Nam",
        "city": "Bình Dương",
        "district": "Dĩ An",
        "ward": "Phường Tân Bình",
        "street": "Đường Huỳnh Thị Tươi",
        "postal_code": "75312",
        "categories": [
            {
                "name": "Cửa hàng bách hóa"
            }
        ]
    },
    {
        "name": "Hai Phong1",
        "latitude": 10.92984,
        "longitude": 106.76306,
        "address": "Hai Phong1, Đường Nguyễn Thị Minh Khai, Phường Tân Bình, Dĩ An, Bình Dương, Việt Nam",
        "country_code": "VNM",
        "country_name": "Việt Nam",
        "city": "Bình Dương",
        "district": "Dĩ An",
        "ward": "Phường Tân Bình",
        "street": "Đường Nguyễn Thị Minh Khai",
        "postal_code": "75312",
        "categories": [
            {
                "name": "Cửa hàng bách hóa"
            }
        ]
    },
    {
        "name": "Cửa Hàng Tạp Hóa 23",
        "latitude": 10.90077,
        "longitude": 106.75942,
        "address": "Cửa Hàng Tạp Hóa 23, Đường Số 21, Phường Dĩ An, Dĩ An, Bình Dương, Việt Nam",
        "country_code": "VNM",
        "country_name": "Việt Nam",
        "city": "Bình Dương",
        "district": "Dĩ An",
        "ward": "Phường Dĩ An",
        "street": "Đường Số 21",
        "postal_code": "75306",
        "categories": [
            {
                "name": "Cửa hàng bách hóa"
            }
        ]
    },
    {
        "name": "Cửa Hàng Tạp Hóa Thúy An",
        "latitude": 10.90279,
        "longitude": 106.75799,
        "address": "Cửa Hàng Tạp Hóa Thúy An, Đường Số 11 TĐC, Phường Dĩ An, Dĩ An, Bình Dương, Việt Nam",
        "country_code": "VNM",
        "country_name": "Việt Nam",
        "city": "Bình Dương",
        "district": "Dĩ An",
        "ward": "Phường Dĩ An",
        "street": "Đường Số 11 TĐC",
        "postal_code": "75306",
        "categories": [
            {
                "name": "Cửa hàng bách hóa"
            }
        ]
    },
    {
        "name": "Cửa Hàng Tạp Hóa Anh Tỉnh",
        "latitude": 10.90318,
        "longitude": 106.7576,
        "address": "Cửa Hàng Tạp Hóa Anh Tỉnh, Đường Số 11 TĐC, Phường Dĩ An, Dĩ An, Bình Dương, Việt Nam",
        "country_code": "VNM",
        "country_name": "Việt Nam",
        "city": "Bình Dương",
        "district": "Dĩ An",
        "ward": "Phường Dĩ An",
        "street": "Đường Số 11 TĐC",
        "postal_code": "75306",
        "categories": [
            {
                "name": "Cửa hàng bách hóa"
            }
        ]
    },
    {
        "name": "Cửa Hàng Tạp Hóa Trường Giang",
        "latitude": 10.90501,
        "longitude": 106.75652,
        "address": "Cửa Hàng Tạp Hóa Trường Giang, Đường Nguyễn Trãi, Phường Dĩ An, Dĩ An, Bình Dương, Việt Nam",
        "country_code": "VNM",
        "country_name": "Việt Nam",
        "city": "Bình Dương",
        "district": "Dĩ An",
        "ward": "Phường Dĩ An",
        "street": "Đường Nguyễn Trãi",
        "postal_code": "75306",
        "categories": [
            {
                "name": "Cửa hàng bách hóa"
            }
        ]
    },
    {
        "name": "Cửa Hàng Tạp Hóa Minh Tân",
        "latitude": 10.9021,
        "longitude": 106.75677,
        "address": "Cửa Hàng Tạp Hóa Minh Tân, 25 Hẻm 26 Đường Số 21, Phường Dĩ An, Dĩ An, Bình Dương, Việt Nam",
        "country_code": "VNM",
        "country_name": "Việt Nam",
        "city": "Bình Dương",
        "district": "Dĩ An",
        "ward": "Phường Dĩ An",
        "street": "Hẻm 26 Đường Số 21",
        "postal_code": "75306",
        "categories": [
            {
                "name": "Cửa hàng bách hóa"
            }
        ]
    },
    {
        "name": "Cửa Hàng Tạp Hóa Ngọc Minh",
        "latitude": 10.90205,
        "longitude": 106.75628,
        "address": "Cửa Hàng Tạp Hóa Ngọc Minh, Đường Số 21, Phường Dĩ An, Dĩ An, Bình Dương, Việt Nam",
        "country_code": "VNM",
        "country_name": "Việt Nam",
        "city": "Bình Dương",
        "district": "Dĩ An",
        "ward": "Phường Dĩ An",
        "street": "Đường Số 21",
        "postal_code": "75306",
        "categories": [
            {
                "name": "Cửa hàng bách hóa"
            }
        ]
    },
    {
        "name": "Cửa Hàng Hữu Cường",
        "latitude": 10.88044,
        "longitude": 106.77363,
        "address": "Cửa Hàng Hữu Cường, Đường Số 8, Phường Linh Xuân, Thủ Đức, Hồ Chí Minh, Việt Nam",
        "country_code": "VNM",
        "country_name": "Việt Nam",
        "city": "Hồ Chí Minh",
        "district": "Thủ Đức",
        "ward": "Phường Linh Xuân",
        "street": "Đường Số 8",
        "postal_code": "71309",
        "categories": [
            {
                "name": "Cửa hàng bách hóa"
            }
        ]
    },
    {
        "name": "Áo Cưới Mỹ Phẩm Cao Cấp Kim Anh",
        "latitude": 10.94641,
        "longitude": 106.81612,
        "address": "Áo Cưới Mỹ Phẩm Cao Cấp Kim Anh, Đường Nguyễn Trãi, Phường Thanh Bình, Biên Hòa, Đồng Nai, Việt Nam",
        "country_code": "VNM",
        "country_name": "Việt Nam",
        "city": "Đồng Nai",
        "district": "Biên Hòa",
        "ward": "Phường Thanh Bình",
        "street": "Đường Nguyễn Trãi",
        "postal_code": "76106",
        "categories": [
            {
                "name": "Cửa hàng bách hóa"
            },
            {
                "name": "Trung tâm hội nghị"
            }
        ]
    },
    {
        "name": "Cửa Hàng Bách Hóa Sáu Lực",
        "latitude": 10.94191,
        "longitude": 106.8223,
        "address": "Cửa Hàng Bách Hóa Sáu Lực, 27 Đường Cách Mạng Tháng 8, Phường Quyết Thắng, Biên Hòa, Đồng Nai, Việt Nam",
        "country_code": "VNM",
        "country_name": "Việt Nam",
        "city": "Đồng Nai",
        "district": "Biên Hòa",
        "ward": "Phường Quyết Thắng",
        "street": "Đường Cách Mạng Tháng 8",
        "postal_code": "76107",
        "categories": [
            {
                "name": "Cửa hàng bách hóa"
            }
        ]
    },
    {
        "name": "Lâm Thuận",
        "latitude": 10.9477,
        "longitude": 106.81659,
        "address": "Lâm Thuận, 6 Đường Phan Đình Phùng, Phường Quang Vinh, Biên Hòa, Đồng Nai, Việt Nam",
        "country_code": "VNM",
        "country_name": "Việt Nam",
        "city": "Đồng Nai",
        "district": "Biên Hòa",
        "ward": "Phường Quang Vinh",
        "street": "Đường Phan Đình Phùng",
        "postal_code": "76119",
        "categories": [
            {
                "name": "Cửa hàng bách hóa"
            }
        ]
    },
    {
        "name": "Cửa Hàng Tạp Hóa",
        "latitude": 10.87653,
        "longitude": 106.77329,
        "address": "Cửa Hàng Tạp Hóa, 16 Hẻm 24 Đường Số 10, Phường Linh Xuân, Thủ Đức, Hồ Chí Minh, Việt Nam",
        "country_code": "VNM",
        "country_name": "Việt Nam",
        "city": "Hồ Chí Minh",
        "district": "Thủ Đức",
        "ward": "Phường Linh Xuân",
        "street": "Hẻm 24 Đường Số 10",
        "postal_code": "71309",
        "categories": [
            {
                "name": "Cửa hàng bách hóa"
            }
        ]
    },
    {
        "name": "Cửa Hàng Tạp Hóa Bảo Minh",
        "latitude": 10.87772,
        "longitude": 106.77095,
        "address": "Cửa Hàng Tạp Hóa Bảo Minh, 99 Hẻm 131 Đường Số 6, Phường Linh Xuân, Thủ Đức, Hồ Chí Minh, Việt Nam",
        "country_code": "VNM",
        "country_name": "Việt Nam",
        "city": "Hồ Chí Minh",
        "district": "Thủ Đức",
        "ward": "Phường Linh Xuân",
        "street": "Hẻm 131 Đường Số 6",
        "postal_code": "71309",
        "categories": [
            {
                "name": "Cửa hàng bách hóa"
            }
        ]
    },
    {
        "name": "Song Tien Ceramics Pte Ent",
        "latitude": 10.94726,
        "longitude": 106.81759,
        "address": "Song Tien Ceramics Pte Ent, Đường Lữ Mành, Phường Thanh Bình, Biên Hòa, Đồng Nai, Việt Nam",
        "country_code": "VNM",
        "country_name": "Việt Nam",
        "city": "Đồng Nai",
        "district": "Biên Hòa",
        "ward": "Phường Thanh Bình",
        "street": "Đường Lữ Mành",
        "postal_code": "76106",
        "categories": [
            {
                "name": "Cửa hàng bách hóa"
            }
        ]
    },
    {
        "name": "Cửa Hàng Tạp Hóa 78",
        "latitude": 10.87757,
        "longitude": 106.77091,
        "address": "Cửa Hàng Tạp Hóa 78, 78 Đường Số 6, Phường Linh Xuân, Thủ Đức, Hồ Chí Minh, Việt Nam",
        "country_code": "VNM",
        "country_name": "Việt Nam",
        "city": "Hồ Chí Minh",
        "district": "Thủ Đức",
        "ward": "Phường Linh Xuân",
        "street": "Đường Số 6",
        "postal_code": "71309",
        "categories": [
            {
                "name": "Cửa hàng bách hóa"
            }
        ]
    },
    {
        "name": "Cửa Hàng Tạp Hóa Minh Phương",
        "latitude": 10.87793,
        "longitude": 106.76991,
        "address": "Cửa Hàng Tạp Hóa Minh Phương, Đường Số 6, Phường Linh Xuân, Thủ Đức, Hồ Chí Minh, Việt Nam",
        "country_code": "VNM",
        "country_name": "Việt Nam",
        "city": "Hồ Chí Minh",
        "district": "Thủ Đức",
        "ward": "Phường Linh Xuân",
        "street": "Đường Số 6",
        "postal_code": "71309",
        "categories": [
            {
                "name": "Cửa hàng bách hóa"
            }
        ]
    },
    {
        "name": "Cửa Hàng Bách Hóa 126",
        "latitude": 10.9515,
        "longitude": 106.81206,
        "address": "Cửa Hàng Bách Hóa 126, 126 Đường Cách Mạng Tháng 8, Phường Hòa Bình, Biên Hòa, Đồng Nai, Việt Nam",
        "country_code": "VNM",
        "country_name": "Việt Nam",
        "city": "Đồng Nai",
        "district": "Biên Hòa",
        "ward": "Phường Hòa Bình",
        "street": "Đường Cách Mạng Tháng 8",
        "postal_code": "76122",
        "categories": [
            {
                "name": "Cửa hàng bách hóa"
            }
        ]
    },
    {
        "name": "Tuấn Huy",
        "latitude": 10.95189,
        "longitude": 106.81133,
        "address": "Tuấn Huy, 223B Đường Cách Mạng Tháng 8, Phường Hòa Bình, Biên Hòa, Đồng Nai, Việt Nam",
        "country_code": "VNM",
        "country_name": "Việt Nam",
        "city": "Đồng Nai",
        "district": "Biên Hòa",
        "ward": "Phường Hòa Bình",
        "street": "Đường Cách Mạng Tháng 8",
        "postal_code": "76122",
        "categories": [
            {
                "name": "Cửa hàng bách hóa"
            }
        ]
    },
    {
        "name": "Tiệm Tạp Hóa Lan Phương",
        "latitude": 10.8777,
        "longitude": 106.76926,
        "address": "Tiệm Tạp Hóa Lan Phương, 62 Đường Số 6, Phường Linh Xuân, Thủ Đức, Hồ Chí Minh, Việt Nam",
        "country_code": "VNM",
        "country_name": "Việt Nam",
        "city": "Hồ Chí Minh",
        "district": "Thủ Đức",
        "ward": "Phường Linh Xuân",
        "street": "Đường Số 6",
        "postal_code": "71309",
        "categories": [
            {
                "name": "Cửa hàng bách hóa"
            }
        ]
    },
    {
        "name": "Cửa Hàng Tạp Hóa Trí Đức",
        "latitude": 10.87864,
        "longitude": 106.76756,
        "address": "Cửa Hàng Tạp Hóa Trí Đức, Đường Số 6, Phường Linh Xuân, Thủ Đức, Hồ Chí Minh, Việt Nam",
        "country_code": "VNM",
        "country_name": "Việt Nam",
        "city": "Hồ Chí Minh",
        "district": "Thủ Đức",
        "ward": "Phường Linh Xuân",
        "street": "Đường Số 6",
        "postal_code": "71309",
        "categories": [
            {
                "name": "Cửa hàng bách hóa"
            }
        ]
    },
    {
        "name": "Cửa Hàng Bách Hóa Nguyễn Hoa",
        "latitude": 10.95241,
        "longitude": 106.8114,
        "address": "Cửa Hàng Bách Hóa Nguyễn Hoa, Đường Hồ Văn Đại, Phường Quang Vinh, Biên Hòa, Đồng Nai, Việt Nam",
        "country_code": "VNM",
        "country_name": "Việt Nam",
        "city": "Đồng Nai",
        "district": "Biên Hòa",
        "ward": "Phường Quang Vinh",
        "street": "Đường Hồ Văn Đại",
        "postal_code": "76119",
        "categories": [
            {
                "name": "Cửa hàng bách hóa"
            }
        ]
    },
    {
        "name": "Cửa Hàng Tạp Hóa Nhung",
        "latitude": 10.86667,
        "longitude": 106.78763,
        "address": "Cửa Hàng Tạp Hóa Nhung, 180 Đường Số 17, Phường Linh Trung, Thủ Đức, Hồ Chí Minh, Việt Nam",
        "country_code": "VNM",
        "country_name": "Việt Nam",
        "city": "Hồ Chí Minh",
        "district": "Thủ Đức",
        "ward": "Phường Linh Trung",
        "street": "Đường Số 17",
        "postal_code": "71308",
        "categories": [
            {
                "name": "Cửa hàng bách hóa"
            }
        ]
    },
    {
        "name": "Hồng Linh",
        "latitude": 10.86606,
        "longitude": 106.79111,
        "address": "Hồng Linh, 83 Đường Số 18, Phường Linh Trung, Thủ Đức, Hồ Chí Minh, Việt Nam",
        "country_code": "VNM",
        "country_name": "Việt Nam",
        "city": "Hồ Chí Minh",
        "district": "Thủ Đức",
        "ward": "Phường Linh Trung",
        "street": "Đường Số 18",
        "postal_code": "71308",
        "categories": [
            {
                "name": "Cửa hàng bách hóa"
            },
            {
                "name": "Cửa hàng tiện lợi"
            }
        ]
    },
    {
        "name": "Ngọc Cát Tường Dalatmilk",
        "latitude": 10.94695,
        "longitude": 106.82805,
        "address": "Ngọc Cát Tường Dalatmilk, R80 Đường Võ Thị Sáu, Phường Thống Nhất, Biên Hòa, Đồng Nai, Việt Nam",
        "country_code": "VNM",
        "country_name": "Việt Nam",
        "city": "Đồng Nai",
        "district": "Biên Hòa",
        "ward": "Phường Thống Nhất",
        "street": "Đường Võ Thị Sáu",
        "postal_code": "76108",
        "categories": [
            {
                "name": "Cửa hàng bách hóa"
            },
            {
                "name": "Cửa hàng chuyên dụng"
            }
        ]
    },
    {
        "name": "Hanoi Saigon Co. Ltd",
        "latitude": 10.96243,
        "longitude": 106.78513,
        "address": "Hanoi Saigon Co. Ltd, Đường Ngô Thì Nhậm, Phường Bửu Long, Biên Hòa, Đồng Nai, Việt Nam",
        "country_code": "VNM",
        "country_name": "Việt Nam",
        "city": "Đồng Nai",
        "district": "Biên Hòa",
        "ward": "Phường Bửu Long",
        "street": "Đường Ngô Thì Nhậm",
        "postal_code": "76120",
        "categories": [
            {
                "name": "Cửa hàng bách hóa"
            }
        ]
    },
    {
        "name": "Dịch Vụ Cầm Đồ Mai Lan",
        "latitude": 10.95218,
        "longitude": 106.82327,
        "address": "Dịch Vụ Cầm Đồ Mai Lan, 214 Đường 30 Tháng 4, Phường Trung Dũng, Biên Hòa, Đồng Nai, Việt Nam",
        "country_code": "VNM",
        "country_name": "Việt Nam",
        "city": "Đồng Nai",
        "district": "Biên Hòa",
        "ward": "Phường Trung Dũng",
        "street": "Đường 30 Tháng 4",
        "postal_code": "76118",
        "categories": [
            {
                "name": "Cửa hàng bách hóa"
            }
        ]
    },
    {
        "name": "Bách Hóa Tổng Hợp Phương Nhi",
        "latitude": 10.90906,
        "longitude": 106.74166,
        "address": "Bách Hóa Tổng Hợp Phương Nhi, TL.743B, Phường Tân Đông Hiệp, Dĩ An, Bình Dương, Việt Nam",
        "country_code": "VNM",
        "country_name": "Việt Nam",
        "city": "Bình Dương",
        "district": "Dĩ An",
        "ward": "Phường Tân Đông Hiệp",
        "street": "TL.743B",
        "postal_code": "75311",
        "categories": [
            {
                "name": "Cửa hàng bách hóa"
            }
        ]
    },
    {
        "name": "Tiệm Tạp Hóa Mỹ Duyên",
        "latitude": 10.86373,
        "longitude": 106.77949,
        "address": "Tiệm Tạp Hóa Mỹ Duyên, Đường 15, Phường Linh Trung, Thủ Đức, Hồ Chí Minh, Việt Nam",
        "country_code": "VNM",
        "country_name": "Việt Nam",
        "city": "Hồ Chí Minh",
        "district": "Thủ Đức",
        "ward": "Phường Linh Trung",
        "street": "Đường 15",
        "postal_code": "71308",
        "categories": [
            {
                "name": "Cửa hàng bách hóa"
            }
        ]
    },
    {
        "name": "Tiệm Tạp Hóa Cây Bàng",
        "latitude": 10.86373,
        "longitude": 106.77949,
        "address": "Tiệm Tạp Hóa Cây Bàng, Đường 15, Phường Linh Trung, Thủ Đức, Hồ Chí Minh, Việt Nam",
        "country_code": "VNM",
        "country_name": "Việt Nam",
        "city": "Hồ Chí Minh",
        "district": "Thủ Đức",
        "ward": "Phường Linh Trung",
        "street": "Đường 15",
        "postal_code": "71308",
        "categories": [
            {
                "name": "Cửa hàng bách hóa"
            }
        ]
    },
    {
        "name": "Tabi & Huna",
        "latitude": 10.94638,
        "longitude": 106.83341,
        "address": "Tabi & Huna, Đường D12, Phường Thống Nhất, Biên Hòa, Đồng Nai, Việt Nam",
        "country_code": "VNM",
        "country_name": "Việt Nam",
        "city": "Đồng Nai",
        "district": "Biên Hòa",
        "ward": "Phường Thống Nhất",
        "street": "Đường D12",
        "postal_code": "76108",
        "categories": [
            {
                "name": "Cửa hàng bách hóa"
            }
        ]
    },
    {
        "name": "Cửa Hàng Tạp Hóa Ánh Hồng",
        "latitude": 10.86176,
        "longitude": 106.77937,
        "address": "Cửa Hàng Tạp Hóa Ánh Hồng, 185 Đường Lê Văn Chí, Phường Linh Trung, Thủ Đức, Hồ Chí Minh, Việt Nam",
        "country_code": "VNM",
        "country_name": "Việt Nam",
        "city": "Hồ Chí Minh",
        "district": "Thủ Đức",
        "ward": "Phường Linh Trung",
        "street": "Đường Lê Văn Chí",
        "postal_code": "71308",
        "categories": [
            {
                "name": "Cửa hàng bách hóa"
            }
        ]
    },
    {
        "name": "Cttnhh Sieuthi See You",
        "latitude": 10.87116,
        "longitude": 106.75759,
        "address": "Cttnhh Sieuthi See You, Đường Lê Trọng Tấn, Phường An Bình, Dĩ An, Bình Dương, Việt Nam",
        "country_code": "VNM",
        "country_name": "Việt Nam",
        "city": "Bình Dương",
        "district": "Dĩ An",
        "ward": "Phường An Bình",
        "street": "Đường Lê Trọng Tấn",
        "postal_code": "75307",
        "categories": [
            {
                "name": "Cửa hàng bách hóa"
            }
        ]
    },
    {
        "name": "Ct Tnhh Mtv Tm Becamex",
        "latitude": 10.87116,
        "longitude": 106.75759,
        "address": "Ct Tnhh Mtv Tm Becamex, Đường Lê Trọng Tấn, Phường An Bình, Dĩ An, Bình Dương, Việt Nam",
        "country_code": "VNM",
        "country_name": "Việt Nam",
        "city": "Bình Dương",
        "district": "Dĩ An",
        "ward": "Phường An Bình",
        "street": "Đường Lê Trọng Tấn",
        "postal_code": "75307",
        "categories": [
            {
                "name": "Cửa hàng bách hóa"
            }
        ]
    },
    {
        "name": "Bánh Mì Xíu Mại Xôi Mặn",
        "latitude": 10.96731,
        "longitude": 106.77964,
        "address": "Bánh Mì Xíu Mại Xôi Mặn, Đường Tỉnh 743, Phường Thái Hòa, Thị Xã Tân Uyên, Bình Dương, Việt Nam",
        "country_code": "VNM",
        "country_name": "Việt Nam",
        "city": "Bình Dương",
        "district": "Thị Xã Tân Uyên",
        "ward": "Phường Thái Hòa",
        "street": "Đường Tỉnh 743",
        "postal_code": "75416",
        "categories": [
            {
                "name": "Cửa hàng bách hóa"
            }
        ]
    },
    {
        "name": "Chung Cư Sóng Thần",
        "latitude": 10.8782,
        "longitude": 106.74955,
        "address": "Chung Cư Sóng Thần, Đại Lộ Độc Lập, Phường Dĩ An, Dĩ An, Bình Dương, Việt Nam",
        "country_code": "VNM",
        "country_name": "Việt Nam",
        "city": "Bình Dương",
        "district": "Dĩ An",
        "ward": "Phường Dĩ An",
        "street": "Đại Lộ Độc Lập",
        "postal_code": "75306",
        "categories": [
            {
                "name": "Tòa nhà chung cư"
            },
            {
                "name": "Cửa hàng bách hóa"
            }
        ]
    },
    {
        "name": "DNTN Lý Minh Hưng",
        "latitude": 10.95755,
        "longitude": 106.82984,
        "address": "DNTN Lý Minh Hưng, 1991 Đường Nguyễn Ái Quốc, Phường Tân Tiến, Biên Hòa, Đồng Nai, Việt Nam",
        "country_code": "VNM",
        "country_name": "Việt Nam",
        "city": "Đồng Nai",
        "district": "Biên Hòa",
        "ward": "Phường Tân Tiến",
        "street": "Đường Nguyễn Ái Quốc",
        "postal_code": "76115",
        "categories": [
            {
                "name": "Cửa hàng bách hóa"
            },
            {
                "name": "Cửa hàng chuyên dụng"
            },
            {
                "name": "Cắt tóc & Tạo mẫu"
            }
        ]
    },
    {
        "name": "Cửa Hàng Tạp Hóa Quốc Việt",
        "latitude": 10.95732,
        "longitude": 106.83025,
        "address": "Cửa Hàng Tạp Hóa Quốc Việt, 13 Đường Phạm Văn Thuận, Phường Trung Dũng, Biên Hòa, Đồng Nai, Việt Nam",
        "country_code": "VNM",
        "country_name": "Việt Nam",
        "city": "Đồng Nai",
        "district": "Biên Hòa",
        "ward": "Phường Trung Dũng",
        "street": "Đường Phạm Văn Thuận",
        "postal_code": "76118",
        "categories": [
            {
                "name": "Cửa hàng bách hóa"
            },
            {
                "name": "Cửa hàng tiện lợi"
            }
        ]
    },
    {
        "name": "Cửa Hàng Tạp Hóa Minh Tâm",
        "latitude": 10.88045,
        "longitude": 106.74387,
        "address": "Cửa Hàng Tạp Hóa Minh Tâm, 130 Đường Lê Thị Hoa, Phường Bình Chiểu, Thủ Đức, Hồ Chí Minh, Việt Nam",
        "country_code": "VNM",
        "country_name": "Việt Nam",
        "city": "Hồ Chí Minh",
        "district": "Thủ Đức",
        "ward": "Phường Bình Chiểu",
        "street": "Đường Lê Thị Hoa",
        "postal_code": "71313",
        "categories": [
            {
                "name": "Cửa hàng bách hóa"
            }
        ]
    },
    {
        "name": "Tiệm Tạp Hóa Minh Thanh",
        "latitude": 10.87829,
        "longitude": 106.74532,
        "address": "Tiệm Tạp Hóa Minh Thanh, 186A Đường Lê Thị Hoa, Phường Bình Chiểu, Thủ Đức, Hồ Chí Minh, Việt Nam",
        "country_code": "VNM",
        "country_name": "Việt Nam",
        "city": "Hồ Chí Minh",
        "district": "Thủ Đức",
        "ward": "Phường Bình Chiểu",
        "street": "Đường Lê Thị Hoa",
        "postal_code": "71313",
        "categories": [
            {
                "name": "Cửa hàng bách hóa"
            }
        ]
    },
    {
        "name": "Bách Hóa Thiên Trang",
        "latitude": 10.95549,
        "longitude": 106.83323,
        "address": "Bách Hóa Thiên Trang, 63 Đường Nguyễn Văn Hoa, Phường Thống Nhất, Biên Hòa, Đồng Nai, Việt Nam",
        "country_code": "VNM",
        "country_name": "Việt Nam",
        "city": "Đồng Nai",
        "district": "Biên Hòa",
        "ward": "Phường Thống Nhất",
        "street": "Đường Nguyễn Văn Hoa",
        "postal_code": "76108",
        "categories": [
            {
                "name": "Cửa hàng bách hóa"
            },
            {
                "name": "Nhà hàng"
            }
        ]
    },
    {
        "name": "Cửa Hàng Tạp Hóa Thúy Diễm",
        "latitude": 10.86079,
        "longitude": 106.76641,
        "address": "Cửa Hàng Tạp Hóa Thúy Diễm, Đường Linh Trung, Phường Linh Trung, Thủ Đức, Hồ Chí Minh, Việt Nam",
        "country_code": "VNM",
        "country_name": "Việt Nam",
        "city": "Hồ Chí Minh",
        "district": "Thủ Đức",
        "ward": "Phường Linh Trung",
        "street": "Đường Linh Trung",
        "postal_code": "71308",
        "categories": [
            {
                "name": "Cửa hàng bách hóa"
            }
        ]
    },
    {
        "name": "Quang Tiến",
        "latitude": 10.95825,
        "longitude": 106.83377,
        "address": "Quang Tiến, 234 Đường Phạm Văn Thuận, Phường Thống Nhất, Biên Hòa, Đồng Nai, Việt Nam",
        "country_code": "VNM",
        "country_name": "Việt Nam",
        "city": "Đồng Nai",
        "district": "Biên Hòa",
        "ward": "Phường Thống Nhất",
        "street": "Đường Phạm Văn Thuận",
        "postal_code": "76108",
        "categories": [
            {
                "name": "Cửa hàng bách hóa"
            }
        ]
    },
    {
        "name": "Sunrise Fruits",
        "latitude": 10.86064,
        "longitude": 106.76127,
        "address": "Sunrise Fruits, 8 Đường Hoàng Diệu 2, Phường Linh Chiểu, Thủ Đức, Hồ Chí Minh, Việt Nam",
        "country_code": "VNM",
        "country_name": "Việt Nam",
        "city": "Hồ Chí Minh",
        "district": "Thủ Đức",
        "ward": "Phường Linh Chiểu",
        "street": "Đường Hoàng Diệu 2",
        "postal_code": "71307",
        "categories": [
            {
                "name": "Cửa hàng bách hóa"
            }
        ]
    },
    {
        "name": "Cửa Hàng Tạp Hóa 167 Ngọc Ánh",
        "latitude": 10.87296,
        "longitude": 106.74526,
        "address": "Cửa Hàng Tạp Hóa 167 Ngọc Ánh, 167 Đường Phú Châu, Phường Tam Bình, Thủ Đức, Hồ Chí Minh, Việt Nam",
        "country_code": "VNM",
        "country_name": "Việt Nam",
        "city": "Hồ Chí Minh",
        "district": "Thủ Đức",
        "ward": "Phường Tam Bình",
        "street": "Đường Phú Châu",
        "postal_code": "71312",
        "categories": [
            {
                "name": "Cửa hàng bách hóa"
            }
        ]
    },
    {
        "name": "Vinmart+ 107-109 Man Thiện",
        "latitude": 10.85272,
        "longitude": 106.78816,
        "address": "Vinmart+ 107-109 Man Thiện, Đường Man Thiện, Phường Hiệp Phú, Thủ Đức, Hồ Chí Minh, Việt Nam",
        "country_code": "VNM",
        "country_name": "Việt Nam",
        "city": "Hồ Chí Minh",
        "district": "Thủ Đức",
        "ward": "Phường Hiệp Phú",
        "street": "Đường Man Thiện",
        "postal_code": "71206",
        "categories": [
            {
                "name": "Cửa hàng bách hóa"
            }
        ]
    },
    {
        "name": "Tấn Sanh",
        "latitude": 10.95893,
        "longitude": 106.8366,
        "address": "Tấn Sanh, Hẻm 1240 Phạm Văn Thuận, Phường Tân Tiến, Biên Hòa, Đồng Nai, Việt Nam",
        "country_code": "VNM",
        "country_name": "Việt Nam",
        "city": "Đồng Nai",
        "district": "Biên Hòa",
        "ward": "Phường Tân Tiến",
        "street": "Hẻm 1240 Phạm Văn Thuận",
        "postal_code": "76115",
        "categories": [
            {
                "name": "Cửa hàng bách hóa"
            }
        ]
    },
    {
        "name": "Cửa Hàng Sắt Bình An",
        "latitude": 10.8542,
        "longitude": 106.77216,
        "address": "Cửa Hàng Sắt Bình An, 227 Đường Hoàng Diệu 2, Phường Linh Trung, Thủ Đức, Hồ Chí Minh, Việt Nam",
        "country_code": "VNM",
        "country_name": "Việt Nam",
        "city": "Hồ Chí Minh",
        "district": "Thủ Đức",
        "ward": "Phường Linh Trung",
        "street": "Đường Hoàng Diệu 2",
        "postal_code": "71308",
        "categories": [
            {
                "name": "Cửa hàng bách hóa"
            },
            {
                "name": "Cửa hàng chuyên dụng"
            },
            {
                "name": "Cắt tóc & Tạo mẫu"
            }
        ]
    },
    {
        "name": "Tạp Hóa Quỳnh Anh",
        "latitude": 10.95393,
        "longitude": 106.74196,
        "address": "Tạp Hóa Quỳnh Anh, TL.743, Phường An Phú, Thuận An, Bình Dương, Việt Nam",
        "country_code": "VNM",
        "country_name": "Việt Nam",
        "city": "Bình Dương",
        "district": "Thuận An",
        "ward": "Phường An Phú",
        "street": "TL.743",
        "postal_code": "75209",
        "categories": [
            {
                "name": "Cửa hàng bách hóa"
            }
        ]
    },
    {
        "name": "Kim Dung",
        "latitude": 10.96136,
        "longitude": 106.83432,
        "address": "Kim Dung, Đường Nguyễn Ái Quốc, Phường Tân Tiến, Biên Hòa, Đồng Nai, Việt Nam",
        "country_code": "VNM",
        "country_name": "Việt Nam",
        "city": "Đồng Nai",
        "district": "Biên Hòa",
        "ward": "Phường Tân Tiến",
        "street": "Đường Nguyễn Ái Quốc",
        "postal_code": "76115",
        "categories": [
            {
                "name": "Cửa hàng bách hóa"
            }
        ]
    },
    {
        "name": "Đà Lạt 1893 Quán",
        "latitude": 10.95831,
        "longitude": 106.83766,
        "address": "Đà Lạt 1893 Quán, 240B Đường Phạm Văn Thuận, Phường Thống Nhất, Biên Hòa, Đồng Nai, Việt Nam",
        "country_code": "VNM",
        "country_name": "Việt Nam",
        "city": "Đồng Nai",
        "district": "Biên Hòa",
        "ward": "Phường Thống Nhất",
        "street": "Đường Phạm Văn Thuận",
        "postal_code": "76108",
        "categories": [
            {
                "name": "Cửa hàng bách hóa"
            },
            {
                "name": "Quán cà phê"
            }
        ]
    },
    {
        "name": "Cửa Hàng Tạp Hóa Xuân Hiền",
        "latitude": 10.86147,
        "longitude": 106.7557,
        "address": "Cửa Hàng Tạp Hóa Xuân Hiền, 98 Đường Số 9, Phường Linh Tây, Thủ Đức, Hồ Chí Minh, Việt Nam",
        "country_code": "VNM",
        "country_name": "Việt Nam",
        "city": "Hồ Chí Minh",
        "district": "Thủ Đức",
        "ward": "Phường Linh Tây",
        "street": "Đường Số 9",
        "postal_code": "71310",
        "categories": [
            {
                "name": "Cửa hàng bách hóa"
            }
        ]
    },
    {
        "name": "Cửa Hàng Tạp Hóa Minh Huệ",
        "latitude": 10.87154,
        "longitude": 106.74371,
        "address": "Cửa Hàng Tạp Hóa Minh Huệ, 30 Đường Số 2, Phường Tam Bình, Thủ Đức, Hồ Chí Minh, Việt Nam",
        "country_code": "VNM",
        "country_name": "Việt Nam",
        "city": "Hồ Chí Minh",
        "district": "Thủ Đức",
        "ward": "Phường Tam Bình",
        "street": "Đường Số 2",
        "postal_code": "71312",
        "categories": [
            {
                "name": "Cửa hàng bách hóa"
            }
        ]
    },
    {
        "name": "Tiệm Cơ Khí Nam Hồng",
        "latitude": 10.85406,
        "longitude": 106.77011,
        "address": "Tiệm Cơ Khí Nam Hồng, Đường Hoàng Diệu 2, Phường Linh Trung, Thủ Đức, Hồ Chí Minh, Việt Nam",
        "country_code": "VNM",
        "country_name": "Việt Nam",
        "city": "Hồ Chí Minh",
        "district": "Thủ Đức",
        "ward": "Phường Linh Trung",
        "street": "Đường Hoàng Diệu 2",
        "postal_code": "71308",
        "categories": [
            {
                "name": "Cửa hàng bách hóa"
            }
        ]
    },
    {
        "name": "Bảo Phát",
        "latitude": 10.94241,
        "longitude": 106.73362,
        "address": "Bảo Phát, Đường D1, Phường An Phú, Thuận An, Bình Dương, Việt Nam",
        "country_code": "VNM",
        "country_name": "Việt Nam",
        "city": "Bình Dương",
        "district": "Thuận An",
        "ward": "Phường An Phú",
        "street": "Đường D1",
        "postal_code": "75209",
        "categories": [
            {
                "name": "Cửa hàng bách hóa"
            }
        ]
    },
    {
        "name": "Tiệm Tạp Hóa Vĩnh Phát",
        "latitude": 10.87194,
        "longitude": 106.74311,
        "address": "Tiệm Tạp Hóa Vĩnh Phát, 247 Đường Gò Dưa, Phường Tam Bình, Thủ Đức, Hồ Chí Minh, Việt Nam",
        "country_code": "VNM",
        "country_name": "Việt Nam",
        "city": "Hồ Chí Minh",
        "district": "Thủ Đức",
        "ward": "Phường Tam Bình",
        "street": "Đường Gò Dưa",
        "postal_code": "71312",
        "categories": [
            {
                "name": "Cửa hàng bách hóa"
            }
        ]
    },
    {
        "name": "Cửa Hàng Tạp Hóa 204",
        "latitude": 10.85465,
        "longitude": 106.76826,
        "address": "Cửa Hàng Tạp Hóa 204, 204 Đường Hoàng Diệu 2, Phường Linh Trung, Thủ Đức, Hồ Chí Minh, Việt Nam",
        "country_code": "VNM",
        "country_name": "Việt Nam",
        "city": "Hồ Chí Minh",
        "district": "Thủ Đức",
        "ward": "Phường Linh Trung",
        "street": "Đường Hoàng Diệu 2",
        "postal_code": "71308",
        "categories": [
            {
                "name": "Cửa hàng bách hóa"
            }
        ]
    },
    {
        "name": "Cửa Hàng Tạp Hóa Quốc Việt",
        "latitude": 10.86074,
        "longitude": 106.75605,
        "address": "Cửa Hàng Tạp Hóa Quốc Việt, 65E Hẻm 6 Đường Số 9, Phường Linh Tây, Thủ Đức, Hồ Chí Minh, Việt Nam",
        "country_code": "VNM",
        "country_name": "Việt Nam",
        "city": "Hồ Chí Minh",
        "district": "Thủ Đức",
        "ward": "Phường Linh Tây",
        "street": "Hẻm 6 Đường Số 9",
        "postal_code": "71310",
        "categories": [
            {
                "name": "Cửa hàng bách hóa"
            }
        ]
    },
    {
        "name": "Đại Lý Nệm Kymdan - Đại Lý Đại Bảo",
        "latitude": 10.85454,
        "longitude": 106.76823,
        "address": "Đại Lý Nệm Kymdan - Đại Lý Đại Bảo, Đường Hoàng Diệu 2, Phường Linh Trung, Thủ Đức, Hồ Chí Minh, Việt Nam",
        "country_code": "VNM",
        "country_name": "Việt Nam",
        "city": "Hồ Chí Minh",
        "district": "Thủ Đức",
        "ward": "Phường Linh Trung",
        "street": "Đường Hoàng Diệu 2",
        "postal_code": "71308",
        "categories": [
            {
                "name": "Cửa hàng bách hóa"
            }
        ]
    },
    {
        "name": "Cửa Hàng Tạp Hóa Lan Tình",
        "latitude": 10.86928,
        "longitude": 106.83822,
        "address": "Cửa Hàng Tạp Hóa Lan Tình, Hẻm 1171 Nguyễn Xiển, Phường Long Bình, Thủ Đức, Hồ Chí Minh, Việt Nam",
        "country_code": "VNM",
        "country_name": "Việt Nam",
        "city": "Hồ Chí Minh",
        "district": "Thủ Đức",
        "ward": "Phường Long Bình",
        "street": "Hẻm 1171 Nguyễn Xiển",
        "postal_code": "71217",
        "categories": [
            {
                "name": "Cửa hàng bách hóa"
            }
        ]
    },
    {
        "name": "Bách Hóa Tổng Hợp Ngọc Mai",
        "latitude": 10.89208,
        "longitude": 106.73054,
        "address": "Bách Hóa Tổng Hợp Ngọc Mai, Hẻm 14 Đường Bình Hòa 24, Phường Bình Hòa, Thuận An, Bình Dương, Việt Nam",
        "country_code": "VNM",
        "country_name": "Việt Nam",
        "city": "Bình Dương",
        "district": "Thuận An",
        "ward": "Phường Bình Hòa",
        "street": "Hẻm 14 Đường Bình Hòa 24",
        "postal_code": "75208",
        "categories": [
            {
                "name": "Cửa hàng bách hóa"
            }
        ]
    },
    {
        "name": "Dịch Vụ Cầm Đồ Thanh Khuyên",
        "latitude": 10.85837,
        "longitude": 106.75897,
        "address": "Dịch Vụ Cầm Đồ Thanh Khuyên, Hẻm 1112 Đường Kha Vạn Cân, Phường Linh Chiểu, Thủ Đức, Hồ Chí Minh, Việt Nam",
        "country_code": "VNM",
        "country_name": "Việt Nam",
        "city": "Hồ Chí Minh",
        "district": "Thủ Đức",
        "ward": "Phường Linh Chiểu",
        "street": "Hẻm 1112 Đường Kha Vạn Cân",
        "postal_code": "71307",
        "categories": [
            {
                "name": "Cửa hàng bách hóa"
            }
        ]
    },
    {
        "name": "Cửa Hàng Tạp Hóa 589",
        "latitude": 10.85807,
        "longitude": 106.7579,
        "address": "Cửa Hàng Tạp Hóa 589, Đường Kha Vạn Cân, Phường Linh Tây, Thủ Đức, Hồ Chí Minh, Việt Nam",
        "country_code": "VNM",
        "country_name": "Việt Nam",
        "city": "Hồ Chí Minh",
        "district": "Thủ Đức",
        "ward": "Phường Linh Tây",
        "street": "Đường Kha Vạn Cân",
        "postal_code": "71310",
        "categories": [
            {
                "name": "Cửa hàng bách hóa"
            }
        ]
    },
    {
        "name": "Cửa Hàng Tạp Hóa 68",
        "latitude": 10.84957,
        "longitude": 106.78197,
        "address": "Cửa Hàng Tạp Hóa 68, 68 Hẻm 10 Đường Trương Văn Thành, Phường Hiệp Phú, Thủ Đức, Hồ Chí Minh, Việt Nam",
        "country_code": "VNM",
        "country_name": "Việt Nam",
        "city": "Hồ Chí Minh",
        "district": "Thủ Đức",
        "ward": "Phường Hiệp Phú",
        "street": "Hẻm 10 Đường Trương Văn Thành",
        "postal_code": "71206",
        "categories": [
            {
                "name": "Cửa hàng bách hóa"
            }
        ]
    },
    {
        "name": "Cửa Hàng Tạp Hóa Phương Nam",
        "latitude": 10.84943,
        "longitude": 106.78279,
        "address": "Cửa Hàng Tạp Hóa Phương Nam, 8 Đường Tân Hòa 2, Phường Hiệp Phú, Thủ Đức, Hồ Chí Minh, Việt Nam",
        "country_code": "VNM",
        "country_name": "Việt Nam",
        "city": "Hồ Chí Minh",
        "district": "Thủ Đức",
        "ward": "Phường Hiệp Phú",
        "street": "Đường Tân Hòa 2",
        "postal_code": "71206",
        "categories": [
            {
                "name": "Cửa hàng bách hóa"
            }
        ]
    },
    {
        "name": "Tiệm Tạp Hóa Kim Dung",
        "latitude": 10.86678,
        "longitude": 106.74501,
        "address": "Tiệm Tạp Hóa Kim Dung, 97 Đường Tam Châu, Phường Tam Phú, Thủ Đức, Hồ Chí Minh, Việt Nam",
        "country_code": "VNM",
        "country_name": "Việt Nam",
        "city": "Hồ Chí Minh",
        "district": "Thủ Đức",
        "ward": "Phường Tam Phú",
        "street": "Đường Tam Châu",
        "postal_code": "71311",
        "categories": [
            {
                "name": "Cửa hàng bách hóa"
            }
        ]
    },
    {
        "name": "Hoàng Chung",
        "latitude": 10.95742,
        "longitude": 106.84268,
        "address": "Hoàng Chung, Đường Phan Trung, Phường Thống Nhất, Biên Hòa, Đồng Nai, Việt Nam",
        "country_code": "VNM",
        "country_name": "Việt Nam",
        "city": "Đồng Nai",
        "district": "Biên Hòa",
        "ward": "Phường Thống Nhất",
        "street": "Đường Phan Trung",
        "postal_code": "76108",
        "categories": [
            {
                "name": "Cửa hàng bách hóa"
            }
        ]
    },
    {
        "name": "CP Điểm Hẹn Thiên Nhiên - CN",
        "latitude": 10.87991,
        "longitude": 106.73378,
        "address": "CP Điểm Hẹn Thiên Nhiên - CN, 101 Đường Bình Chiểu, Phường Bình Chiểu, Thủ Đức, Hồ Chí Minh, Việt Nam",
        "country_code": "VNM",
        "country_name": "Việt Nam",
        "city": "Hồ Chí Minh",
        "district": "Thủ Đức",
        "ward": "Phường Bình Chiểu",
        "street": "Đường Bình Chiểu",
        "postal_code": "71313",
        "categories": [
            {
                "name": "Cửa hàng bách hóa"
            },
            {
                "name": "Cắt tóc & Tạo mẫu"
            }
        ]
    },
    {
        "name": "Cửa Hàng Tạp Hóa Thùy Linh",
        "latitude": 10.95959,
        "longitude": 106.74194,
        "address": "Cửa Hàng Tạp Hóa Thùy Linh, TL.743, Phường An Phú, Thuận An, Bình Dương, Việt Nam",
        "country_code": "VNM",
        "country_name": "Việt Nam",
        "city": "Bình Dương",
        "district": "Thuận An",
        "ward": "Phường An Phú",
        "street": "TL.743",
        "postal_code": "75209",
        "categories": [
            {
                "name": "Cửa hàng bách hóa"
            }
        ]
    },
    {
        "name": "Vincom Biên Hòa",
        "latitude": 10.9578,
        "longitude": 106.84347,
        "address": "Vincom Biên Hòa, Phạm Văn Thuận, Phường Tân Mai, Biên Hòa, Đồng Nai, Việt Nam",
        "country_code": "VNM",
        "country_name": "Việt Nam",
        "city": "Đồng Nai",
        "district": "Biên Hòa",
        "ward": "Phường Tân Mai",
        "street": "Phạm Văn Thuận",
        "postal_code": "76135",
        "categories": [
            {
                "name": "Cửa hàng bách hóa"
            }
        ]
    },
    {
        "name": "Quầy Giải Khát Cô Hải",
        "latitude": 10.96325,
        "longitude": 106.83813,
        "address": "Quầy Giải Khát Cô Hải, 76000 Hẻm 1506 Nguyễn Ái Quốc, Phường Tân Phong, Biên Hòa, Đồng Nai, Việt Nam",
        "country_code": "VNM",
        "country_name": "Việt Nam",
        "city": "Đồng Nai",
        "district": "Biên Hòa",
        "ward": "Phường Tân Phong",
        "street": "Hẻm 1506 Nguyễn Ái Quốc",
        "postal_code": "76117",
        "categories": [
            {
                "name": "Cửa hàng bách hóa"
            }
        ]
    },
    {
        "name": "Cửa Hàng Bách Hóa Minh Phát",
        "latitude": 10.85454,
        "longitude": 106.76025,
        "address": "Cửa Hàng Bách Hóa Minh Phát, Đường Số 17, Phường Linh Chiểu, Thủ Đức, Hồ Chí Minh, Việt Nam",
        "country_code": "VNM",
        "country_name": "Việt Nam",
        "city": "Hồ Chí Minh",
        "district": "Thủ Đức",
        "ward": "Phường Linh Chiểu",
        "street": "Đường Số 17",
        "postal_code": "71307",
        "categories": [
            {
                "name": "Cửa hàng bách hóa"
            }
        ]
    },
    {
        "name": "Cửa Hàng Tạp Hóa Nga",
        "latitude": 10.86406,
        "longitude": 106.74616,
        "address": "Cửa Hàng Tạp Hóa Nga, 38 Đường Phú Châu, Phường Tam Phú, Thủ Đức, Hồ Chí Minh, Việt Nam",
        "country_code": "VNM",
        "country_name": "Việt Nam",
        "city": "Hồ Chí Minh",
        "district": "Thủ Đức",
        "ward": "Phường Tam Phú",
        "street": "Đường Phú Châu",
        "postal_code": "71311",
        "categories": [
            {
                "name": "Cửa hàng bách hóa"
            }
        ]
    },
    {
        "name": "Cửa Hàng XI Măng Công Thanh",
        "latitude": 10.85647,
        "longitude": 106.7566,
        "address": "Cửa Hàng XI Măng Công Thanh, 283 Đường Kha Vạn Cân, Phường Linh Tây, Thủ Đức, Hồ Chí Minh, Việt Nam",
        "country_code": "VNM",
        "country_name": "Việt Nam",
        "city": "Hồ Chí Minh",
        "district": "Thủ Đức",
        "ward": "Phường Linh Tây",
        "street": "Đường Kha Vạn Cân",
        "postal_code": "71310",
        "categories": [
            {
                "name": "Cửa hàng bách hóa"
            }
        ]
    },
    {
        "name": "Cửa Hàng Tạp Hóa Cô Anh",
        "latitude": 10.85626,
        "longitude": 106.75659,
        "address": "Cửa Hàng Tạp Hóa Cô Anh, 1040 Đường Kha Vạn Cân, Phường Linh Tây, Thủ Đức, Hồ Chí Minh, Việt Nam",
        "country_code": "VNM",
        "country_name": "Việt Nam",
        "city": "Hồ Chí Minh",
        "district": "Thủ Đức",
        "ward": "Phường Linh Tây",
        "street": "Đường Kha Vạn Cân",
        "postal_code": "71310",
        "categories": [
            {
                "name": "Cửa hàng bách hóa"
            }
        ]
    },
    {
        "name": "Thành Long",
        "latitude": 10.84854,
        "longitude": 106.77483,
        "address": "Thành Long, 3 Đường Lê Văn Việt, Phường Hiệp Phú, Thủ Đức, Hồ Chí Minh, Việt Nam",
        "country_code": "VNM",
        "country_name": "Việt Nam",
        "city": "Hồ Chí Minh",
        "district": "Thủ Đức",
        "ward": "Phường Hiệp Phú",
        "street": "Đường Lê Văn Việt",
        "postal_code": "71206",
        "categories": [
            {
                "name": "Cửa hàng bách hóa"
            }
        ]
    },
    {
        "name": "Tạp Hoá Oanh",
        "latitude": 10.85829,
        "longitude": 106.75269,
        "address": "Tạp Hoá Oanh, 18 Đường Số 6, Phường Linh Tây, Thủ Đức, Hồ Chí Minh, Việt Nam",
        "country_code": "VNM",
        "country_name": "Việt Nam",
        "city": "Hồ Chí Minh",
        "district": "Thủ Đức",
        "ward": "Phường Linh Tây",
        "street": "Đường Số 6",
        "postal_code": "71310",
        "categories": [
            {
                "name": "Cửa hàng bách hóa"
            },
            {
                "name": "Dịch vụ kinh doanh"
            }
        ]
    },
    {
        "name": "Coopmart",
        "latitude": 10.84848,
        "longitude": 106.7747,
        "address": "Coopmart, Đường Lê Văn Việt, Phường Hiệp Phú, Thủ Đức, Hồ Chí Minh, Việt Nam",
        "country_code": "VNM",
        "country_name": "Việt Nam",
        "city": "Hồ Chí Minh",
        "district": "Thủ Đức",
        "ward": "Phường Hiệp Phú",
        "street": "Đường Lê Văn Việt",
        "postal_code": "71206",
        "categories": [
            {
                "name": "Cửa hàng bách hóa"
            }
        ]
    },
    {
        "name": "Sashi Store",
        "latitude": 10.84802,
        "longitude": 106.77475,
        "address": "Sashi Store, Hẻm 54 Quang Trung, Phường Hiệp Phú, Thủ Đức, Hồ Chí Minh, Việt Nam",
        "country_code": "VNM",
        "country_name": "Việt Nam",
        "city": "Hồ Chí Minh",
        "district": "Thủ Đức",
        "ward": "Phường Hiệp Phú",
        "street": "Hẻm 54 Quang Trung",
        "postal_code": "71206",
        "categories": [
            {
                "name": "Cửa hàng bách hóa"
            },
            {
                "name": "Cửa hàng điện tử gia dụng"
            }
        ]
    },
    {
        "name": "Cửa Hàng Thanh Triều",
        "latitude": 10.84987,
        "longitude": 106.76837,
        "address": "Cửa Hàng Thanh Triều, 297 Đường Võ Văn Ngân, Phường Linh Chiểu, Thủ Đức, Hồ Chí Minh, Việt Nam",
        "country_code": "VNM",
        "country_name": "Việt Nam",
        "city": "Hồ Chí Minh",
        "district": "Thủ Đức",
        "ward": "Phường Linh Chiểu",
        "street": "Đường Võ Văn Ngân",
        "postal_code": "71307",
        "categories": [
            {
                "name": "Cửa hàng bách hóa"
            }
        ]
    },
    {
        "name": "Showroom Thái Tuấn- Lê Thánh Tôn",
        "latitude": 10.8479,
        "longitude": 106.7748,
        "address": "Showroom Thái Tuấn- Lê Thánh Tôn, 1 Đường Lê Thánh Tôn, Phường Hiệp Phú, Thủ Đức, Hồ Chí Minh, Việt Nam",
        "country_code": "VNM",
        "country_name": "Việt Nam",
        "city": "Hồ Chí Minh",
        "district": "Thủ Đức",
        "ward": "Phường Hiệp Phú",
        "street": "Đường Lê Thánh Tôn",
        "postal_code": "71206",
        "categories": [
            {
                "name": "Cửa hàng bách hóa"
            },
            {
                "name": "Cửa hàng bán buôn"
            }
        ]
    },
    {
        "name": "Cửa Hàng Tạp Hóa 621",
        "latitude": 10.84586,
        "longitude": 106.79556,
        "address": "Cửa Hàng Tạp Hóa 621, 9 Đường Lê Văn Việt, Phường Tăng Nhơn Phú A, Thủ Đức, Hồ Chí Minh, Việt Nam",
        "country_code": "VNM",
        "country_name": "Việt Nam",
        "city": "Hồ Chí Minh",
        "district": "Thủ Đức",
        "ward": "Phường Tăng Nhơn Phú A",
        "street": "Đường Lê Văn Việt",
        "postal_code": "71207",
        "categories": [
            {
                "name": "Cửa hàng bách hóa"
            }
        ]
    },
    {
        "name": "Cửa Hàng Tạp Hóa 19",
        "latitude": 10.84703,
        "longitude": 106.7782,
        "address": "Cửa Hàng Tạp Hóa 19, 19 Đường Tân Lập 1, Phường Hiệp Phú, Thủ Đức, Hồ Chí Minh, Việt Nam",
        "country_code": "VNM",
        "country_name": "Việt Nam",
        "city": "Hồ Chí Minh",
        "district": "Thủ Đức",
        "ward": "Phường Hiệp Phú",
        "street": "Đường Tân Lập 1",
        "postal_code": "71206",
        "categories": [
            {
                "name": "Cửa hàng bách hóa"
            }
        ]
    }
]
