[
    {
        "name": "Thời Trang Nam-Nữ Minh Phương",
        "latitude": 10.90918,
        "longitude": 106.79565,
        "address": "Thời Trang Nam-Nữ Minh Phương, Xa Lộ Hà Nội, Phường Tân Đông Hiệp, Dĩ An, Bình Dương, Việt Nam",
        "country_code": "VNM",
        "country_name": "Việt Nam",
        "city": "Bình Dương",
        "district": "Dĩ An",
        "ward": "Phường Tân Đông Hiệp",
        "street": "Xa Lộ Hà Nội",
        "postal_code": "75311",
        "categories": [
            {
                "name": "Quần áo & Phụ kiện"
            }
        ]
    },
    {
        "name": "Shop Bẩy Hồng",
        "latitude": 10.90853,
        "longitude": 106.79543,
        "address": "Shop Bẩy Hồng, Xa Lộ Hà Nội, Phường Tân Đông Hiệp, Dĩ An, Bình Dương, Việt Nam",
        "country_code": "VNM",
        "country_name": "Việt Nam",
        "city": "Bình Dương",
        "district": "Dĩ An",
        "ward": "Phường Tân Đông Hiệp",
        "street": "Xa Lộ Hà Nội",
        "postal_code": "75311",
        "categories": [
            {
                "name": "Quần áo & Phụ kiện"
            }
        ]
    },
    {
        "name": "Shop Eva",
        "latitude": 10.90697,
        "longitude": 106.79361,
        "address": "Shop Eva, TL.743, Phường Bình Thắng, Dĩ An, Bình Dương, Việt Nam",
        "country_code": "VNM",
        "country_name": "Việt Nam",
        "city": "Bình Dương",
        "district": "Dĩ An",
        "ward": "Phường Bình Thắng",
        "street": "TL.743",
        "postal_code": "75309",
        "categories": [
            {
                "name": "Quần áo & Phụ kiện"
            }
        ]
    },
    {
        "name": "Áo Cưới Chin Na",
        "latitude": 10.90737,
        "longitude": 106.79499,
        "address": "Áo Cưới Chin Na, Xa Lộ Hà Nội, Phường Bình Thắng, Dĩ An, Bình Dương, Việt Nam",
        "country_code": "VNM",
        "country_name": "Việt Nam",
        "city": "Bình Dương",
        "district": "Dĩ An",
        "ward": "Phường Bình Thắng",
        "street": "Xa Lộ Hà Nội",
        "postal_code": "75309",
        "categories": [
            {
                "name": "Quần áo & Phụ kiện"
            },
            {
                "name": "Doanh nghiệp"
            }
        ]
    },
    {
        "name": "Shop Mai Hoa",
        "latitude": 10.91402,
        "longitude": 106.78222,
        "address": "Shop Mai Hoa, Đường D1, Phường Tân Đông Hiệp, Dĩ An, Bình Dương, Việt Nam",
        "country_code": "VNM",
        "country_name": "Việt Nam",
        "city": "Bình Dương",
        "district": "Dĩ An",
        "ward": "Phường Tân Đông Hiệp",
        "street": "Đường D1",
        "postal_code": "75311",
        "categories": [
            {
                "name": "Quần áo & Phụ kiện"
            }
        ]
    },
    {
        "name": "Trung Tâm Mua Sắm Thời Trang Ánh Hường",
        "latitude": 10.91358,
        "longitude": 106.78206,
        "address": "Trung Tâm Mua Sắm Thời Trang Ánh Hường, Đường D1, Phường Tân Đông Hiệp, Dĩ An, Bình Dương, Việt Nam",
        "country_code": "VNM",
        "country_name": "Việt Nam",
        "city": "Bình Dương",
        "district": "Dĩ An",
        "ward": "Phường Tân Đông Hiệp",
        "street": "Đường D1",
        "postal_code": "75311",
        "categories": [
            {
                "name": "Quần áo & Phụ kiện"
            }
        ]
    },
    {
        "name": "Shop House",
        "latitude": 10.91183,
        "longitude": 106.78196,
        "address": "Shop House, Đường D1, Phường Tân Đông Hiệp, Dĩ An, Bình Dương, Việt Nam",
        "country_code": "VNM",
        "country_name": "Việt Nam",
        "city": "Bình Dương",
        "district": "Dĩ An",
        "ward": "Phường Tân Đông Hiệp",
        "street": "Đường D1",
        "postal_code": "75311",
        "categories": [
            {
                "name": "Quần áo & Phụ kiện"
            },
            {
                "name": "Hàng tiêu dùng"
            }
        ]
    },
    {
        "name": "Bình Oanh",
        "latitude": 10.91316,
        "longitude": 106.78156,
        "address": "Bình Oanh, Đường Đông An, Phường Tân Đông Hiệp, Dĩ An, Bình Dương, Việt Nam",
        "country_code": "VNM",
        "country_name": "Việt Nam",
        "city": "Bình Dương",
        "district": "Dĩ An",
        "ward": "Phường Tân Đông Hiệp",
        "street": "Đường Đông An",
        "postal_code": "75311",
        "categories": [
            {
                "name": "Quần áo & Phụ kiện"
            }
        ]
    },
    {
        "name": "Áo Cưới Ái Nghĩa",
        "latitude": 10.90434,
        "longitude": 106.79422,
        "address": "Áo Cưới Ái Nghĩa, Xa Lộ Hà Nội, Phường Bình Thắng, Dĩ An, Bình Dương, Việt Nam",
        "country_code": "VNM",
        "country_name": "Việt Nam",
        "city": "Bình Dương",
        "district": "Dĩ An",
        "ward": "Phường Bình Thắng",
        "street": "Xa Lộ Hà Nội",
        "postal_code": "75309",
        "categories": [
            {
                "name": "Quần áo & Phụ kiện"
            },
            {
                "name": "Doanh nghiệp"
            }
        ]
    },
    {
        "name": "Shop Ribaby",
        "latitude": 10.90958,
        "longitude": 106.78104,
        "address": "Shop Ribaby, Đường Hai Bà Trưng, Phường Tân Đông Hiệp, Dĩ An, Bình Dương, Việt Nam",
        "country_code": "VNM",
        "country_name": "Việt Nam",
        "city": "Bình Dương",
        "district": "Dĩ An",
        "ward": "Phường Tân Đông Hiệp",
        "street": "Đường Hai Bà Trưng",
        "postal_code": "75311",
        "categories": [
            {
                "name": "Quần áo & Phụ kiện"
            }
        ]
    },
    {
        "name": "Nhỏ Shop",
        "latitude": 10.90884,
        "longitude": 106.78107,
        "address": "Nhỏ Shop, Đường Nguyễn Thái Học, Phường Tân Đông Hiệp, Dĩ An, Bình Dương, Việt Nam",
        "country_code": "VNM",
        "country_name": "Việt Nam",
        "city": "Bình Dương",
        "district": "Dĩ An",
        "ward": "Phường Tân Đông Hiệp",
        "street": "Đường Nguyễn Thái Học",
        "postal_code": "75311",
        "categories": [
            {
                "name": "Quần áo & Phụ kiện"
            }
        ]
    },
    {
        "name": "Fashion Phong Cách Mới",
        "latitude": 10.90856,
        "longitude": 106.7802,
        "address": "Fashion Phong Cách Mới, Đường Nguyễn Thái Học, Phường Tân Đông Hiệp, Dĩ An, Bình Dương, Việt Nam",
        "country_code": "VNM",
        "country_name": "Việt Nam",
        "city": "Bình Dương",
        "district": "Dĩ An",
        "ward": "Phường Tân Đông Hiệp",
        "street": "Đường Nguyễn Thái Học",
        "postal_code": "75311",
        "categories": [
            {
                "name": "Quần áo & Phụ kiện"
            }
        ]
    },
    {
        "name": "Áo Cưới Khánh Ngọc",
        "latitude": 10.90129,
        "longitude": 106.79309,
        "address": "Áo Cưới Khánh Ngọc, Xa Lộ Hà Nội, Phường Bình Thắng, Dĩ An, Bình Dương, Việt Nam",
        "country_code": "VNM",
        "country_name": "Việt Nam",
        "city": "Bình Dương",
        "district": "Dĩ An",
        "ward": "Phường Bình Thắng",
        "street": "Xa Lộ Hà Nội",
        "postal_code": "75309",
        "categories": [
            {
                "name": "Quần áo & Phụ kiện"
            },
            {
                "name": "Doanh nghiệp"
            }
        ]
    },
    {
        "name": "Shop Vân Hà",
        "latitude": 10.91312,
        "longitude": 106.77801,
        "address": "Shop Vân Hà, TL.743, Phường Tân Đông Hiệp, Dĩ An, Bình Dương, Việt Nam",
        "country_code": "VNM",
        "country_name": "Việt Nam",
        "city": "Bình Dương",
        "district": "Dĩ An",
        "ward": "Phường Tân Đông Hiệp",
        "street": "TL.743",
        "postal_code": "75311",
        "categories": [
            {
                "name": "Quần áo trẻ em"
            },
            {
                "name": "Quần áo & Phụ kiện"
            },
            {
                "name": "Hàng tiêu dùng"
            }
        ]
    },
    {
        "name": "Thời Trang Nam Quang Anh",
        "latitude": 10.90058,
        "longitude": 106.79361,
        "address": "Thời Trang Nam Quang Anh, Đường Trần Đại Nghĩa, Phường Bình Thắng, Dĩ An, Bình Dương, Việt Nam",
        "country_code": "VNM",
        "country_name": "Việt Nam",
        "city": "Bình Dương",
        "district": "Dĩ An",
        "ward": "Phường Bình Thắng",
        "street": "Đường Trần Đại Nghĩa",
        "postal_code": "75309",
        "categories": [
            {
                "name": "Quần áo & Phụ kiện"
            }
        ]
    },
    {
        "name": "Thu Hằng",
        "latitude": 10.9017,
        "longitude": 106.78583,
        "address": "Thu Hằng, Đường Nguyễn Đình Chiểu, Phường Đông Hòa, Dĩ An, Bình Dương, Việt Nam",
        "country_code": "VNM",
        "country_name": "Việt Nam",
        "city": "Bình Dương",
        "district": "Dĩ An",
        "ward": "Phường Đông Hòa",
        "street": "Đường Nguyễn Đình Chiểu",
        "postal_code": "75308",
        "categories": [
            {
                "name": "Quần áo & Phụ kiện"
            }
        ]
    },
    {
        "name": "Shop Thời Trang P & T",
        "latitude": 10.90033,
        "longitude": 106.79294,
        "address": "Shop Thời Trang P & T, Xa Lộ Hà Nội, Phường Bình Thắng, Dĩ An, Bình Dương, Việt Nam",
        "country_code": "VNM",
        "country_name": "Việt Nam",
        "city": "Bình Dương",
        "district": "Dĩ An",
        "ward": "Phường Bình Thắng",
        "street": "Xa Lộ Hà Nội",
        "postal_code": "75309",
        "categories": [
            {
                "name": "Quần áo & Phụ kiện"
            }
        ]
    },
    {
        "name": "Shop Quần Áo Phong Cách Mới",
        "latitude": 10.89963,
        "longitude": 106.79244,
        "address": "Shop Quần Áo Phong Cách Mới, Xa Lộ Hà Nội, Phường Bình Thắng, Dĩ An, Bình Dương, Việt Nam",
        "country_code": "VNM",
        "country_name": "Việt Nam",
        "city": "Bình Dương",
        "district": "Dĩ An",
        "ward": "Phường Bình Thắng",
        "street": "Xa Lộ Hà Nội",
        "postal_code": "75309",
        "categories": [
            {
                "name": "Quần áo & Phụ kiện"
            }
        ]
    },
    {
        "name": "Thời Trang Nam Ngọc Tùng",
        "latitude": 10.90124,
        "longitude": 106.79932,
        "address": "Thời Trang Nam Ngọc Tùng, TL.743, Phường Bình Thắng, Dĩ An, Bình Dương, Việt Nam",
        "country_code": "VNM",
        "country_name": "Việt Nam",
        "city": "Bình Dương",
        "district": "Dĩ An",
        "ward": "Phường Bình Thắng",
        "street": "TL.743",
        "postal_code": "75309",
        "categories": [
            {
                "name": "Quần áo & Phụ kiện"
            }
        ]
    },
    {
        "name": "Camieu House",
        "latitude": 10.90839,
        "longitude": 106.77698,
        "address": "Camieu House, Đường Nguyễn Thái Học, Phường Tân Đông Hiệp, Dĩ An, Bình Dương, Việt Nam",
        "country_code": "VNM",
        "country_name": "Việt Nam",
        "city": "Bình Dương",
        "district": "Dĩ An",
        "ward": "Phường Tân Đông Hiệp",
        "street": "Đường Nguyễn Thái Học",
        "postal_code": "75311",
        "categories": [
            {
                "name": "Quần áo & Phụ kiện"
            }
        ]
    },
    {
        "name": "Thời Trang Cao Cấp Kim Trường Phát",
        "latitude": 10.90292,
        "longitude": 106.78033,
        "address": "Thời Trang Cao Cấp Kim Trường Phát, Hẻm 44 Đường Hai Bà Trưng, Phường Đông Hòa, Dĩ An, Bình Dương, Việt Nam",
        "country_code": "VNM",
        "country_name": "Việt Nam",
        "city": "Bình Dương",
        "district": "Dĩ An",
        "ward": "Phường Đông Hòa",
        "street": "Hẻm 44 Đường Hai Bà Trưng",
        "postal_code": "75308",
        "categories": [
            {
                "name": "Quần áo & Phụ kiện"
            }
        ]
    },
    {
        "name": "Tịnh Clothing",
        "latitude": 10.90844,
        "longitude": 106.7762,
        "address": "Tịnh Clothing, Đường Nguyễn Thái Học, Phường Tân Đông Hiệp, Dĩ An, Bình Dương, Việt Nam",
        "country_code": "VNM",
        "country_name": "Việt Nam",
        "city": "Bình Dương",
        "district": "Dĩ An",
        "ward": "Phường Tân Đông Hiệp",
        "street": "Đường Nguyễn Thái Học",
        "postal_code": "75311",
        "categories": [
            {
                "name": "Quần áo & Phụ kiện"
            }
        ]
    },
    {
        "name": "Hana Shop",
        "latitude": 10.90382,
        "longitude": 106.77871,
        "address": "Hana Shop, Đường Nguyễn Bính, Phường Đông Hòa, Dĩ An, Bình Dương, Việt Nam",
        "country_code": "VNM",
        "country_name": "Việt Nam",
        "city": "Bình Dương",
        "district": "Dĩ An",
        "ward": "Phường Đông Hòa",
        "street": "Đường Nguyễn Bính",
        "postal_code": "75308",
        "categories": [
            {
                "name": "Quần áo & Phụ kiện"
            }
        ]
    },
    {
        "name": "Shop Quỳnh Quỳnh",
        "latitude": 10.90835,
        "longitude": 106.77565,
        "address": "Shop Quỳnh Quỳnh, Nguyễn Thái Học, Phường Tân Đông Hiệp, Dĩ An, Bình Dương, Việt Nam",
        "country_code": "VNM",
        "country_name": "Việt Nam",
        "city": "Bình Dương",
        "district": "Dĩ An",
        "ward": "Phường Tân Đông Hiệp",
        "street": "Nguyễn Thái Học",
        "postal_code": "75311",
        "categories": [
            {
                "name": "Quần áo & Phụ kiện"
            }
        ]
    },
    {
        "name": "Shop Quần Áo Huỳnh Duyên",
        "latitude": 10.90075,
        "longitude": 106.78132,
        "address": "Shop Quần Áo Huỳnh Duyên, Hai Bà Trưng, Phường Đông Hòa, Dĩ An, Bình Dương, Việt Nam",
        "country_code": "VNM",
        "country_name": "Việt Nam",
        "city": "Bình Dương",
        "district": "Dĩ An",
        "ward": "Phường Đông Hòa",
        "street": "Hai Bà Trưng",
        "postal_code": "75308",
        "categories": [
            {
                "name": "Quần áo & Phụ kiện"
            }
        ]
    },
    {
        "name": "Tyna Boutique",
        "latitude": 10.89978,
        "longitude": 106.80107,
        "address": "Tyna Boutique, Đường Tỉnh 743A, Phường Bình Thắng, Dĩ An, Bình Dương, Việt Nam",
        "country_code": "VNM",
        "country_name": "Việt Nam",
        "city": "Bình Dương",
        "district": "Dĩ An",
        "ward": "Phường Bình Thắng",
        "street": "Đường Tỉnh 743A",
        "postal_code": "75309",
        "categories": [
            {
                "name": "Quần áo & Phụ kiện"
            }
        ]
    },
    {
        "name": "Vi Store",
        "latitude": 10.90836,
        "longitude": 106.77462,
        "address": "Vi Store, Đường Đông An, Phường Tân Đông Hiệp, Dĩ An, Bình Dương, Việt Nam",
        "country_code": "VNM",
        "country_name": "Việt Nam",
        "city": "Bình Dương",
        "district": "Dĩ An",
        "ward": "Phường Tân Đông Hiệp",
        "street": "Đường Đông An",
        "postal_code": "75311",
        "categories": [
            {
                "name": "Quần áo & Phụ kiện"
            }
        ]
    },
    {
        "name": "Shop 78",
        "latitude": 10.90211,
        "longitude": 106.80513,
        "address": "Shop 78, Đường Bình Thung, Phường Bình Thắng, Dĩ An, Bình Dương, Việt Nam",
        "country_code": "VNM",
        "country_name": "Việt Nam",
        "city": "Bình Dương",
        "district": "Dĩ An",
        "ward": "Phường Bình Thắng",
        "street": "Đường Bình Thung",
        "postal_code": "75309",
        "categories": [
            {
                "name": "Quần áo & Phụ kiện"
            }
        ]
    },
    {
        "name": "Bảo Hân",
        "latitude": 10.89913,
        "longitude": 106.78123,
        "address": "Bảo Hân, Đường Trần Hưng Đạo, Phường Đông Hòa, Dĩ An, Bình Dương, Việt Nam",
        "country_code": "VNM",
        "country_name": "Việt Nam",
        "city": "Bình Dương",
        "district": "Dĩ An",
        "ward": "Phường Đông Hòa",
        "street": "Đường Trần Hưng Đạo",
        "postal_code": "75308",
        "categories": [
            {
                "name": "Quần áo & Phụ kiện"
            }
        ]
    },
    {
        "name": "Eva's House",
        "latitude": 10.89929,
        "longitude": 106.78096,
        "address": "Eva's House, Đường Trần Hưng Đạo, Phường Đông Hòa, Dĩ An, Bình Dương, Việt Nam",
        "country_code": "VNM",
        "country_name": "Việt Nam",
        "city": "Bình Dương",
        "district": "Dĩ An",
        "ward": "Phường Đông Hòa",
        "street": "Đường Trần Hưng Đạo",
        "postal_code": "75308",
        "categories": [
            {
                "name": "Quần áo & Phụ kiện"
            }
        ]
    },
    {
        "name": "Shop Si Phụ Kiện Túi Xách",
        "latitude": 10.89873,
        "longitude": 106.78144,
        "address": "Shop Si Phụ Kiện Túi Xách, 165 Đường Trần Hưng Đạo, Phường Đông Hòa, Dĩ An, Bình Dương, Việt Nam",
        "country_code": "VNM",
        "country_name": "Việt Nam",
        "city": "Bình Dương",
        "district": "Dĩ An",
        "ward": "Phường Đông Hòa",
        "street": "Đường Trần Hưng Đạo",
        "postal_code": "75308",
        "categories": [
            {
                "name": "Quần áo & Phụ kiện"
            }
        ]
    },
    {
        "name": "1988 Shop",
        "latitude": 10.89846,
        "longitude": 106.78172,
        "address": "1988 Shop, Đường Trần Hưng Đạo, Phường Đông Hòa, Dĩ An, Bình Dương, Việt Nam",
        "country_code": "VNM",
        "country_name": "Việt Nam",
        "city": "Bình Dương",
        "district": "Dĩ An",
        "ward": "Phường Đông Hòa",
        "street": "Đường Trần Hưng Đạo",
        "postal_code": "75308",
        "categories": [
            {
                "name": "Quần áo & Phụ kiện"
            }
        ]
    },
    {
        "name": "Vina Chang Tai",
        "latitude": 10.90837,
        "longitude": 106.77375,
        "address": "Vina Chang Tai, Đường Đông An, Phường Tân Đông Hiệp, Dĩ An, Bình Dương, Việt Nam",
        "country_code": "VNM",
        "country_name": "Việt Nam",
        "city": "Bình Dương",
        "district": "Dĩ An",
        "ward": "Phường Tân Đông Hiệp",
        "street": "Đường Đông An",
        "postal_code": "75311",
        "categories": [
            {
                "name": "Quần áo & Phụ kiện"
            }
        ]
    },
    {
        "name": "Shop Thu Hà",
        "latitude": 10.89553,
        "longitude": 106.79135,
        "address": "Shop Thu Hà, Xa Lộ Hà Nội, Phường Đông Hòa, Dĩ An, Bình Dương, Việt Nam",
        "country_code": "VNM",
        "country_name": "Việt Nam",
        "city": "Bình Dương",
        "district": "Dĩ An",
        "ward": "Phường Đông Hòa",
        "street": "Xa Lộ Hà Nội",
        "postal_code": "75308",
        "categories": [
            {
                "name": "Quần áo & Phụ kiện"
            }
        ]
    },
    {
        "name": "Shop Phương Châu",
        "latitude": 10.89778,
        "longitude": 106.78251,
        "address": "Shop Phương Châu, Đường Trần Hưng Đạo, Phường Đông Hòa, Dĩ An, Bình Dương, Việt Nam",
        "country_code": "VNM",
        "country_name": "Việt Nam",
        "city": "Bình Dương",
        "district": "Dĩ An",
        "ward": "Phường Đông Hòa",
        "street": "Đường Trần Hưng Đạo",
        "postal_code": "75308",
        "categories": [
            {
                "name": "Quần áo & Phụ kiện"
            }
        ]
    },
    {
        "name": "Shop Mẹ Và Bé",
        "latitude": 10.90014,
        "longitude": 106.7791,
        "address": "Shop Mẹ Và Bé, Đường Trần Hưng Đạo, Phường Đông Hòa, Dĩ An, Bình Dương, Việt Nam",
        "country_code": "VNM",
        "country_name": "Việt Nam",
        "city": "Bình Dương",
        "district": "Dĩ An",
        "ward": "Phường Đông Hòa",
        "street": "Đường Trần Hưng Đạo",
        "postal_code": "75308",
        "categories": [
            {
                "name": "Quần áo & Phụ kiện"
            },
            {
                "name": "Quần áo phụ nữ"
            },
            {
                "name": "Quần áo trẻ em"
            },
            {
                "name": "Hàng tiêu dùng"
            }
        ]
    },
    {
        "name": "Fashion Lan Anh",
        "latitude": 10.89804,
        "longitude": 106.78198,
        "address": "Fashion Lan Anh, Đường Trần Hưng Đạo, Phường Đông Hòa, Dĩ An, Bình Dương, Việt Nam",
        "country_code": "VNM",
        "country_name": "Việt Nam",
        "city": "Bình Dương",
        "district": "Dĩ An",
        "ward": "Phường Đông Hòa",
        "street": "Đường Trần Hưng Đạo",
        "postal_code": "75308",
        "categories": [
            {
                "name": "Quần áo & Phụ kiện"
            }
        ]
    },
    {
        "name": "Cặp Học Sinh-Ba Lô-Túi Xách",
        "latitude": 10.90804,
        "longitude": 106.77365,
        "address": "Cặp Học Sinh-Ba Lô-Túi Xách, Đường Đông An, Phường Tân Đông Hiệp, Dĩ An, Bình Dương, Việt Nam",
        "country_code": "VNM",
        "country_name": "Việt Nam",
        "city": "Bình Dương",
        "district": "Dĩ An",
        "ward": "Phường Tân Đông Hiệp",
        "street": "Đường Đông An",
        "postal_code": "75311",
        "categories": [
            {
                "name": "Quần áo & Phụ kiện"
            }
        ]
    },
    {
        "name": "Đầm Bầu Thảo Yến",
        "latitude": 10.89672,
        "longitude": 106.78405,
        "address": "Đầm Bầu Thảo Yến, Đường Trần Hưng Đạo, Phường Đông Hòa, Dĩ An, Bình Dương, Việt Nam",
        "country_code": "VNM",
        "country_name": "Việt Nam",
        "city": "Bình Dương",
        "district": "Dĩ An",
        "ward": "Phường Đông Hòa",
        "street": "Đường Trần Hưng Đạo",
        "postal_code": "75308",
        "categories": [
            {
                "name": "Quần áo & Phụ kiện"
            }
        ]
    },
    {
        "name": "Việt Tiến",
        "latitude": 10.92743,
        "longitude": 106.80599,
        "address": "Việt Tiến, Đường Nguyễn Ái Quốc, Phường Hóa An, Biên Hòa, Đồng Nai, Việt Nam",
        "country_code": "VNM",
        "country_name": "Việt Nam",
        "city": "Đồng Nai",
        "district": "Biên Hòa",
        "ward": "Phường Hóa An",
        "street": "Đường Nguyễn Ái Quốc",
        "postal_code": "76123",
        "categories": [
            {
                "name": "Quần áo & Phụ kiện"
            }
        ]
    },
    {
        "name": "Shop Tuấn Sáu",
        "latitude": 10.92743,
        "longitude": 106.80599,
        "address": "Shop Tuấn Sáu, Đường Nguyễn Ái Quốc, Phường Hóa An, Biên Hòa, Đồng Nai, Việt Nam",
        "country_code": "VNM",
        "country_name": "Việt Nam",
        "city": "Đồng Nai",
        "district": "Biên Hòa",
        "ward": "Phường Hóa An",
        "street": "Đường Nguyễn Ái Quốc",
        "postal_code": "76123",
        "categories": [
            {
                "name": "Quần áo & Phụ kiện"
            }
        ]
    },
    {
        "name": "Thời Trang Cô Hoàng",
        "latitude": 10.90763,
        "longitude": 106.77297,
        "address": "Thời Trang Cô Hoàng, Nguyễn Thái Học, Phường Dĩ An, Dĩ An, Bình Dương, Việt Nam",
        "country_code": "VNM",
        "country_name": "Việt Nam",
        "city": "Bình Dương",
        "district": "Dĩ An",
        "ward": "Phường Dĩ An",
        "street": "Nguyễn Thái Học",
        "postal_code": "75306",
        "categories": [
            {
                "name": "Quần áo & Phụ kiện"
            }
        ]
    },
    {
        "name": "Cửa Hàng Thời Trang P.N",
        "latitude": 10.90095,
        "longitude": 106.77684,
        "address": "Cửa Hàng Thời Trang P.N, Đường Trần Hưng Đạo, Phường Đông Hòa, Dĩ An, Bình Dương, Việt Nam",
        "country_code": "VNM",
        "country_name": "Việt Nam",
        "city": "Bình Dương",
        "district": "Dĩ An",
        "ward": "Phường Đông Hòa",
        "street": "Đường Trần Hưng Đạo",
        "postal_code": "75308",
        "categories": [
            {
                "name": "Quần áo & Phụ kiện"
            }
        ]
    },
    {
        "name": "Thanh Dũng Mai",
        "latitude": 10.92828,
        "longitude": 106.80578,
        "address": "Thanh Dũng Mai, Đường Nguyễn Ái Quốc, Phường Hóa An, Biên Hòa, Đồng Nai, Việt Nam",
        "country_code": "VNM",
        "country_name": "Việt Nam",
        "city": "Đồng Nai",
        "district": "Biên Hòa",
        "ward": "Phường Hóa An",
        "street": "Đường Nguyễn Ái Quốc",
        "postal_code": "76123",
        "categories": [
            {
                "name": "Quần áo & Phụ kiện"
            }
        ]
    },
    {
        "name": "Thời Trang Trẻ NK",
        "latitude": 10.90127,
        "longitude": 106.77607,
        "address": "Thời Trang Trẻ NK, Đường Trần Hưng Đạo, Phường Đông Hòa, Dĩ An, Bình Dương, Việt Nam",
        "country_code": "VNM",
        "country_name": "Việt Nam",
        "city": "Bình Dương",
        "district": "Dĩ An",
        "ward": "Phường Đông Hòa",
        "street": "Đường Trần Hưng Đạo",
        "postal_code": "75308",
        "categories": [
            {
                "name": "Quần áo & Phụ kiện"
            },
            {
                "name": "Quần áo nam"
            }
        ]
    },
    {
        "name": "Shop Giày Dép Ananas",
        "latitude": 10.90127,
        "longitude": 106.77607,
        "address": "Shop Giày Dép Ananas, Đường Trần Hưng Đạo, Phường Đông Hòa, Dĩ An, Bình Dương, Việt Nam",
        "country_code": "VNM",
        "country_name": "Việt Nam",
        "city": "Bình Dương",
        "district": "Dĩ An",
        "ward": "Phường Đông Hòa",
        "street": "Đường Trần Hưng Đạo",
        "postal_code": "75308",
        "categories": [
            {
                "name": "Quần áo & Phụ kiện"
            }
        ]
    },
    {
        "name": "Fashion Trúc Anh",
        "latitude": 10.90161,
        "longitude": 106.77554,
        "address": "Fashion Trúc Anh, Đường Trần Hưng Đạo, Phường Đông Hòa, Dĩ An, Bình Dương, Việt Nam",
        "country_code": "VNM",
        "country_name": "Việt Nam",
        "city": "Bình Dương",
        "district": "Dĩ An",
        "ward": "Phường Đông Hòa",
        "street": "Đường Trần Hưng Đạo",
        "postal_code": "75308",
        "categories": [
            {
                "name": "Quần áo & Phụ kiện"
            }
        ]
    },
    {
        "name": "Trung Tâm Bồi Dưỡng Văn Hóa Và Kỹ Năng Minh Châu",
        "latitude": 10.89474,
        "longitude": 106.78518,
        "address": "Trung Tâm Bồi Dưỡng Văn Hóa Và Kỹ Năng Minh Châu, Đường Nguyễn Hữu Cảnh, Phường Đông Hòa, Dĩ An, Bình Dương, Việt Nam",
        "country_code": "VNM",
        "country_name": "Việt Nam",
        "city": "Bình Dương",
        "district": "Dĩ An",
        "ward": "Phường Đông Hòa",
        "street": "Đường Nguyễn Hữu Cảnh",
        "postal_code": "75308",
        "categories": [
            {
                "name": "Quần áo & Phụ kiện"
            },
            {
                "name": "Đào tạo & Phát triển"
            }
        ]
    },
    {
        "name": "Hoa Hang Xi",
        "latitude": 10.90694,
        "longitude": 106.77226,
        "address": "Hoa Hang Xi, Nguyễn Thái Học, Phường Dĩ An, Dĩ An, Bình Dương, Việt Nam",
        "country_code": "VNM",
        "country_name": "Việt Nam",
        "city": "Bình Dương",
        "district": "Dĩ An",
        "ward": "Phường Dĩ An",
        "street": "Nguyễn Thái Học",
        "postal_code": "75306",
        "categories": [
            {
                "name": "Quần áo & Phụ kiện"
            }
        ]
    },
    {
        "name": "Áo Cưới Quỳnh Mai",
        "latitude": 10.90206,
        "longitude": 106.77471,
        "address": "Áo Cưới Quỳnh Mai, Đường Trần Hưng Đạo, Phường Đông Hòa, Dĩ An, Bình Dương, Việt Nam",
        "country_code": "VNM",
        "country_name": "Việt Nam",
        "city": "Bình Dương",
        "district": "Dĩ An",
        "ward": "Phường Đông Hòa",
        "street": "Đường Trần Hưng Đạo",
        "postal_code": "75308",
        "categories": [
            {
                "name": "Quần áo & Phụ kiện"
            },
            {
                "name": "Doanh nghiệp"
            }
        ]
    },
    {
        "name": "Quần Áo Giầy Dép",
        "latitude": 10.89922,
        "longitude": 106.80635,
        "address": "Quần Áo Giầy Dép, TL.743, Phường Bình Thắng, Dĩ An, Bình Dương, Việt Nam",
        "country_code": "VNM",
        "country_name": "Việt Nam",
        "city": "Bình Dương",
        "district": "Dĩ An",
        "ward": "Phường Bình Thắng",
        "street": "TL.743",
        "postal_code": "75309",
        "categories": [
            {
                "name": "Quần áo & Phụ kiện"
            }
        ]
    },
    {
        "name": "Gem Bag & Accessories",
        "latitude": 10.9017,
        "longitude": 106.77459,
        "address": "Gem Bag & Accessories, Võ Thị Sáu, Phường Đông Hòa, Dĩ An, Bình Dương, Việt Nam",
        "country_code": "VNM",
        "country_name": "Việt Nam",
        "city": "Bình Dương",
        "district": "Dĩ An",
        "ward": "Phường Đông Hòa",
        "street": "Võ Thị Sáu",
        "postal_code": "75308",
        "categories": [
            {
                "name": "Quần áo & Phụ kiện"
            }
        ]
    },
    {
        "name": "Mị Store",
        "latitude": 10.9017,
        "longitude": 106.77447,
        "address": "Mị Store, 17 Đường Võ Thị Sáu, Phường Đông Hòa, Dĩ An, Bình Dương, Việt Nam",
        "country_code": "VNM",
        "country_name": "Việt Nam",
        "city": "Bình Dương",
        "district": "Dĩ An",
        "ward": "Phường Đông Hòa",
        "street": "Đường Võ Thị Sáu",
        "postal_code": "75308",
        "categories": [
            {
                "name": "Quần áo & Phụ kiện"
            }
        ]
    },
    {
        "name": "Shop Trang Sự",
        "latitude": 10.90666,
        "longitude": 106.77171,
        "address": "Shop Trang Sự, Tú Xương, Phường Dĩ An, Dĩ An, Bình Dương, Việt Nam",
        "country_code": "VNM",
        "country_name": "Việt Nam",
        "city": "Bình Dương",
        "district": "Dĩ An",
        "ward": "Phường Dĩ An",
        "street": "Tú Xương",
        "postal_code": "75306",
        "categories": [
            {
                "name": "Quần áo & Phụ kiện"
            }
        ]
    },
    {
        "name": "Cathy's Store",
        "latitude": 10.90254,
        "longitude": 106.77365,
        "address": "Cathy's Store, 345 Đường Trần Hưng Đạo, Phường Đông Hòa, Dĩ An, Bình Dương, Việt Nam",
        "country_code": "VNM",
        "country_name": "Việt Nam",
        "city": "Bình Dương",
        "district": "Dĩ An",
        "ward": "Phường Đông Hòa",
        "street": "Đường Trần Hưng Đạo",
        "postal_code": "75308",
        "categories": [
            {
                "name": "Giày dép"
            },
            {
                "name": "Quần áo & Phụ kiện"
            }
        ]
    },
    {
        "name": "Áo Cưới Minh Hằng",
        "latitude": 10.89297,
        "longitude": 106.7901,
        "address": "Áo Cưới Minh Hằng, Xa Lộ Hà Nội, Phường Đông Hòa, Dĩ An, Bình Dương, Việt Nam",
        "country_code": "VNM",
        "country_name": "Việt Nam",
        "city": "Bình Dương",
        "district": "Dĩ An",
        "ward": "Phường Đông Hòa",
        "street": "Xa Lộ Hà Nội",
        "postal_code": "75308",
        "categories": [
            {
                "name": "Quần áo & Phụ kiện"
            },
            {
                "name": "Doanh nghiệp"
            }
        ]
    },
    {
        "name": "Ulzzang & Korean Style Juko House",
        "latitude": 10.90263,
        "longitude": 106.77352,
        "address": "Ulzzang & Korean Style Juko House, Đường Trần Hưng Đạo, Phường Đông Hòa, Dĩ An, Bình Dương, Việt Nam",
        "country_code": "VNM",
        "country_name": "Việt Nam",
        "city": "Bình Dương",
        "district": "Dĩ An",
        "ward": "Phường Đông Hòa",
        "street": "Đường Trần Hưng Đạo",
        "postal_code": "75308",
        "categories": [
            {
                "name": "Quần áo & Phụ kiện"
            },
            {
                "name": "Hàng tiêu dùng"
            }
        ]
    },
    {
        "name": "Trà My Len",
        "latitude": 10.90662,
        "longitude": 106.77146,
        "address": "Trà My Len, Hẻm 13 Đường Cô Bắc, Phường Dĩ An, Dĩ An, Bình Dương, Việt Nam",
        "country_code": "VNM",
        "country_name": "Việt Nam",
        "city": "Bình Dương",
        "district": "Dĩ An",
        "ward": "Phường Dĩ An",
        "street": "Hẻm 13 Đường Cô Bắc",
        "postal_code": "75306",
        "categories": [
            {
                "name": "Quần áo & Phụ kiện"
            }
        ]
    },
    {
        "name": "Áo Cưới Thành Tân",
        "latitude": 10.89272,
        "longitude": 106.7899,
        "address": "Áo Cưới Thành Tân, Xa Lộ Hà Nội, Phường Đông Hòa, Dĩ An, Bình Dương, Việt Nam",
        "country_code": "VNM",
        "country_name": "Việt Nam",
        "city": "Bình Dương",
        "district": "Dĩ An",
        "ward": "Phường Đông Hòa",
        "street": "Xa Lộ Hà Nội",
        "postal_code": "75308",
        "categories": [
            {
                "name": "Quần áo & Phụ kiện"
            },
            {
                "name": "Doanh nghiệp"
            }
        ]
    },
    {
        "name": "Thủy Top",
        "latitude": 10.90105,
        "longitude": 106.77436,
        "address": "Thủy Top, Võ Thị Sáu, Phường Đông Hòa, Dĩ An, Bình Dương, Việt Nam",
        "country_code": "VNM",
        "country_name": "Việt Nam",
        "city": "Bình Dương",
        "district": "Dĩ An",
        "ward": "Phường Đông Hòa",
        "street": "Võ Thị Sáu",
        "postal_code": "75308",
        "categories": [
            {
                "name": "Quần áo & Phụ kiện"
            }
        ]
    },
    {
        "name": "Quần Áo Xuất Khẩu",
        "latitude": 10.90332,
        "longitude": 106.77279,
        "address": "Quần Áo Xuất Khẩu, Đường Trần Hưng Đạo, Phường Đông Hòa, Dĩ An, Bình Dương, Việt Nam",
        "country_code": "VNM",
        "country_name": "Việt Nam",
        "city": "Bình Dương",
        "district": "Dĩ An",
        "ward": "Phường Đông Hòa",
        "street": "Đường Trần Hưng Đạo",
        "postal_code": "75308",
        "categories": [
            {
                "name": "Quần áo & Phụ kiện"
            }
        ]
    },
    {
        "name": "Shop Thời Trang Mai",
        "latitude": 10.89261,
        "longitude": 106.78974,
        "address": "Shop Thời Trang Mai, Xa Lộ Hà Nội, Phường Đông Hòa, Dĩ An, Bình Dương, Việt Nam",
        "country_code": "VNM",
        "country_name": "Việt Nam",
        "city": "Bình Dương",
        "district": "Dĩ An",
        "ward": "Phường Đông Hòa",
        "street": "Xa Lộ Hà Nội",
        "postal_code": "75308",
        "categories": [
            {
                "name": "Quần áo & Phụ kiện"
            }
        ]
    },
    {
        "name": "Shop Mỹ Huyền",
        "latitude": 10.90649,
        "longitude": 106.77116,
        "address": "Shop Mỹ Huyền, Hẻm 1 Đường Nguyễn Thái Học, Phường Dĩ An, Dĩ An, Bình Dương, Việt Nam",
        "country_code": "VNM",
        "country_name": "Việt Nam",
        "city": "Bình Dương",
        "district": "Dĩ An",
        "ward": "Phường Dĩ An",
        "street": "Hẻm 1 Đường Nguyễn Thái Học",
        "postal_code": "75306",
        "categories": [
            {
                "name": "Quần áo & Phụ kiện"
            },
            {
                "name": "Hàng tiêu dùng"
            }
        ]
    },
    {
        "name": "Fashion Shop Thuỳ Trang",
        "latitude": 10.90682,
        "longitude": 106.77103,
        "address": "Fashion Shop Thuỳ Trang, Cô Bắc, Phường Dĩ An, Dĩ An, Bình Dương, Việt Nam",
        "country_code": "VNM",
        "country_name": "Việt Nam",
        "city": "Bình Dương",
        "district": "Dĩ An",
        "ward": "Phường Dĩ An",
        "street": "Cô Bắc",
        "postal_code": "75306",
        "categories": [
            {
                "name": "Quần áo & Phụ kiện"
            }
        ]
    },
    {
        "name": "Áo Cưới Thảo II",
        "latitude": 10.93091,
        "longitude": 106.80571,
        "address": "Áo Cưới Thảo II, Đường Nguyễn Ái Quốc, Phường Hóa An, Biên Hòa, Đồng Nai, Việt Nam",
        "country_code": "VNM",
        "country_name": "Việt Nam",
        "city": "Đồng Nai",
        "district": "Biên Hòa",
        "ward": "Phường Hóa An",
        "street": "Đường Nguyễn Ái Quốc",
        "postal_code": "76123",
        "categories": [
            {
                "name": "Quần áo & Phụ kiện"
            }
        ]
    },
    {
        "name": "Ngân Châu Luxury",
        "latitude": 10.90469,
        "longitude": 106.77184,
        "address": "Ngân Châu Luxury, Đường Trần Hưng Đạo, Phường Dĩ An, Dĩ An, Bình Dương, Việt Nam",
        "country_code": "VNM",
        "country_name": "Việt Nam",
        "city": "Bình Dương",
        "district": "Dĩ An",
        "ward": "Phường Dĩ An",
        "street": "Đường Trần Hưng Đạo",
        "postal_code": "75306",
        "categories": [
            {
                "name": "Quần áo & Phụ kiện"
            },
            {
                "name": "Hàng tiêu dùng"
            }
        ]
    },
    {
        "name": "Cửa Hàng Đồ Bộ Mặc Nhà Boutique Hương Nguyễn",
        "latitude": 10.90621,
        "longitude": 106.77115,
        "address": "Cửa Hàng Đồ Bộ Mặc Nhà Boutique Hương Nguyễn, Đường Cô Giang, Phường Dĩ An, Dĩ An, Bình Dương, Việt Nam",
        "country_code": "VNM",
        "country_name": "Việt Nam",
        "city": "Bình Dương",
        "district": "Dĩ An",
        "ward": "Phường Dĩ An",
        "street": "Đường Cô Giang",
        "postal_code": "75306",
        "categories": [
            {
                "name": "Quần áo & Phụ kiện"
            }
        ]
    },
    {
        "name": "Tiệm Vải Bi Bo",
        "latitude": 10.91345,
        "longitude": 106.76964,
        "address": "Tiệm Vải Bi Bo, Đường Nguyễn An Ninh, Phường Dĩ An, Dĩ An, Bình Dương, Việt Nam",
        "country_code": "VNM",
        "country_name": "Việt Nam",
        "city": "Bình Dương",
        "district": "Dĩ An",
        "ward": "Phường Dĩ An",
        "street": "Đường Nguyễn An Ninh",
        "postal_code": "75306",
        "categories": [
            {
                "name": "Quần áo & Phụ kiện"
            },
            {
                "name": "Cửa hàng chuyên dụng"
            }
        ]
    },
    {
        "name": "Cửa Hàng Thời Trang Rase Palace",
        "latitude": 10.90393,
        "longitude": 106.7722,
        "address": "Cửa Hàng Thời Trang Rase Palace, Đường Trần Hưng Đạo, Phường Dĩ An, Dĩ An, Bình Dương, Việt Nam",
        "country_code": "VNM",
        "country_name": "Việt Nam",
        "city": "Bình Dương",
        "district": "Dĩ An",
        "ward": "Phường Dĩ An",
        "street": "Đường Trần Hưng Đạo",
        "postal_code": "75306",
        "categories": [
            {
                "name": "Quần áo & Phụ kiện"
            }
        ]
    },
    {
        "name": "Shop Thời Trang Thanh Lý",
        "latitude": 10.90393,
        "longitude": 106.7722,
        "address": "Shop Thời Trang Thanh Lý, Đường Trần Hưng Đạo, Phường Dĩ An, Dĩ An, Bình Dương, Việt Nam",
        "country_code": "VNM",
        "country_name": "Việt Nam",
        "city": "Bình Dương",
        "district": "Dĩ An",
        "ward": "Phường Dĩ An",
        "street": "Đường Trần Hưng Đạo",
        "postal_code": "75306",
        "categories": [
            {
                "name": "Quần áo & Phụ kiện"
            }
        ]
    },
    {
        "name": "Nary",
        "latitude": 10.91039,
        "longitude": 106.76994,
        "address": "Nary, Đường Nguyễn An Ninh, Phường Dĩ An, Dĩ An, Bình Dương, Việt Nam",
        "country_code": "VNM",
        "country_name": "Việt Nam",
        "city": "Bình Dương",
        "district": "Dĩ An",
        "ward": "Phường Dĩ An",
        "street": "Đường Nguyễn An Ninh",
        "postal_code": "75306",
        "categories": [
            {
                "name": "Quần áo & Phụ kiện"
            }
        ]
    },
    {
        "name": "Thời Trang Nam Nữ Brand Jeans",
        "latitude": 10.91473,
        "longitude": 106.76958,
        "address": "Thời Trang Nam Nữ Brand Jeans, Đường Nguyễn An Ninh, Phường Dĩ An, Dĩ An, Bình Dương, Việt Nam",
        "country_code": "VNM",
        "country_name": "Việt Nam",
        "city": "Bình Dương",
        "district": "Dĩ An",
        "ward": "Phường Dĩ An",
        "street": "Đường Nguyễn An Ninh",
        "postal_code": "75306",
        "categories": [
            {
                "name": "Quần áo & Phụ kiện"
            }
        ]
    },
    {
        "name": "Thời Trang Bầu Nini Maxx",
        "latitude": 10.91123,
        "longitude": 106.76976,
        "address": "Thời Trang Bầu Nini Maxx, Đường Nguyễn An Ninh, Phường Dĩ An, Dĩ An, Bình Dương, Việt Nam",
        "country_code": "VNM",
        "country_name": "Việt Nam",
        "city": "Bình Dương",
        "district": "Dĩ An",
        "ward": "Phường Dĩ An",
        "street": "Đường Nguyễn An Ninh",
        "postal_code": "75306",
        "categories": [
            {
                "name": "Quần áo & Phụ kiện"
            }
        ]
    },
    {
        "name": "Gạo",
        "latitude": 10.91249,
        "longitude": 106.76961,
        "address": "Gạo, Đường Nguyễn An Ninh, Phường Dĩ An, Dĩ An, Bình Dương, Việt Nam",
        "country_code": "VNM",
        "country_name": "Việt Nam",
        "city": "Bình Dương",
        "district": "Dĩ An",
        "ward": "Phường Dĩ An",
        "street": "Đường Nguyễn An Ninh",
        "postal_code": "75306",
        "categories": [
            {
                "name": "Quần áo & Phụ kiện"
            }
        ]
    },
    {
        "name": "Be You Unisex Clothing",
        "latitude": 10.91072,
        "longitude": 106.7698,
        "address": "Be You Unisex Clothing, Đường Nguyễn An Ninh, Phường Dĩ An, Dĩ An, Bình Dương, Việt Nam",
        "country_code": "VNM",
        "country_name": "Việt Nam",
        "city": "Bình Dương",
        "district": "Dĩ An",
        "ward": "Phường Dĩ An",
        "street": "Đường Nguyễn An Ninh",
        "postal_code": "75306",
        "categories": [
            {
                "name": "Quần áo & Phụ kiện"
            }
        ]
    },
    {
        "name": "Cửa Hàng Thời Trang Gumac",
        "latitude": 10.9126,
        "longitude": 106.76958,
        "address": "Cửa Hàng Thời Trang Gumac, Đường Nguyễn An Ninh, Phường Dĩ An, Dĩ An, Bình Dương, Việt Nam",
        "country_code": "VNM",
        "country_name": "Việt Nam",
        "city": "Bình Dương",
        "district": "Dĩ An",
        "ward": "Phường Dĩ An",
        "street": "Đường Nguyễn An Ninh",
        "postal_code": "75306",
        "categories": [
            {
                "name": "Quần áo & Phụ kiện"
            }
        ]
    },
    {
        "name": "Sofia",
        "latitude": 10.90437,
        "longitude": 106.77184,
        "address": "Sofia, Đường Trần Hưng Đạo, Phường Dĩ An, Dĩ An, Bình Dương, Việt Nam",
        "country_code": "VNM",
        "country_name": "Việt Nam",
        "city": "Bình Dương",
        "district": "Dĩ An",
        "ward": "Phường Dĩ An",
        "street": "Đường Trần Hưng Đạo",
        "postal_code": "75306",
        "categories": [
            {
                "name": "Quần áo & Phụ kiện"
            }
        ]
    },
    {
        "name": "Cuahang Quan Ao Nganch",
        "latitude": 10.90441,
        "longitude": 106.7718,
        "address": "Cuahang Quan Ao Nganch, 374A Đường Trần Hưng Đạo, Phường Dĩ An, Dĩ An, Bình Dương, Việt Nam",
        "country_code": "VNM",
        "country_name": "Việt Nam",
        "city": "Bình Dương",
        "district": "Dĩ An",
        "ward": "Phường Dĩ An",
        "street": "Đường Trần Hưng Đạo",
        "postal_code": "75306",
        "categories": [
            {
                "name": "Quần áo & Phụ kiện"
            }
        ]
    },
    {
        "name": "Diệp Kids",
        "latitude": 10.90468,
        "longitude": 106.77151,
        "address": "Diệp Kids, Đường Trần Hưng Đạo, Phường Dĩ An, Dĩ An, Bình Dương, Việt Nam",
        "country_code": "VNM",
        "country_name": "Việt Nam",
        "city": "Bình Dương",
        "district": "Dĩ An",
        "ward": "Phường Dĩ An",
        "street": "Đường Trần Hưng Đạo",
        "postal_code": "75306",
        "categories": [
            {
                "name": "Quần áo trẻ em"
            },
            {
                "name": "Quần áo & Phụ kiện"
            }
        ]
    },
    {
        "name": "Yume Fashion",
        "latitude": 10.90468,
        "longitude": 106.77151,
        "address": "Yume Fashion, Đường Trần Hưng Đạo, Phường Dĩ An, Dĩ An, Bình Dương, Việt Nam",
        "country_code": "VNM",
        "country_name": "Việt Nam",
        "city": "Bình Dương",
        "district": "Dĩ An",
        "ward": "Phường Dĩ An",
        "street": "Đường Trần Hưng Đạo",
        "postal_code": "75306",
        "categories": [
            {
                "name": "Quần áo & Phụ kiện"
            }
        ]
    },
    {
        "name": "Shop Bé Sáu",
        "latitude": 10.90592,
        "longitude": 106.77089,
        "address": "Shop Bé Sáu, Hẻm 18 Đường Cô Giang, Phường Dĩ An, Dĩ An, Bình Dương, Việt Nam",
        "country_code": "VNM",
        "country_name": "Việt Nam",
        "city": "Bình Dương",
        "district": "Dĩ An",
        "ward": "Phường Dĩ An",
        "street": "Hẻm 18 Đường Cô Giang",
        "postal_code": "75306",
        "categories": [
            {
                "name": "Quần áo & Phụ kiện"
            }
        ]
    },
    {
        "name": "Chuyên Cung Cấp Đồ Gia Dụng Dĩ An",
        "latitude": 10.90592,
        "longitude": 106.77089,
        "address": "Chuyên Cung Cấp Đồ Gia Dụng Dĩ An, Hẻm 18 Đường Cô Giang, Phường Dĩ An, Dĩ An, Bình Dương, Việt Nam",
        "country_code": "VNM",
        "country_name": "Việt Nam",
        "city": "Bình Dương",
        "district": "Dĩ An",
        "ward": "Phường Dĩ An",
        "street": "Hẻm 18 Đường Cô Giang",
        "postal_code": "75306",
        "categories": [
            {
                "name": "Quần áo & Phụ kiện"
            },
            {
                "name": "Cửa hàng bán buôn"
            }
        ]
    },
    {
        "name": "Thoi Trang Hanul",
        "latitude": 10.90506,
        "longitude": 106.77126,
        "address": "Thoi Trang Hanul, Đường Trần Hưng Đạo, Phường Dĩ An, Dĩ An, Bình Dương, Việt Nam",
        "country_code": "VNM",
        "country_name": "Việt Nam",
        "city": "Bình Dương",
        "district": "Dĩ An",
        "ward": "Phường Dĩ An",
        "street": "Đường Trần Hưng Đạo",
        "postal_code": "75306",
        "categories": [
            {
                "name": "Quần áo & Phụ kiện"
            }
        ]
    },
    {
        "name": "Thời Trang Cảnh Chi",
        "latitude": 10.90656,
        "longitude": 106.77058,
        "address": "Thời Trang Cảnh Chi, Hẻm 17 Cô Giang, Phường Dĩ An, Dĩ An, Bình Dương, Việt Nam",
        "country_code": "VNM",
        "country_name": "Việt Nam",
        "city": "Bình Dương",
        "district": "Dĩ An",
        "ward": "Phường Dĩ An",
        "street": "Hẻm 17 Cô Giang",
        "postal_code": "75306",
        "categories": [
            {
                "name": "Quần áo & Phụ kiện"
            }
        ]
    },
    {
        "name": "Anh Hong2",
        "latitude": 10.90716,
        "longitude": 106.77018,
        "address": "Anh Hong2, Đường Cô Bắc, Phường Dĩ An, Dĩ An, Bình Dương, Việt Nam",
        "country_code": "VNM",
        "country_name": "Việt Nam",
        "city": "Bình Dương",
        "district": "Dĩ An",
        "ward": "Phường Dĩ An",
        "street": "Đường Cô Bắc",
        "postal_code": "75306",
        "categories": [
            {
                "name": "Quần áo & Phụ kiện"
            },
            {
                "name": "Cửa hàng chuyên dụng"
            }
        ]
    },
    {
        "name": "Shoes Kim Loan",
        "latitude": 10.90534,
        "longitude": 106.77085,
        "address": "Shoes Kim Loan, Đường Trần Hưng Đạo, Phường Dĩ An, Dĩ An, Bình Dương, Việt Nam",
        "country_code": "VNM",
        "country_name": "Việt Nam",
        "city": "Bình Dương",
        "district": "Dĩ An",
        "ward": "Phường Dĩ An",
        "street": "Đường Trần Hưng Đạo",
        "postal_code": "75306",
        "categories": [
            {
                "name": "Giày dép"
            },
            {
                "name": "Quần áo & Phụ kiện"
            }
        ]
    },
    {
        "name": "Tín Nguyễn Store",
        "latitude": 10.90695,
        "longitude": 106.7702,
        "address": "Tín Nguyễn Store, Đường Cô Giang, Phường Dĩ An, Dĩ An, Bình Dương, Việt Nam",
        "country_code": "VNM",
        "country_name": "Việt Nam",
        "city": "Bình Dương",
        "district": "Dĩ An",
        "ward": "Phường Dĩ An",
        "street": "Đường Cô Giang",
        "postal_code": "75306",
        "categories": [
            {
                "name": "Quần áo & Phụ kiện"
            }
        ]
    },
    {
        "name": "Giày Xinh",
        "latitude": 10.90559,
        "longitude": 106.77071,
        "address": "Giày Xinh, Đường Trần Hưng Đạo, Phường Dĩ An, Dĩ An, Bình Dương, Việt Nam",
        "country_code": "VNM",
        "country_name": "Việt Nam",
        "city": "Bình Dương",
        "district": "Dĩ An",
        "ward": "Phường Dĩ An",
        "street": "Đường Trần Hưng Đạo",
        "postal_code": "75306",
        "categories": [
            {
                "name": "Quần áo & Phụ kiện"
            },
            {
                "name": "Hàng tiêu dùng"
            }
        ]
    },
    {
        "name": "Áo Cưới Nhũ",
        "latitude": 10.92749,
        "longitude": 106.81009,
        "address": "Áo Cưới Nhũ, Đường Nguyễn Tri Phương, Phường Bửu Hòa, Biên Hòa, Đồng Nai, Việt Nam",
        "country_code": "VNM",
        "country_name": "Việt Nam",
        "city": "Đồng Nai",
        "district": "Biên Hòa",
        "ward": "Phường Bửu Hòa",
        "street": "Đường Nguyễn Tri Phương",
        "postal_code": "76125",
        "categories": [
            {
                "name": "Quần áo & Phụ kiện"
            }
        ]
    },
    {
        "name": "Sulee Store",
        "latitude": 10.9062,
        "longitude": 106.77023,
        "address": "Sulee Store, Đường Trần Hưng Đạo, Phường Dĩ An, Dĩ An, Bình Dương, Việt Nam",
        "country_code": "VNM",
        "country_name": "Việt Nam",
        "city": "Bình Dương",
        "district": "Dĩ An",
        "ward": "Phường Dĩ An",
        "street": "Đường Trần Hưng Đạo",
        "postal_code": "75306",
        "categories": [
            {
                "name": "Quần áo & Phụ kiện"
            }
        ]
    },
    {
        "name": "Shop Nguyệt",
        "latitude": 10.91086,
        "longitude": 106.76897,
        "address": "Shop Nguyệt, Đường Nguyễn Du, Phường Dĩ An, Dĩ An, Bình Dương, Việt Nam",
        "country_code": "VNM",
        "country_name": "Việt Nam",
        "city": "Bình Dương",
        "district": "Dĩ An",
        "ward": "Phường Dĩ An",
        "street": "Đường Nguyễn Du",
        "postal_code": "75306",
        "categories": [
            {
                "name": "Quần áo & Phụ kiện"
            }
        ]
    },
    {
        "name": "Shop Huyền Dĩ An",
        "latitude": 10.90635,
        "longitude": 106.77005,
        "address": "Shop Huyền Dĩ An, Đường Số 5, Phường Dĩ An, Dĩ An, Bình Dương, Việt Nam",
        "country_code": "VNM",
        "country_name": "Việt Nam",
        "city": "Bình Dương",
        "district": "Dĩ An",
        "ward": "Phường Dĩ An",
        "street": "Đường Số 5",
        "postal_code": "75306",
        "categories": [
            {
                "name": "Quần áo & Phụ kiện"
            }
        ]
    }
]
