[
    {
        "name": "Bách Hóa Xanh",
        "latitude": 10.90674,
        "longitude": 106.79383,
        "address": "Bách Hóa Xanh, TL.743, Phường Bình Thắng, Dĩ An, Bình Dương, Việt Nam",
        "country_code": "VNM",
        "country_name": "Việt Nam",
        "city": "Bình Dương",
        "district": "Dĩ An",
        "ward": "Phường Bình Thắng",
        "street": "TL.743",
        "postal_code": "75309",
        "categories": [
            {
                "name": "Siêu thị"
            }
        ]
    },
    {
        "name": "Bách Hóa Xanh.com",
        "latitude": 10.91429,
        "longitude": 106.78222,
        "address": "Bách Hóa Xanh.com, Đường D1, Phường Tân Đông Hiệp, Dĩ An, Bình Dương, Việt Nam",
        "country_code": "VNM",
        "country_name": "Việt Nam",
        "city": "Bình Dương",
        "district": "Dĩ An",
        "ward": "Phường Tân Đông Hiệp",
        "street": "Đường D1",
        "postal_code": "75311",
        "categories": [
            {
                "name": "Siêu thị"
            }
        ]
    },
    {
        "name": "Đào Hữu Chiến - Shop Đồ Miễn Phí Cho Người Nghèo",
        "latitude": 10.90161,
        "longitude": 106.78899,
        "address": "Đào Hữu Chiến - Shop Đồ Miễn Phí Cho Người Nghèo, Đường Nguyễn Đình Chiểu, Phường Đông Hòa, Dĩ An, Bình Dương, Việt Nam",
        "country_code": "VNM",
        "country_name": "Việt Nam",
        "city": "Bình Dương",
        "district": "Dĩ An",
        "ward": "Phường Đông Hòa",
        "street": "Đường Nguyễn Đình Chiểu",
        "postal_code": "75308",
        "categories": [
            {
                "name": "Cửa hàng chuyên dụng"
            },
            {
                "name": "Siêu thị"
            },
            {
                "name": "Đại lý du lịch & Vé"
            }
        ]
    },
    {
        "name": "Tạp Hóa Trúc Ly",
        "latitude": 10.90577,
        "longitude": 106.78115,
        "address": "Tạp Hóa Trúc Ly, Đường Hai Bà Trưng, Phường Tân Đông Hiệp, Dĩ An, Bình Dương, Việt Nam",
        "country_code": "VNM",
        "country_name": "Việt Nam",
        "city": "Bình Dương",
        "district": "Dĩ An",
        "ward": "Phường Tân Đông Hiệp",
        "street": "Đường Hai Bà Trưng",
        "postal_code": "75311",
        "categories": [
            {
                "name": "Siêu thị"
            }
        ]
    },
    {
        "name": "Bach Hoa Xanh",
        "latitude": 10.89982,
        "longitude": 106.80126,
        "address": "Bach Hoa Xanh, TL.743, Phường Bình Thắng, Dĩ An, Bình Dương, Việt Nam",
        "country_code": "VNM",
        "country_name": "Việt Nam",
        "city": "Bình Dương",
        "district": "Dĩ An",
        "ward": "Phường Bình Thắng",
        "street": "TL.743",
        "postal_code": "75309",
        "categories": [
            {
                "name": "Siêu thị"
            }
        ]
    },
    {
        "name": "Tuyết Mai",
        "latitude": 10.92712,
        "longitude": 106.80575,
        "address": "Tuyết Mai, Đường Nguyễn Ái Quốc, Phường Hóa An, Biên Hòa, Đồng Nai, Việt Nam",
        "country_code": "VNM",
        "country_name": "Việt Nam",
        "city": "Đồng Nai",
        "district": "Biên Hòa",
        "ward": "Phường Hóa An",
        "street": "Đường Nguyễn Ái Quốc",
        "postal_code": "76123",
        "categories": [
            {
                "name": "Siêu thị"
            },
            {
                "name": "Cửa hàng tiện lợi"
            }
        ]
    },
    {
        "name": "Bách Hóa Xanh.Com",
        "latitude": 10.90716,
        "longitude": 106.77218,
        "address": "Bách Hóa Xanh.Com, Đường Cô Bắc, Phường Dĩ An, Dĩ An, Bình Dương, Việt Nam",
        "country_code": "VNM",
        "country_name": "Việt Nam",
        "city": "Bình Dương",
        "district": "Dĩ An",
        "ward": "Phường Dĩ An",
        "street": "Đường Cô Bắc",
        "postal_code": "75306",
        "categories": [
            {
                "name": "Siêu thị"
            }
        ]
    },
    {
        "name": "Cô Hằng",
        "latitude": 10.90232,
        "longitude": 106.77426,
        "address": "Cô Hằng, Đường Trần Hưng Đạo, Phường Đông Hòa, Dĩ An, Bình Dương, Việt Nam",
        "country_code": "VNM",
        "country_name": "Việt Nam",
        "city": "Bình Dương",
        "district": "Dĩ An",
        "ward": "Phường Đông Hòa",
        "street": "Đường Trần Hưng Đạo",
        "postal_code": "75308",
        "categories": [
            {
                "name": "Siêu thị"
            }
        ]
    },
    {
        "name": "Co-Op",
        "latitude": 10.90219,
        "longitude": 106.77434,
        "address": "Co-Op, Đường Trần Hưng Đạo, Phường Đông Hòa, Dĩ An, Bình Dương, Việt Nam",
        "country_code": "VNM",
        "country_name": "Việt Nam",
        "city": "Bình Dương",
        "district": "Dĩ An",
        "ward": "Phường Đông Hòa",
        "street": "Đường Trần Hưng Đạo",
        "postal_code": "75308",
        "categories": [
            {
                "name": "Cửa hàng chuyên dụng"
            },
            {
                "name": "Siêu thị"
            }
        ]
    },
    {
        "name": "Trung Thích",
        "latitude": 10.90208,
        "longitude": 106.77429,
        "address": "Trung Thích, Võ Thị Sáu, Phường Đông Hòa, Dĩ An, Bình Dương, Việt Nam",
        "country_code": "VNM",
        "country_name": "Việt Nam",
        "city": "Bình Dương",
        "district": "Dĩ An",
        "ward": "Phường Đông Hòa",
        "street": "Võ Thị Sáu",
        "postal_code": "75308",
        "categories": [
            {
                "name": "Siêu thị"
            },
            {
                "name": "Rượu bia"
            }
        ]
    },
    {
        "name": "Tạp Hóa Bà Hai",
        "latitude": 10.93458,
        "longitude": 106.79731,
        "address": "Tạp Hóa Bà Hai, Đường Hoàng Minh Chánh, Phường Hóa An, Biên Hòa, Đồng Nai, Việt Nam",
        "country_code": "VNM",
        "country_name": "Việt Nam",
        "city": "Đồng Nai",
        "district": "Biên Hòa",
        "ward": "Phường Hóa An",
        "street": "Đường Hoàng Minh Chánh",
        "postal_code": "76123",
        "categories": [
            {
                "name": "Siêu thị"
            },
            {
                "name": "Cửa hàng tiện lợi"
            }
        ]
    },
    {
        "name": "Bách Hóa Xanh",
        "latitude": 10.89923,
        "longitude": 106.80743,
        "address": "Bách Hóa Xanh, Đường Bình Thung, Phường Bình Thắng, Dĩ An, Bình Dương, Việt Nam",
        "country_code": "VNM",
        "country_name": "Việt Nam",
        "city": "Bình Dương",
        "district": "Dĩ An",
        "ward": "Phường Bình Thắng",
        "street": "Đường Bình Thung",
        "postal_code": "75309",
        "categories": [
            {
                "name": "Siêu thị"
            }
        ]
    },
    {
        "name": "VinEco",
        "latitude": 10.90738,
        "longitude": 106.77007,
        "address": "VinEco, Cô Bắc, Phường Dĩ An, Dĩ An, Bình Dương, Việt Nam",
        "country_code": "VNM",
        "country_name": "Việt Nam",
        "city": "Bình Dương",
        "district": "Dĩ An",
        "ward": "Phường Dĩ An",
        "street": "Cô Bắc",
        "postal_code": "75306",
        "categories": [
            {
                "name": "Siêu thị"
            }
        ]
    },
    {
        "name": "Cửa Hàng",
        "latitude": 10.93239,
        "longitude": 106.80513,
        "address": "Cửa Hàng, Đường Nguyễn Ái Quốc, Phường Hóa An, Biên Hòa, Đồng Nai, Việt Nam",
        "country_code": "VNM",
        "country_name": "Việt Nam",
        "city": "Đồng Nai",
        "district": "Biên Hòa",
        "ward": "Phường Hóa An",
        "street": "Đường Nguyễn Ái Quốc",
        "postal_code": "76123",
        "categories": [
            {
                "name": "Siêu thị"
            }
        ]
    },
    {
        "name": "WinMart-Dĩ An",
        "latitude": 10.90725,
        "longitude": 106.76989,
        "address": "WinMart-Dĩ An, Cô Bắc, Phường Dĩ An, Dĩ An, Bình Dương, Việt Nam",
        "country_code": "VNM",
        "country_name": "Việt Nam",
        "city": "Bình Dương",
        "district": "Dĩ An",
        "ward": "Phường Dĩ An",
        "street": "Cô Bắc",
        "postal_code": "75306",
        "categories": [
            {
                "name": "Siêu thị"
            },
            {
                "name": "Cửa hàng tiện lợi"
            }
        ]
    },
    {
        "name": "Tạp Hóa Minh Tâm",
        "latitude": 10.91379,
        "longitude": 106.7688,
        "address": "Tạp Hóa Minh Tâm, Đường Phan Bội Châu, Phường Dĩ An, Dĩ An, Bình Dương, Việt Nam",
        "country_code": "VNM",
        "country_name": "Việt Nam",
        "city": "Bình Dương",
        "district": "Dĩ An",
        "ward": "Phường Dĩ An",
        "street": "Đường Phan Bội Châu",
        "postal_code": "75306",
        "categories": [
            {
                "name": "Siêu thị"
            }
        ]
    },
    {
        "name": "Chợ Bình An",
        "latitude": 10.8987,
        "longitude": 106.8086,
        "address": "Chợ Bình An, TL.743, Phường Bình Thắng, Dĩ An, Bình Dương, Việt Nam",
        "country_code": "VNM",
        "country_name": "Việt Nam",
        "city": "Bình Dương",
        "district": "Dĩ An",
        "ward": "Phường Bình Thắng",
        "street": "TL.743",
        "postal_code": "75309",
        "categories": [
            {
                "name": "Siêu thị"
            },
            {
                "name": "Trung tâm mua sắm hoặc trung tâm thương mại"
            }
        ]
    },
    {
        "name": "Siêu Thị Vinatex - Dĩ An",
        "latitude": 10.90722,
        "longitude": 106.76922,
        "address": "Siêu Thị Vinatex - Dĩ An, Đường Cô Giang, Phường Dĩ An, Dĩ An, Bình Dương, Việt Nam",
        "country_code": "VNM",
        "country_name": "Việt Nam",
        "city": "Bình Dương",
        "district": "Dĩ An",
        "ward": "Phường Dĩ An",
        "street": "Đường Cô Giang",
        "postal_code": "75306",
        "categories": [
            {
                "name": "Siêu thị"
            }
        ]
    },
    {
        "name": "Phá Lấu Bò - Chợ Dĩ An",
        "latitude": 10.90714,
        "longitude": 106.76911,
        "address": "Phá Lấu Bò - Chợ Dĩ An, Đường Nguyễn An Ninh, Phường Dĩ An, Dĩ An, Bình Dương, Việt Nam",
        "country_code": "VNM",
        "country_name": "Việt Nam",
        "city": "Bình Dương",
        "district": "Dĩ An",
        "ward": "Phường Dĩ An",
        "street": "Đường Nguyễn An Ninh",
        "postal_code": "75306",
        "categories": [
            {
                "name": "Siêu thị"
            },
            {
                "name": "Nhà hàng"
            }
        ]
    },
    {
        "name": "Siêu Thị Lucky World",
        "latitude": 10.93506,
        "longitude": 106.80352,
        "address": "Siêu Thị Lucky World, Đường Hoàng Minh Chánh, Phường Hóa An, Biên Hòa, Đồng Nai, Việt Nam",
        "country_code": "VNM",
        "country_name": "Việt Nam",
        "city": "Đồng Nai",
        "district": "Biên Hòa",
        "ward": "Phường Hóa An",
        "street": "Đường Hoàng Minh Chánh",
        "postal_code": "76123",
        "categories": [
            {
                "name": "Siêu thị"
            }
        ]
    },
    {
        "name": "Bách Hóa Xanh.com",
        "latitude": 10.93558,
        "longitude": 106.80325,
        "address": "Bách Hóa Xanh.com, 156 Đường Hoàng Minh Chánh, Phường Hóa An, Biên Hòa, Đồng Nai, Việt Nam",
        "country_code": "VNM",
        "country_name": "Việt Nam",
        "city": "Đồng Nai",
        "district": "Biên Hòa",
        "ward": "Phường Hóa An",
        "street": "Đường Hoàng Minh Chánh",
        "postal_code": "76123",
        "categories": [
            {
                "name": "Siêu thị"
            }
        ]
    },
    {
        "name": "Chợ Đông Hòa",
        "latitude": 10.89052,
        "longitude": 106.78577,
        "address": "Chợ Đông Hòa, QL.1K, Phường Đông Hòa, Dĩ An, Bình Dương, Việt Nam",
        "country_code": "VNM",
        "country_name": "Việt Nam",
        "city": "Bình Dương",
        "district": "Dĩ An",
        "ward": "Phường Đông Hòa",
        "street": "QL.1K",
        "postal_code": "75308",
        "categories": [
            {
                "name": "Siêu thị"
            },
            {
                "name": "Chợ"
            }
        ]
    },
    {
        "name": "Bách Hóa Xanh",
        "latitude": 10.89055,
        "longitude": 106.78501,
        "address": "Bách Hóa Xanh, Đường Tân Hòa, Phường Đông Hòa, Dĩ An, Bình Dương, Việt Nam",
        "country_code": "VNM",
        "country_name": "Việt Nam",
        "city": "Bình Dương",
        "district": "Dĩ An",
        "ward": "Phường Đông Hòa",
        "street": "Đường Tân Hòa",
        "postal_code": "75308",
        "categories": [
            {
                "name": "Siêu thị"
            }
        ]
    },
    {
        "name": "Chợ Hóa An",
        "latitude": 10.93607,
        "longitude": 106.80435,
        "address": "Chợ Hóa An, Đường Hoàng Minh Chánh, Phường Hóa An, Biên Hòa, Đồng Nai, Việt Nam",
        "country_code": "VNM",
        "country_name": "Việt Nam",
        "city": "Đồng Nai",
        "district": "Biên Hòa",
        "ward": "Phường Hóa An",
        "street": "Đường Hoàng Minh Chánh",
        "postal_code": "76123",
        "categories": [
            {
                "name": "Siêu thị"
            },
            {
                "name": "Trung tâm mua sắm hoặc trung tâm thương mại"
            }
        ]
    },
    {
        "name": "Winmart-Dĩ An 2",
        "latitude": 10.89871,
        "longitude": 106.77101,
        "address": "Winmart-Dĩ An 2, Đường Trần Quốc Toản, Phường Đông Hòa, Dĩ An, Bình Dương, Việt Nam",
        "country_code": "VNM",
        "country_name": "Việt Nam",
        "city": "Bình Dương",
        "district": "Dĩ An",
        "ward": "Phường Đông Hòa",
        "street": "Đường Trần Quốc Toản",
        "postal_code": "75308",
        "categories": [
            {
                "name": "Siêu thị"
            }
        ]
    },
    {
        "name": "Hung Phuong Mart",
        "latitude": 10.90201,
        "longitude": 106.768,
        "address": "Hung Phuong Mart, Đường Nguyễn An Ninh, Phường Dĩ An, Dĩ An, Bình Dương, Việt Nam",
        "country_code": "VNM",
        "country_name": "Việt Nam",
        "city": "Bình Dương",
        "district": "Dĩ An",
        "ward": "Phường Dĩ An",
        "street": "Đường Nguyễn An Ninh",
        "postal_code": "75306",
        "categories": [
            {
                "name": "Siêu thị"
            }
        ]
    },
    {
        "name": "Cửa Hàng Thực Phẩm Tiện Lợi LTH Food Mart",
        "latitude": 10.93291,
        "longitude": 106.77218,
        "address": "Cửa Hàng Thực Phẩm Tiện Lợi LTH Food Mart, Đường Huỳnh Thị Tươi, Phường Tân Bình, Dĩ An, Bình Dương, Việt Nam",
        "country_code": "VNM",
        "country_name": "Việt Nam",
        "city": "Bình Dương",
        "district": "Dĩ An",
        "ward": "Phường Tân Bình",
        "street": "Đường Huỳnh Thị Tươi",
        "postal_code": "75312",
        "categories": [
            {
                "name": "Siêu thị"
            },
            {
                "name": "Đặc sản & Đồ uống"
            }
        ]
    },
    {
        "name": "Thực Phẩm Chay Hồng Phúc",
        "latitude": 10.88951,
        "longitude": 106.77997,
        "address": "Thực Phẩm Chay Hồng Phúc, 1K, Phường Đông Hòa, Dĩ An, Bình Dương, Việt Nam",
        "country_code": "VNM",
        "country_name": "Việt Nam",
        "city": "Bình Dương",
        "district": "Dĩ An",
        "ward": "Phường Đông Hòa",
        "street": "1K",
        "postal_code": "75308",
        "categories": [
            {
                "name": "Siêu thị"
            }
        ]
    },
    {
        "name": "Cửa Hàng Việt Bảo Anh",
        "latitude": 10.93908,
        "longitude": 106.80404,
        "address": "Cửa Hàng Việt Bảo Anh, Đường Nguyễn Ái Quốc, Phường Hóa An, Biên Hòa, Đồng Nai, Việt Nam",
        "country_code": "VNM",
        "country_name": "Việt Nam",
        "city": "Đồng Nai",
        "district": "Biên Hòa",
        "ward": "Phường Hóa An",
        "street": "Đường Nguyễn Ái Quốc",
        "postal_code": "76123",
        "categories": [
            {
                "name": "Siêu thị"
            }
        ]
    },
    {
        "name": "Winmart Plus",
        "latitude": 10.92794,
        "longitude": 106.81625,
        "address": "Winmart Plus, Hẻm 198 Nguyễn Tri Phương, Phường Bửu Hòa, Biên Hòa, Đồng Nai, Việt Nam",
        "country_code": "VNM",
        "country_name": "Việt Nam",
        "city": "Đồng Nai",
        "district": "Biên Hòa",
        "ward": "Phường Bửu Hòa",
        "street": "Hẻm 198 Nguyễn Tri Phương",
        "postal_code": "76125",
        "categories": [
            {
                "name": "Siêu thị"
            }
        ]
    },
    {
        "name": "Cửa Hàng Bách Hóa Tổng Hợp Mai Thảo",
        "latitude": 10.93807,
        "longitude": 106.8067,
        "address": "Cửa Hàng Bách Hóa Tổng Hợp Mai Thảo, 19 Đường Hoàng Minh Chánh, Phường Hóa An, Biên Hòa, Đồng Nai, Việt Nam",
        "country_code": "VNM",
        "country_name": "Việt Nam",
        "city": "Đồng Nai",
        "district": "Biên Hòa",
        "ward": "Phường Hóa An",
        "street": "Đường Hoàng Minh Chánh",
        "postal_code": "76123",
        "categories": [
            {
                "name": "Siêu thị"
            },
            {
                "name": "Cửa hàng tiện lợi"
            }
        ]
    },
    {
        "name": "Go! Dĩ An",
        "latitude": 10.88899,
        "longitude": 106.77686,
        "address": "Go! Dĩ An, Đường GS 14, Phường Đông Hòa, Dĩ An, Bình Dương, Việt Nam",
        "country_code": "VNM",
        "country_name": "Việt Nam",
        "city": "Bình Dương",
        "district": "Dĩ An",
        "ward": "Phường Đông Hòa",
        "street": "Đường GS 14",
        "postal_code": "75308",
        "categories": [
            {
                "name": "Siêu thị"
            }
        ]
    },
    {
        "name": "Chợ Tân Quí",
        "latitude": 10.88832,
        "longitude": 106.7781,
        "address": "Chợ Tân Quí, Đường Trịnh Hoài Đức, Phường Đông Hòa, Dĩ An, Bình Dương, Việt Nam",
        "country_code": "VNM",
        "country_name": "Việt Nam",
        "city": "Bình Dương",
        "district": "Dĩ An",
        "ward": "Phường Đông Hòa",
        "street": "Đường Trịnh Hoài Đức",
        "postal_code": "75308",
        "categories": [
            {
                "name": "Siêu thị"
            }
        ]
    },
    {
        "name": "Pork Shop Cp",
        "latitude": 10.93573,
        "longitude": 106.81178,
        "address": "Pork Shop Cp, Đường Nguyễn Thị Tồn, Phường Bửu Hòa, Biên Hòa, Đồng Nai, Việt Nam",
        "country_code": "VNM",
        "country_name": "Việt Nam",
        "city": "Đồng Nai",
        "district": "Biên Hòa",
        "ward": "Phường Bửu Hòa",
        "street": "Đường Nguyễn Thị Tồn",
        "postal_code": "76125",
        "categories": [
            {
                "name": "Siêu thị"
            }
        ]
    },
    {
        "name": "Cầy Tơ Việt Đức",
        "latitude": 10.88848,
        "longitude": 106.77687,
        "address": "Cầy Tơ Việt Đức, Xa Lộ Hà Nội, Phường Đông Hòa, Dĩ An, Bình Dương, Việt Nam",
        "country_code": "VNM",
        "country_name": "Việt Nam",
        "city": "Bình Dương",
        "district": "Dĩ An",
        "ward": "Phường Đông Hòa",
        "street": "Xa Lộ Hà Nội",
        "postal_code": "75308",
        "categories": [
            {
                "name": "Siêu thị"
            }
        ]
    },
    {
        "name": "Go Dĩ An",
        "latitude": 10.88915,
        "longitude": 106.77551,
        "address": "Go Dĩ An, Đường GS 4, Phường Đông Hòa, Dĩ An, Bình Dương, Việt Nam",
        "country_code": "VNM",
        "country_name": "Việt Nam",
        "city": "Bình Dương",
        "district": "Dĩ An",
        "ward": "Phường Đông Hòa",
        "street": "Đường GS 4",
        "postal_code": "75308",
        "categories": [
            {
                "name": "Siêu thị"
            }
        ]
    },
    {
        "name": "Bách Hóa XANH.com",
        "latitude": 10.92899,
        "longitude": 106.81901,
        "address": "Bách Hóa XANH.com, Hẻm 643/34 Bùi Hữu Nghĩa, Phường Bửu Hòa, Biên Hòa, Đồng Nai, Việt Nam",
        "country_code": "VNM",
        "country_name": "Việt Nam",
        "city": "Đồng Nai",
        "district": "Biên Hòa",
        "ward": "Phường Bửu Hòa",
        "street": "Hẻm 643/34 Bùi Hữu Nghĩa",
        "postal_code": "76125",
        "categories": [
            {
                "name": "Siêu thị"
            }
        ]
    },
    {
        "name": "Bách Hóa XANH.com",
        "latitude": 10.91129,
        "longitude": 106.76061,
        "address": "Bách Hóa XANH.com, ĐT.743, Phường Tân Đông Hiệp, Dĩ An, Bình Dương, Việt Nam",
        "country_code": "VNM",
        "country_name": "Việt Nam",
        "city": "Bình Dương",
        "district": "Dĩ An",
        "ward": "Phường Tân Đông Hiệp",
        "street": "ĐT.743",
        "postal_code": "75311",
        "categories": [
            {
                "name": "Siêu thị"
            }
        ]
    },
    {
        "name": "Vựa Hải Sản Trung Đăng",
        "latitude": 10.9347,
        "longitude": 106.8157,
        "address": "Vựa Hải Sản Trung Đăng, Hẻm 777 Bùi Hữu Nghĩa, Phường Bửu Hòa, Biên Hòa, Đồng Nai, Việt Nam",
        "country_code": "VNM",
        "country_name": "Việt Nam",
        "city": "Đồng Nai",
        "district": "Biên Hòa",
        "ward": "Phường Bửu Hòa",
        "street": "Hẻm 777 Bùi Hữu Nghĩa",
        "postal_code": "76125",
        "categories": [
            {
                "name": "Siêu thị"
            }
        ]
    },
    {
        "name": "Cty TNHH DV-TV Bảo Anh",
        "latitude": 10.93365,
        "longitude": 106.81704,
        "address": "Cty TNHH DV-TV Bảo Anh, 751 Đường Bùi Hữu Nghĩa, Phường Bửu Hòa, Biên Hòa, Đồng Nai, Việt Nam",
        "country_code": "VNM",
        "country_name": "Việt Nam",
        "city": "Đồng Nai",
        "district": "Biên Hòa",
        "ward": "Phường Bửu Hòa",
        "street": "Đường Bùi Hữu Nghĩa",
        "postal_code": "76125",
        "categories": [
            {
                "name": "Siêu thị"
            }
        ]
    },
    {
        "name": "Bách Hóa Xanh",
        "latitude": 10.93826,
        "longitude": 106.81261,
        "address": "Bách Hóa Xanh, Đường Bùi Hữu Nghĩa, Phường Hóa An, Biên Hòa, Đồng Nai, Việt Nam",
        "country_code": "VNM",
        "country_name": "Việt Nam",
        "city": "Đồng Nai",
        "district": "Biên Hòa",
        "ward": "Phường Hóa An",
        "street": "Đường Bùi Hữu Nghĩa",
        "postal_code": "76123",
        "categories": [
            {
                "name": "Siêu thị"
            }
        ]
    },
    {
        "name": "Vựa Gà Thả Vườn Thuận Lợi",
        "latitude": 10.90072,
        "longitude": 106.76219,
        "address": "Vựa Gà Thả Vườn Thuận Lợi, Đường Số 7, Phường Dĩ An, Dĩ An, Bình Dương, Việt Nam",
        "country_code": "VNM",
        "country_name": "Việt Nam",
        "city": "Bình Dương",
        "district": "Dĩ An",
        "ward": "Phường Dĩ An",
        "street": "Đường Số 7",
        "postal_code": "75306",
        "categories": [
            {
                "name": "Siêu thị"
            }
        ]
    },
    {
        "name": "Chợ Bửu Hòa",
        "latitude": 10.92877,
        "longitude": 106.82093,
        "address": "Chợ Bửu Hòa, Đường Nguyễn Tri Phương, Phường Bửu Hòa, Biên Hòa, Đồng Nai, Việt Nam",
        "country_code": "VNM",
        "country_name": "Việt Nam",
        "city": "Đồng Nai",
        "district": "Biên Hòa",
        "ward": "Phường Bửu Hòa",
        "street": "Đường Nguyễn Tri Phương",
        "postal_code": "76125",
        "categories": [
            {
                "name": "Đặc sản & Đồ uống"
            },
            {
                "name": "Chợ/Gian hàng ẩm thực"
            },
            {
                "name": "Cửa hàng tiện lợi"
            },
            {
                "name": "Trung tâm mua sắm hoặc trung tâm thương mại"
            },
            {
                "name": "Siêu thị"
            }
        ]
    },
    {
        "name": "Coopfood",
        "latitude": 10.90122,
        "longitude": 106.76151,
        "address": "Coopfood, Đường Số 7, Phường Dĩ An, Dĩ An, Bình Dương, Việt Nam",
        "country_code": "VNM",
        "country_name": "Việt Nam",
        "city": "Bình Dương",
        "district": "Dĩ An",
        "ward": "Phường Dĩ An",
        "street": "Đường Số 7",
        "postal_code": "75306",
        "categories": [
            {
                "name": "Siêu thị"
            }
        ]
    },
    {
        "name": "Bách Hóa Xanh",
        "latitude": 10.90167,
        "longitude": 106.76128,
        "address": "Bách Hóa Xanh, Đường Số 7, Phường Dĩ An, Dĩ An, Bình Dương, Việt Nam",
        "country_code": "VNM",
        "country_name": "Việt Nam",
        "city": "Bình Dương",
        "district": "Dĩ An",
        "ward": "Phường Dĩ An",
        "street": "Đường Số 7",
        "postal_code": "75306",
        "categories": [
            {
                "name": "Siêu thị"
            }
        ]
    },
    {
        "name": "Bách Hóa Xanh",
        "latitude": 10.8977,
        "longitude": 106.7632,
        "address": "Bách Hóa Xanh, Đường Ngô Thì Nhậm, Phường Dĩ An, Dĩ An, Bình Dương, Việt Nam",
        "country_code": "VNM",
        "country_name": "Việt Nam",
        "city": "Bình Dương",
        "district": "Dĩ An",
        "ward": "Phường Dĩ An",
        "street": "Đường Ngô Thì Nhậm",
        "postal_code": "75306",
        "categories": [
            {
                "name": "Siêu thị"
            }
        ]
    },
    {
        "name": "Cửa Hàng Thực Phẩm Trúc Lâm",
        "latitude": 10.92187,
        "longitude": 106.82402,
        "address": "Cửa Hàng Thực Phẩm Trúc Lâm, Đường Bùi Hữu Nghĩa, Phường Bửu Hòa, Biên Hòa, Đồng Nai, Việt Nam",
        "country_code": "VNM",
        "country_name": "Việt Nam",
        "city": "Đồng Nai",
        "district": "Biên Hòa",
        "ward": "Phường Bửu Hòa",
        "street": "Đường Bùi Hữu Nghĩa",
        "postal_code": "76125",
        "categories": [
            {
                "name": "Siêu thị"
            }
        ]
    },
    {
        "name": "Đức Trung",
        "latitude": 10.92817,
        "longitude": 106.76103,
        "address": "Đức Trung, Đường Nguyễn Thị Minh Khai, Phường Tân Bình, Dĩ An, Bình Dương, Việt Nam",
        "country_code": "VNM",
        "country_name": "Việt Nam",
        "city": "Bình Dương",
        "district": "Dĩ An",
        "ward": "Phường Tân Bình",
        "street": "Đường Nguyễn Thị Minh Khai",
        "postal_code": "75312",
        "categories": [
            {
                "name": "Siêu thị"
            }
        ]
    },
    {
        "name": "Bach Hoa Xanh",
        "latitude": 10.94028,
        "longitude": 106.76925,
        "address": "Bach Hoa Xanh, Đường Nguyễn Thị Minh Khai, Phường Tân Bình, Dĩ An, Bình Dương, Việt Nam",
        "country_code": "VNM",
        "country_name": "Việt Nam",
        "city": "Bình Dương",
        "district": "Dĩ An",
        "ward": "Phường Tân Bình",
        "street": "Đường Nguyễn Thị Minh Khai",
        "postal_code": "75312",
        "categories": [
            {
                "name": "Siêu thị"
            }
        ]
    },
    {
        "name": "Thực Phẩm Xanh",
        "latitude": 10.88543,
        "longitude": 106.77257,
        "address": "Thực Phẩm Xanh, 254 Xa Lộ Hà Nội, Phường Linh Xuân, Thủ Đức, Hồ Chí Minh, Việt Nam",
        "country_code": "VNM",
        "country_name": "Việt Nam",
        "city": "Hồ Chí Minh",
        "district": "Thủ Đức",
        "ward": "Phường Linh Xuân",
        "street": "Xa Lộ Hà Nội",
        "postal_code": "71309",
        "categories": [
            {
                "name": "Doanh nghiệp"
            },
            {
                "name": "Siêu thị"
            }
        ]
    },
    {
        "name": "Bách Hóa Xanh",
        "latitude": 10.91353,
        "longitude": 106.75667,
        "address": "Bách Hóa Xanh, Đường Đoàn Thị Kia, Phường Tân Đông Hiệp, Dĩ An, Bình Dương, Việt Nam",
        "country_code": "VNM",
        "country_name": "Việt Nam",
        "city": "Bình Dương",
        "district": "Dĩ An",
        "ward": "Phường Tân Đông Hiệp",
        "street": "Đường Đoàn Thị Kia",
        "postal_code": "75311",
        "categories": [
            {
                "name": "Siêu thị"
            }
        ]
    },
    {
        "name": "Chợ Tân Vạn tạm",
        "latitude": 10.9111,
        "longitude": 106.82748,
        "address": "Chợ Tân Vạn tạm, Hẻm 183 Bùi Hữu Nghĩa, Phường Tân Vạn, Biên Hòa, Đồng Nai, Việt Nam",
        "country_code": "VNM",
        "country_name": "Việt Nam",
        "city": "Đồng Nai",
        "district": "Biên Hòa",
        "ward": "Phường Tân Vạn",
        "street": "Hẻm 183 Bùi Hữu Nghĩa",
        "postal_code": "76124",
        "categories": [
            {
                "name": "Siêu thị"
            }
        ]
    },
    {
        "name": "Siêu thị Cù lao Tân Vạn ST 58",
        "latitude": 10.9111,
        "longitude": 106.82748,
        "address": "Siêu thị Cù lao Tân Vạn ST 58, Hẻm 183 Bùi Hữu Nghĩa, Phường Tân Vạn, Biên Hòa, Đồng Nai, Việt Nam",
        "country_code": "VNM",
        "country_name": "Việt Nam",
        "city": "Đồng Nai",
        "district": "Biên Hòa",
        "ward": "Phường Tân Vạn",
        "street": "Hẻm 183 Bùi Hữu Nghĩa",
        "postal_code": "76124",
        "categories": [
            {
                "name": "Siêu thị"
            }
        ]
    },
    {
        "name": "Tạp Hóa Xanh Đỗ Gia",
        "latitude": 10.91495,
        "longitude": 106.75559,
        "address": "Tạp Hóa Xanh Đỗ Gia, Đường Đoàn Thị Kia, Phường Tân Đông Hiệp, Dĩ An, Bình Dương, Việt Nam",
        "country_code": "VNM",
        "country_name": "Việt Nam",
        "city": "Bình Dương",
        "district": "Dĩ An",
        "ward": "Phường Tân Đông Hiệp",
        "street": "Đường Đoàn Thị Kia",
        "postal_code": "75311",
        "categories": [
            {
                "name": "Siêu thị"
            }
        ]
    },
    {
        "name": "Bách Hóa Xanh",
        "latitude": 10.90448,
        "longitude": 106.75654,
        "address": "Bách Hóa Xanh, 117 Đường Nguyễn Trãi, Phường Dĩ An, Dĩ An, Bình Dương, Việt Nam",
        "country_code": "VNM",
        "country_name": "Việt Nam",
        "city": "Bình Dương",
        "district": "Dĩ An",
        "ward": "Phường Dĩ An",
        "street": "Đường Nguyễn Trãi",
        "postal_code": "75306",
        "categories": [
            {
                "name": "Siêu thị"
            }
        ]
    },
    {
        "name": "Chợ Tân Bình",
        "latitude": 10.94003,
        "longitude": 106.76536,
        "address": "Chợ Tân Bình, Đường Bùi Thị Xuân, Phường Tân Bình, Dĩ An, Bình Dương, Việt Nam",
        "country_code": "VNM",
        "country_name": "Việt Nam",
        "city": "Bình Dương",
        "district": "Dĩ An",
        "ward": "Phường Tân Bình",
        "street": "Đường Bùi Thị Xuân",
        "postal_code": "75312",
        "categories": [
            {
                "name": "Siêu thị"
            }
        ]
    },
    {
        "name": "Bách Hóa Xanh",
        "latitude": 10.88564,
        "longitude": 106.76811,
        "address": "Bách Hóa Xanh, 100M Đường Số 11, Phường Linh Xuân, Thủ Đức, Hồ Chí Minh, Việt Nam",
        "country_code": "VNM",
        "country_name": "Việt Nam",
        "city": "Hồ Chí Minh",
        "district": "Thủ Đức",
        "ward": "Phường Linh Xuân",
        "street": "Đường Số 11",
        "postal_code": "71309",
        "categories": [
            {
                "name": "Siêu thị"
            }
        ]
    },
    {
        "name": "Co-Op",
        "latitude": 10.90371,
        "longitude": 106.75583,
        "address": "Co-Op, Đường Nguyễn Trãi, Phường Dĩ An, Dĩ An, Bình Dương, Việt Nam",
        "country_code": "VNM",
        "country_name": "Việt Nam",
        "city": "Bình Dương",
        "district": "Dĩ An",
        "ward": "Phường Dĩ An",
        "street": "Đường Nguyễn Trãi",
        "postal_code": "75306",
        "categories": [
            {
                "name": "Siêu thị"
            },
            {
                "name": "Cửa hàng điện tử gia dụng"
            }
        ]
    },
    {
        "name": "Bách hóa Xanh.com",
        "latitude": 10.92887,
        "longitude": 106.75723,
        "address": "Bách hóa Xanh.com, 665 Đường Lê Hồng Phong, Phường Tân Đông Hiệp, Dĩ An, Bình Dương, Việt Nam",
        "country_code": "VNM",
        "country_name": "Việt Nam",
        "city": "Bình Dương",
        "district": "Dĩ An",
        "ward": "Phường Tân Đông Hiệp",
        "street": "Đường Lê Hồng Phong",
        "postal_code": "75311",
        "categories": [
            {
                "name": "Siêu thị"
            }
        ]
    },
    {
        "name": "Tạp Hoá-Bán Đồ Bắc",
        "latitude": 10.90579,
        "longitude": 106.75497,
        "address": "Tạp Hoá-Bán Đồ Bắc, Đường Số 3, Phường Dĩ An, Dĩ An, Bình Dương, Việt Nam",
        "country_code": "VNM",
        "country_name": "Việt Nam",
        "city": "Bình Dương",
        "district": "Dĩ An",
        "ward": "Phường Dĩ An",
        "street": "Đường Số 3",
        "postal_code": "75306",
        "categories": [
            {
                "name": "Siêu thị"
            }
        ]
    },
    {
        "name": "Thực Phẩm Chay Hồng Phúc",
        "latitude": 10.88302,
        "longitude": 106.77027,
        "address": "Thực Phẩm Chay Hồng Phúc, 179 Xa Lộ Hà Nội, Phường Linh Xuân, Thủ Đức, Hồ Chí Minh, Việt Nam",
        "country_code": "VNM",
        "country_name": "Việt Nam",
        "city": "Hồ Chí Minh",
        "district": "Thủ Đức",
        "ward": "Phường Linh Xuân",
        "street": "Xa Lộ Hà Nội",
        "postal_code": "71309",
        "categories": [
            {
                "name": "Siêu thị"
            }
        ]
    },
    {
        "name": "Công Ty Cổ Phần Saigon Food",
        "latitude": 10.88289,
        "longitude": 106.77029,
        "address": "Công Ty Cổ Phần Saigon Food, 216 Xa Lộ Hà Nội, Phường Linh Xuân, Thủ Đức, Hồ Chí Minh, Việt Nam",
        "country_code": "VNM",
        "country_name": "Việt Nam",
        "city": "Hồ Chí Minh",
        "district": "Thủ Đức",
        "ward": "Phường Linh Xuân",
        "street": "Xa Lộ Hà Nội",
        "postal_code": "71309",
        "categories": [
            {
                "name": "Doanh nghiệp"
            },
            {
                "name": "Siêu thị"
            }
        ]
    },
    {
        "name": "Ngọc Ánh",
        "latitude": 10.88007,
        "longitude": 106.77409,
        "address": "Ngọc Ánh, 57 Đường Số 8, Phường Linh Xuân, Thủ Đức, Hồ Chí Minh, Việt Nam",
        "country_code": "VNM",
        "country_name": "Việt Nam",
        "city": "Hồ Chí Minh",
        "district": "Thủ Đức",
        "ward": "Phường Linh Xuân",
        "street": "Đường Số 8",
        "postal_code": "71309",
        "categories": [
            {
                "name": "Siêu thị"
            }
        ]
    },
    {
        "name": "Bách Hóa Xanh",
        "latitude": 10.88,
        "longitude": 106.77408,
        "address": "Bách Hóa Xanh, Đường Số 8, Phường Linh Xuân, Thủ Đức, Hồ Chí Minh, Việt Nam",
        "country_code": "VNM",
        "country_name": "Việt Nam",
        "city": "Hồ Chí Minh",
        "district": "Thủ Đức",
        "ward": "Phường Linh Xuân",
        "street": "Đường Số 8",
        "postal_code": "71309",
        "categories": [
            {
                "name": "Siêu thị"
            }
        ]
    },
    {
        "name": "Diamond Star",
        "latitude": 10.88146,
        "longitude": 106.77134,
        "address": "Diamond Star, 28 Đường Số 8, Phường Linh Xuân, Thủ Đức, Hồ Chí Minh, Việt Nam",
        "country_code": "VNM",
        "country_name": "Việt Nam",
        "city": "Hồ Chí Minh",
        "district": "Thủ Đức",
        "ward": "Phường Linh Xuân",
        "street": "Đường Số 8",
        "postal_code": "71309",
        "categories": [
            {
                "name": "Siêu thị"
            }
        ]
    },
    {
        "name": "Vân",
        "latitude": 10.88183,
        "longitude": 106.77069,
        "address": "Vân, Đường Số 8, Phường Linh Xuân, Thủ Đức, Hồ Chí Minh, Việt Nam",
        "country_code": "VNM",
        "country_name": "Việt Nam",
        "city": "Hồ Chí Minh",
        "district": "Thủ Đức",
        "ward": "Phường Linh Xuân",
        "street": "Đường Số 8",
        "postal_code": "71309",
        "categories": [
            {
                "name": "Siêu thị"
            }
        ]
    },
    {
        "name": "Coop Food",
        "latitude": 10.88003,
        "longitude": 106.7738,
        "address": "Coop Food, Đường Số 8, Phường Linh Xuân, Thủ Đức, Hồ Chí Minh, Việt Nam",
        "country_code": "VNM",
        "country_name": "Việt Nam",
        "city": "Hồ Chí Minh",
        "district": "Thủ Đức",
        "ward": "Phường Linh Xuân",
        "street": "Đường Số 8",
        "postal_code": "71309",
        "categories": [
            {
                "name": "Siêu thị"
            }
        ]
    },
    {
        "name": "Cơ Sở Mê Kông",
        "latitude": 10.87878,
        "longitude": 106.77604,
        "address": "Cơ Sở Mê Kông, Đường Số 8, Phường Linh Xuân, Thủ Đức, Hồ Chí Minh, Việt Nam",
        "country_code": "VNM",
        "country_name": "Việt Nam",
        "city": "Hồ Chí Minh",
        "district": "Thủ Đức",
        "ward": "Phường Linh Xuân",
        "street": "Đường Số 8",
        "postal_code": "71309",
        "categories": [
            {
                "name": "Siêu thị"
            }
        ]
    },
    {
        "name": "Nguyên Tạp Hóa Gạo",
        "latitude": 10.91675,
        "longitude": 106.75253,
        "address": "Nguyên Tạp Hóa Gạo, Đường Nguyễn Thị Minh Khai, Phường Tân Đông Hiệp, Dĩ An, Bình Dương, Việt Nam",
        "country_code": "VNM",
        "country_name": "Việt Nam",
        "city": "Bình Dương",
        "district": "Dĩ An",
        "ward": "Phường Tân Đông Hiệp",
        "street": "Đường Nguyễn Thị Minh Khai",
        "postal_code": "75311",
        "categories": [
            {
                "name": "Siêu thị"
            }
        ]
    },
    {
        "name": "Cp",
        "latitude": 10.94645,
        "longitude": 106.81342,
        "address": "Cp, 32 Đường Nguyễn Văn Trị, Phường Hòa Bình, Biên Hòa, Đồng Nai, Việt Nam",
        "country_code": "VNM",
        "country_name": "Việt Nam",
        "city": "Đồng Nai",
        "district": "Biên Hòa",
        "ward": "Phường Hòa Bình",
        "street": "Đường Nguyễn Văn Trị",
        "postal_code": "76122",
        "categories": [
            {
                "name": "Siêu thị"
            }
        ]
    },
    {
        "name": "Chợ Biên Hòa",
        "latitude": 10.9464,
        "longitude": 106.81361,
        "address": "Chợ Biên Hòa, Đường Nguyễn Văn Trị, Phường Hòa Bình, Biên Hòa, Đồng Nai, Việt Nam",
        "country_code": "VNM",
        "country_name": "Việt Nam",
        "city": "Đồng Nai",
        "district": "Biên Hòa",
        "ward": "Phường Hòa Bình",
        "street": "Đường Nguyễn Văn Trị",
        "postal_code": "76122",
        "categories": [
            {
                "name": "Siêu thị"
            },
            {
                "name": "Nhà hàng"
            },
            {
                "name": "Trung tâm mua sắm hoặc trung tâm thương mại"
            },
            {
                "name": "Hiệu bánh"
            },
            {
                "name": "Hàng tiêu dùng"
            },
            {
                "name": "Chợ"
            },
            {
                "name": "Dịch vụ thương mại nhà hàng"
            }
        ]
    },
    {
        "name": "Bách Hóa Xanh.Com",
        "latitude": 10.91835,
        "longitude": 106.75234,
        "address": "Bách Hóa Xanh.Com, Đường Nguyễn Thị Minh Khai, Phường Tân Đông Hiệp, Dĩ An, Bình Dương, Việt Nam",
        "country_code": "VNM",
        "country_name": "Việt Nam",
        "city": "Bình Dương",
        "district": "Dĩ An",
        "ward": "Phường Tân Đông Hiệp",
        "street": "Đường Nguyễn Thị Minh Khai",
        "postal_code": "75311",
        "categories": [
            {
                "name": "Siêu thị"
            }
        ]
    },
    {
        "name": "Bách Hoá Xanh",
        "latitude": 10.90794,
        "longitude": 106.75233,
        "address": "Bách Hoá Xanh, 377 Đường Lý Thường Kiệt, Phường Dĩ An, Dĩ An, Bình Dương, Việt Nam",
        "country_code": "VNM",
        "country_name": "Việt Nam",
        "city": "Bình Dương",
        "district": "Dĩ An",
        "ward": "Phường Dĩ An",
        "street": "Đường Lý Thường Kiệt",
        "postal_code": "75306",
        "categories": [
            {
                "name": "Siêu thị"
            }
        ]
    },
    {
        "name": "Kim Cúc",
        "latitude": 10.94741,
        "longitude": 106.81279,
        "address": "Kim Cúc, Đường Hoàng Minh Châu, Phường Hòa Bình, Biên Hòa, Đồng Nai, Việt Nam",
        "country_code": "VNM",
        "country_name": "Việt Nam",
        "city": "Đồng Nai",
        "district": "Biên Hòa",
        "ward": "Phường Hòa Bình",
        "street": "Đường Hoàng Minh Châu",
        "postal_code": "76122",
        "categories": [
            {
                "name": "Siêu thị"
            },
            {
                "name": "Cửa hàng bán đồ gia dụng/Nội thất"
            },
            {
                "name": "Dịch vụ kinh doanh"
            }
        ]
    },
    {
        "name": "Tiệm Tôm Khô Nga",
        "latitude": 10.94615,
        "longitude": 106.81482,
        "address": "Tiệm Tôm Khô Nga, Đường Lê Thánh Tôn, Phường Thanh Bình, Biên Hòa, Đồng Nai, Việt Nam",
        "country_code": "VNM",
        "country_name": "Việt Nam",
        "city": "Đồng Nai",
        "district": "Biên Hòa",
        "ward": "Phường Thanh Bình",
        "street": "Đường Lê Thánh Tôn",
        "postal_code": "76106",
        "categories": [
            {
                "name": "Siêu thị"
            },
            {
                "name": "Cửa hàng chuyên dụng"
            }
        ]
    },
    {
        "name": "BQL Chợ Biên Hòa",
        "latitude": 10.94649,
        "longitude": 106.81444,
        "address": "BQL Chợ Biên Hòa, Đường Lý Thường Kiệt, Phường Thanh Bình, Biên Hòa, Đồng Nai, Việt Nam",
        "country_code": "VNM",
        "country_name": "Việt Nam",
        "city": "Đồng Nai",
        "district": "Biên Hòa",
        "ward": "Phường Thanh Bình",
        "street": "Đường Lý Thường Kiệt",
        "postal_code": "76106",
        "categories": [
            {
                "name": "Siêu thị"
            }
        ]
    },
    {
        "name": "Vựa Trái Cây Hà Hảo",
        "latitude": 10.87948,
        "longitude": 106.77252,
        "address": "Vựa Trái Cây Hà Hảo, Đường Số 6, Phường Linh Xuân, Thủ Đức, Hồ Chí Minh, Việt Nam",
        "country_code": "VNM",
        "country_name": "Việt Nam",
        "city": "Hồ Chí Minh",
        "district": "Thủ Đức",
        "ward": "Phường Linh Xuân",
        "street": "Đường Số 6",
        "postal_code": "71309",
        "categories": [
            {
                "name": "Siêu thị"
            }
        ]
    },
    {
        "name": "Bách Hóa Xanh",
        "latitude": 10.89138,
        "longitude": 106.75872,
        "address": "Bách Hóa Xanh, 206 Đường Nguyễn Tri Phương, Phường An Bình, Dĩ An, Bình Dương, Việt Nam",
        "country_code": "VNM",
        "country_name": "Việt Nam",
        "city": "Bình Dương",
        "district": "Dĩ An",
        "ward": "Phường An Bình",
        "street": "Đường Nguyễn Tri Phương",
        "postal_code": "75307",
        "categories": [
            {
                "name": "Siêu thị"
            }
        ]
    },
    {
        "name": "Gạo Trọng Phương",
        "latitude": 10.9487,
        "longitude": 106.81176,
        "address": "Gạo Trọng Phương, Hẻm 48 Huỳnh Văn Lũy, Phường Hòa Bình, Biên Hòa, Đồng Nai, Việt Nam",
        "country_code": "VNM",
        "country_name": "Việt Nam",
        "city": "Đồng Nai",
        "district": "Biên Hòa",
        "ward": "Phường Hòa Bình",
        "street": "Hẻm 48 Huỳnh Văn Lũy",
        "postal_code": "76122",
        "categories": [
            {
                "name": "Siêu thị"
            }
        ]
    },
    {
        "name": "Cửa Hàng Sơn Hậu",
        "latitude": 10.94721,
        "longitude": 106.81439,
        "address": "Cửa Hàng Sơn Hậu, Đường Phan Chu Trinh, Phường Hòa Bình, Biên Hòa, Đồng Nai, Việt Nam",
        "country_code": "VNM",
        "country_name": "Việt Nam",
        "city": "Đồng Nai",
        "district": "Biên Hòa",
        "ward": "Phường Hòa Bình",
        "street": "Đường Phan Chu Trinh",
        "postal_code": "76122",
        "categories": [
            {
                "name": "Siêu thị"
            }
        ]
    },
    {
        "name": "Trà Cafe Ngọc Hòa",
        "latitude": 10.94721,
        "longitude": 106.81439,
        "address": "Trà Cafe Ngọc Hòa, Đường Phan Chu Trinh, Phường Hòa Bình, Biên Hòa, Đồng Nai, Việt Nam",
        "country_code": "VNM",
        "country_name": "Việt Nam",
        "city": "Đồng Nai",
        "district": "Biên Hòa",
        "ward": "Phường Hòa Bình",
        "street": "Đường Phan Chu Trinh",
        "postal_code": "76122",
        "categories": [
            {
                "name": "Siêu thị"
            },
            {
                "name": "Cửa hàng tiện lợi"
            }
        ]
    },
    {
        "name": "Tiệm Trà-Cà Phê Phước Lộc Thọ",
        "latitude": 10.94729,
        "longitude": 106.81434,
        "address": "Tiệm Trà-Cà Phê Phước Lộc Thọ, 51 Đường Phan Chu Trinh, Phường Hòa Bình, Biên Hòa, Đồng Nai, Việt Nam",
        "country_code": "VNM",
        "country_name": "Việt Nam",
        "city": "Đồng Nai",
        "district": "Biên Hòa",
        "ward": "Phường Hòa Bình",
        "street": "Đường Phan Chu Trinh",
        "postal_code": "76122",
        "categories": [
            {
                "name": "Siêu thị"
            },
            {
                "name": "Đặc sản & Đồ uống"
            }
        ]
    },
    {
        "name": "Cửa Hàng Thuốc Lá",
        "latitude": 10.94688,
        "longitude": 106.81512,
        "address": "Cửa Hàng Thuốc Lá, Đường Lê Thánh Tôn, Phường Thanh Bình, Biên Hòa, Đồng Nai, Việt Nam",
        "country_code": "VNM",
        "country_name": "Việt Nam",
        "city": "Đồng Nai",
        "district": "Biên Hòa",
        "ward": "Phường Thanh Bình",
        "street": "Đường Lê Thánh Tôn",
        "postal_code": "76106",
        "categories": [
            {
                "name": "Siêu thị"
            }
        ]
    },
    {
        "name": "Cầu Tre",
        "latitude": 10.94788,
        "longitude": 106.81476,
        "address": "Cầu Tre, 75 Đường Phan Chu Trinh, Phường Hòa Bình, Biên Hòa, Đồng Nai, Việt Nam",
        "country_code": "VNM",
        "country_name": "Việt Nam",
        "city": "Đồng Nai",
        "district": "Biên Hòa",
        "ward": "Phường Hòa Bình",
        "street": "Đường Phan Chu Trinh",
        "postal_code": "76122",
        "categories": [
            {
                "name": "Siêu thị"
            },
            {
                "name": "Cửa hàng chuyên dụng"
            }
        ]
    }
]
