[
    {
        "name": "Thiên Tân Viettel",
        "latitude": 10.89833,
        "longitude": 106.78182,
        "address": "Thiên Tân Viettel, 198 Đường Trần Hưng Đạo, Phường Đông Hòa, Dĩ An, Bình Dương, Việt Nam",
        "country_code": "VNM",
        "country_name": "Việt Nam",
        "city": "Bình Dương",
        "district": "Dĩ An",
        "ward": "Phường Đông Hòa",
        "street": "Đường Trần Hưng Đạo",
        "postal_code": "75308",
        "categories": [
            {
                "name": "Cửa hàng bán lẻ điện thoại di động"
            },
            {
                "name": "Cửa hàng điện tử gia dụng"
            }
        ]
    },
    {
        "name": "Điện Thoại Thuận Thành",
        "latitude": 10.89536,
        "longitude": 106.79115,
        "address": "Điện Thoại Thuận Thành, Xa Lộ Hà Nội, Phường Bình Thắng, Dĩ An, Bình Dương, Việt Nam",
        "country_code": "VNM",
        "country_name": "Việt Nam",
        "city": "Bình Dương",
        "district": "Dĩ An",
        "ward": "Phường Bình Thắng",
        "street": "Xa Lộ Hà Nội",
        "postal_code": "75309",
        "categories": [
            {
                "name": "Cửa hàng điện tử gia dụng"
            },
            {
                "name": "Cửa hàng bán lẻ điện thoại di động"
            }
        ]
    },
    {
        "name": "Viettel Telecom",
        "latitude": 10.8939,
        "longitude": 106.79215,
        "address": "Viettel Telecom, Đường Thống Nhất, Phường Đông Hòa, Dĩ An, Bình Dương, Việt Nam",
        "country_code": "VNM",
        "country_name": "Việt Nam",
        "city": "Bình Dương",
        "district": "Dĩ An",
        "ward": "Phường Đông Hòa",
        "street": "Đường Thống Nhất",
        "postal_code": "75308",
        "categories": [
            {
                "name": "Cửa hàng bán lẻ điện thoại di động"
            },
            {
                "name": "Cửa hàng điện tử gia dụng"
            }
        ]
    },
    {
        "name": "Viettel Telecom Xuân Lợi",
        "latitude": 10.89694,
        "longitude": 106.77513,
        "address": "Viettel Telecom Xuân Lợi, Hẻm 8 Đường Võ Thị Sáu, Phường Đông Hòa, Dĩ An, Bình Dương, Việt Nam",
        "country_code": "VNM",
        "country_name": "Việt Nam",
        "city": "Bình Dương",
        "district": "Dĩ An",
        "ward": "Phường Đông Hòa",
        "street": "Hẻm 8 Đường Võ Thị Sáu",
        "postal_code": "75308",
        "categories": [
            {
                "name": "Cửa hàng bán lẻ điện thoại di động"
            },
            {
                "name": "Cửa hàng điện tử gia dụng"
            }
        ]
    },
    {
        "name": "Cửa Hàng Điện Thoại Di Động Trịnh Đức Nam",
        "latitude": 10.89045,
        "longitude": 106.78529,
        "address": "Cửa Hàng Điện Thoại Di Động Trịnh Đức Nam, Xa Lộ Hà Nội, Phường Đông Hòa, Dĩ An, Bình Dương, Việt Nam",
        "country_code": "VNM",
        "country_name": "Việt Nam",
        "city": "Bình Dương",
        "district": "Dĩ An",
        "ward": "Phường Đông Hòa",
        "street": "Xa Lộ Hà Nội",
        "postal_code": "75308",
        "categories": [
            {
                "name": "Cửa hàng bán lẻ điện thoại di động"
            }
        ]
    },
    {
        "name": "Hoàng Duy Apple 1B32 Nguyễn An Ninh Dĩ An",
        "latitude": 10.90354,
        "longitude": 106.76785,
        "address": "Hoàng Duy Apple 1B32 Nguyễn An Ninh Dĩ An, Đường Nguyễn An Ninh, Phường Dĩ An, Dĩ An, Bình Dương, Việt Nam",
        "country_code": "VNM",
        "country_name": "Việt Nam",
        "city": "Bình Dương",
        "district": "Dĩ An",
        "ward": "Phường Dĩ An",
        "street": "Đường Nguyễn An Ninh",
        "postal_code": "75306",
        "categories": [
            {
                "name": "Cửa hàng bán lẻ điện thoại di động"
            }
        ]
    },
    {
        "name": "Học Nguyễn Mobile",
        "latitude": 10.90362,
        "longitude": 106.76168,
        "address": "Học Nguyễn Mobile, Đường Phạm Ngũ Lão, Phường Dĩ An, Dĩ An, Bình Dương, Việt Nam",
        "country_code": "VNM",
        "country_name": "Việt Nam",
        "city": "Bình Dương",
        "district": "Dĩ An",
        "ward": "Phường Dĩ An",
        "street": "Đường Phạm Ngũ Lão",
        "postal_code": "75306",
        "categories": [
            {
                "name": "Cửa hàng bán lẻ điện thoại di động"
            }
        ]
    },
    {
        "name": "Viettel",
        "latitude": 10.87762,
        "longitude": 106.77663,
        "address": "Viettel, 186 Đường Số 8, Phường Linh Xuân, Thủ Đức, Hồ Chí Minh, Việt Nam",
        "country_code": "VNM",
        "country_name": "Việt Nam",
        "city": "Hồ Chí Minh",
        "district": "Thủ Đức",
        "ward": "Phường Linh Xuân",
        "street": "Đường Số 8",
        "postal_code": "71309",
        "categories": [
            {
                "name": "Cửa hàng bán lẻ điện thoại di động"
            },
            {
                "name": "Cửa hàng điện tử gia dụng"
            }
        ]
    },
    {
        "name": "Phụ Kiện Giá Rẻ Dĩ An Lhtshop",
        "latitude": 10.88862,
        "longitude": 106.75977,
        "address": "Phụ Kiện Giá Rẻ Dĩ An Lhtshop, Đường Nguyễn Tri Phương, Phường An Bình, Dĩ An, Bình Dương, Việt Nam",
        "country_code": "VNM",
        "country_name": "Việt Nam",
        "city": "Bình Dương",
        "district": "Dĩ An",
        "ward": "Phường An Bình",
        "street": "Đường Nguyễn Tri Phương",
        "postal_code": "75307",
        "categories": [
            {
                "name": "Cửa hàng bán lẻ điện thoại di động"
            }
        ]
    },
    {
        "name": "Hoàng Bảo Ngọc",
        "latitude": 10.94957,
        "longitude": 106.81334,
        "address": "Hoàng Bảo Ngọc, 273 Đường Cách Mạng Tháng 8, Phường Hòa Bình, Biên Hòa, Đồng Nai, Việt Nam",
        "country_code": "VNM",
        "country_name": "Việt Nam",
        "city": "Đồng Nai",
        "district": "Biên Hòa",
        "ward": "Phường Hòa Bình",
        "street": "Đường Cách Mạng Tháng 8",
        "postal_code": "76122",
        "categories": [
            {
                "name": "Cửa hàng bán lẻ điện thoại di động"
            }
        ]
    },
    {
        "name": "Duy Lân Mobile",
        "latitude": 10.88695,
        "longitude": 106.75971,
        "address": "Duy Lân Mobile, 338 Hẻm 58 Đường Nguyễn Tri Phương, Phường An Bình, Dĩ An, Bình Dương, Việt Nam",
        "country_code": "VNM",
        "country_name": "Việt Nam",
        "city": "Bình Dương",
        "district": "Dĩ An",
        "ward": "Phường An Bình",
        "street": "Hẻm 58 Đường Nguyễn Tri Phương",
        "postal_code": "75307",
        "categories": [
            {
                "name": "Cửa hàng bán lẻ điện thoại di động"
            }
        ]
    },
    {
        "name": "Thiên Vân Apple",
        "latitude": 10.91093,
        "longitude": 106.749,
        "address": "Thiên Vân Apple, TL.743B, Phường Tân Đông Hiệp, Dĩ An, Bình Dương, Việt Nam",
        "country_code": "VNM",
        "country_name": "Việt Nam",
        "city": "Bình Dương",
        "district": "Dĩ An",
        "ward": "Phường Tân Đông Hiệp",
        "street": "TL.743B",
        "postal_code": "75311",
        "categories": [
            {
                "name": "Cửa hàng bán lẻ điện thoại di động"
            }
        ]
    },
    {
        "name": "Cửa Hàng ĐTDĐ Lê Nguyễn",
        "latitude": 10.95241,
        "longitude": 106.8114,
        "address": "Cửa Hàng ĐTDĐ Lê Nguyễn, Đường Hồ Văn Đại, Phường Quang Vinh, Biên Hòa, Đồng Nai, Việt Nam",
        "country_code": "VNM",
        "country_name": "Việt Nam",
        "city": "Đồng Nai",
        "district": "Biên Hòa",
        "ward": "Phường Quang Vinh",
        "street": "Đường Hồ Văn Đại",
        "postal_code": "76119",
        "categories": [
            {
                "name": "Cửa hàng bán lẻ điện thoại di động"
            }
        ]
    },
    {
        "name": "Cửa Hàng ĐTDĐ Ngọc Anh",
        "latitude": 10.87751,
        "longitude": 106.76697,
        "address": "Cửa Hàng ĐTDĐ Ngọc Anh, 10A Hẻm 88 Quốc Lộ 1K, Phường Linh Xuân, Thủ Đức, Hồ Chí Minh, Việt Nam",
        "country_code": "VNM",
        "country_name": "Việt Nam",
        "city": "Hồ Chí Minh",
        "district": "Thủ Đức",
        "ward": "Phường Linh Xuân",
        "street": "Hẻm 88 Quốc Lộ 1K",
        "postal_code": "71309",
        "categories": [
            {
                "name": "Cửa hàng bán lẻ điện thoại di động"
            }
        ]
    },
    {
        "name": "Cửa Hàng ĐTDĐ Đức Hùng",
        "latitude": 10.94985,
        "longitude": 106.81795,
        "address": "Cửa Hàng ĐTDĐ Đức Hùng, Hẻm 197 Phan Đình Phùng, Phường Thanh Bình, Biên Hòa, Đồng Nai, Việt Nam",
        "country_code": "VNM",
        "country_name": "Việt Nam",
        "city": "Đồng Nai",
        "district": "Biên Hòa",
        "ward": "Phường Thanh Bình",
        "street": "Hẻm 197 Phan Đình Phùng",
        "postal_code": "76106",
        "categories": [
            {
                "name": "Cửa hàng bán lẻ điện thoại di động"
            }
        ]
    },
    {
        "name": "Điểm Bán Hàng Viettel Nguyễn Gia",
        "latitude": 10.94536,
        "longitude": 106.82361,
        "address": "Điểm Bán Hàng Viettel Nguyễn Gia, Đường Hà Huy Giáp, Phường Quyết Thắng, Biên Hòa, Đồng Nai, Việt Nam",
        "country_code": "VNM",
        "country_name": "Việt Nam",
        "city": "Đồng Nai",
        "district": "Biên Hòa",
        "ward": "Phường Quyết Thắng",
        "street": "Đường Hà Huy Giáp",
        "postal_code": "76107",
        "categories": [
            {
                "name": "Cửa hàng bán lẻ điện thoại di động"
            },
            {
                "name": "Cửa hàng điện tử gia dụng"
            }
        ]
    },
    {
        "name": "Hiếu Apple 2",
        "latitude": 10.94612,
        "longitude": 106.82358,
        "address": "Hiếu Apple 2, 66 Đường Võ Thị Sáu, Phường Quyết Thắng, Biên Hòa, Đồng Nai, Việt Nam",
        "country_code": "VNM",
        "country_name": "Việt Nam",
        "city": "Đồng Nai",
        "district": "Biên Hòa",
        "ward": "Phường Quyết Thắng",
        "street": "Đường Võ Thị Sáu",
        "postal_code": "76107",
        "categories": [
            {
                "name": "Cửa hàng bán lẻ điện thoại di động"
            },
            {
                "name": "Quần áo & Phụ kiện"
            }
        ]
    },
    {
        "name": "Trung Tâm Chăm Sóc Khách Hàng Viettel",
        "latitude": 10.88041,
        "longitude": 106.76083,
        "address": "Trung Tâm Chăm Sóc Khách Hàng Viettel, Hẻm 23 Đường Nguyễn Tri Phương, Phường An Bình, Dĩ An, Bình Dương, Việt Nam",
        "country_code": "VNM",
        "country_name": "Việt Nam",
        "city": "Bình Dương",
        "district": "Dĩ An",
        "ward": "Phường An Bình",
        "street": "Hẻm 23 Đường Nguyễn Tri Phương",
        "postal_code": "75307",
        "categories": [
            {
                "name": "Cửa hàng bán lẻ điện thoại di động"
            },
            {
                "name": "Cửa hàng điện tử gia dụng"
            }
        ]
    },
    {
        "name": "Imobi.Vn Bien Hoa",
        "latitude": 10.94647,
        "longitude": 106.82443,
        "address": "Imobi.Vn Bien Hoa, Đường Võ Thị Sáu, Phường Quyết Thắng, Biên Hòa, Đồng Nai, Việt Nam",
        "country_code": "VNM",
        "country_name": "Việt Nam",
        "city": "Đồng Nai",
        "district": "Biên Hòa",
        "ward": "Phường Quyết Thắng",
        "street": "Đường Võ Thị Sáu",
        "postal_code": "76107",
        "categories": [
            {
                "name": "Cửa hàng bán lẻ điện thoại di động"
            }
        ]
    },
    {
        "name": "Viettel",
        "latitude": 10.86842,
        "longitude": 106.78765,
        "address": "Viettel, Đường Số 1, Phường Đông Hòa, Dĩ An, Bình Dương, Việt Nam",
        "country_code": "VNM",
        "country_name": "Việt Nam",
        "city": "Bình Dương",
        "district": "Dĩ An",
        "ward": "Phường Đông Hòa",
        "street": "Đường Số 1",
        "postal_code": "75308",
        "categories": [
            {
                "name": "Cửa hàng bán lẻ điện thoại di động"
            },
            {
                "name": "Cửa hàng điện tử gia dụng"
            }
        ]
    },
    {
        "name": "Blackberry 148 - Biên Hòa",
        "latitude": 10.95886,
        "longitude": 106.80462,
        "address": "Blackberry 148 - Biên Hòa, Đường N10, Phường Bửu Long, Biên Hòa, Đồng Nai, Việt Nam",
        "country_code": "VNM",
        "country_name": "Việt Nam",
        "city": "Đồng Nai",
        "district": "Biên Hòa",
        "ward": "Phường Bửu Long",
        "street": "Đường N10",
        "postal_code": "76120",
        "categories": [
            {
                "name": "Cửa hàng bán lẻ điện thoại di động"
            },
            {
                "name": "Quần áo & Phụ kiện"
            }
        ]
    },
    {
        "name": "Viettel Store",
        "latitude": 10.87489,
        "longitude": 106.76584,
        "address": "Viettel Store, Xa Lộ Hà Nội, Phường Linh Xuân, Thủ Đức, Hồ Chí Minh, Việt Nam",
        "country_code": "VNM",
        "country_name": "Việt Nam",
        "city": "Hồ Chí Minh",
        "district": "Thủ Đức",
        "ward": "Phường Linh Xuân",
        "street": "Xa Lộ Hà Nội",
        "postal_code": "71309",
        "categories": [
            {
                "name": "Cửa hàng bán lẻ điện thoại di động"
            },
            {
                "name": "Cửa hàng điện tử gia dụng"
            }
        ]
    },
    {
        "name": "Điện Thoại Siêu Rẻ Biên Hòa",
        "latitude": 10.96084,
        "longitude": 106.78952,
        "address": "Điện Thoại Siêu Rẻ Biên Hòa, Đường Huỳnh Văn Nghệ, Phường Bửu Long, Biên Hòa, Đồng Nai, Việt Nam",
        "country_code": "VNM",
        "country_name": "Việt Nam",
        "city": "Đồng Nai",
        "district": "Biên Hòa",
        "ward": "Phường Bửu Long",
        "street": "Đường Huỳnh Văn Nghệ",
        "postal_code": "76120",
        "categories": [
            {
                "name": "Cửa hàng bán lẻ điện thoại di động"
            }
        ]
    },
    {
        "name": "Số Hoá - Iapple.VN",
        "latitude": 10.94692,
        "longitude": 106.82765,
        "address": "Số Hoá - Iapple.VN, R71 Đường Võ Thị Sáu, Phường Thống Nhất, Biên Hòa, Đồng Nai, Việt Nam",
        "country_code": "VNM",
        "country_name": "Việt Nam",
        "city": "Đồng Nai",
        "district": "Biên Hòa",
        "ward": "Phường Thống Nhất",
        "street": "Đường Võ Thị Sáu",
        "postal_code": "76108",
        "categories": [
            {
                "name": "Cửa hàng bán lẻ điện thoại di động"
            },
            {
                "name": "Cửa hàng điện tử gia dụng"
            },
            {
                "name": "Quần áo & Phụ kiện"
            },
            {
                "name": "Hàng tiêu dùng"
            },
            {
                "name": "Cắt tóc & Tạo mẫu"
            },
            {
                "name": "Cơ sở giáo dục"
            }
        ]
    },
    {
        "name": "Đại Lý Sim - Thẻ Cào Đạm",
        "latitude": 10.95544,
        "longitude": 106.81789,
        "address": "Đại Lý Sim - Thẻ Cào Đạm, Đường Phan Đình Phùng, Phường Quang Vinh, Biên Hòa, Đồng Nai, Việt Nam",
        "country_code": "VNM",
        "country_name": "Việt Nam",
        "city": "Đồng Nai",
        "district": "Biên Hòa",
        "ward": "Phường Quang Vinh",
        "street": "Đường Phan Đình Phùng",
        "postal_code": "76119",
        "categories": [
            {
                "name": "Cửa hàng bán lẻ điện thoại di động"
            }
        ]
    },
    {
        "name": "Cửa Hàng ĐTDĐ Thanh Hải",
        "latitude": 10.95557,
        "longitude": 106.81825,
        "address": "Cửa Hàng ĐTDĐ Thanh Hải, 256 Đường Phan Đình Phùng, Phường Quang Vinh, Biên Hòa, Đồng Nai, Việt Nam",
        "country_code": "VNM",
        "country_name": "Việt Nam",
        "city": "Đồng Nai",
        "district": "Biên Hòa",
        "ward": "Phường Quang Vinh",
        "street": "Đường Phan Đình Phùng",
        "postal_code": "76119",
        "categories": [
            {
                "name": "Cửa hàng bán lẻ điện thoại di động"
            }
        ]
    },
    {
        "name": "Viettel Paypro",
        "latitude": 10.93513,
        "longitude": 106.74664,
        "address": "Viettel Paypro, Đường N5, Phường An Phú, Thuận An, Bình Dương, Việt Nam",
        "country_code": "VNM",
        "country_name": "Việt Nam",
        "city": "Bình Dương",
        "district": "Thuận An",
        "ward": "Phường An Phú",
        "street": "Đường N5",
        "postal_code": "75209",
        "categories": [
            {
                "name": "Cửa hàng bán lẻ điện thoại di động"
            },
            {
                "name": "Cửa hàng điện tử gia dụng"
            }
        ]
    },
    {
        "name": "Cửa Hàng Viettel Thịnh Phát",
        "latitude": 10.94037,
        "longitude": 106.74956,
        "address": "Cửa Hàng Viettel Thịnh Phát, 937 Đường Lê Hồng Phong, Phường Tân Bình, Dĩ An, Bình Dương, Việt Nam",
        "country_code": "VNM",
        "country_name": "Việt Nam",
        "city": "Bình Dương",
        "district": "Dĩ An",
        "ward": "Phường Tân Bình",
        "street": "Đường Lê Hồng Phong",
        "postal_code": "75312",
        "categories": [
            {
                "name": "Cửa hàng bán lẻ điện thoại di động"
            },
            {
                "name": "Cửa hàng điện tử gia dụng"
            }
        ]
    },
    {
        "name": "Điểm Bán Hàng Viettel Ty Ben",
        "latitude": 10.96196,
        "longitude": 106.78009,
        "address": "Điểm Bán Hàng Viettel Ty Ben, Đường Bùi Hữu Nghĩa, Phường Tân Hạnh, Biên Hòa, Đồng Nai, Việt Nam",
        "country_code": "VNM",
        "country_name": "Việt Nam",
        "city": "Đồng Nai",
        "district": "Biên Hòa",
        "ward": "Phường Tân Hạnh",
        "street": "Đường Bùi Hữu Nghĩa",
        "postal_code": "76121",
        "categories": [
            {
                "name": "Cửa hàng bán lẻ điện thoại di động"
            },
            {
                "name": "Cửa hàng điện tử gia dụng"
            }
        ]
    },
    {
        "name": "Huu Thanh 2 Trading Co. Ltd",
        "latitude": 10.95539,
        "longitude": 106.81951,
        "address": "Huu Thanh 2 Trading Co. Ltd, Hẻm 2123/1 Nguyễn Ái Quốc, Phường Trung Dũng, Biên Hòa, Đồng Nai, Việt Nam",
        "country_code": "VNM",
        "country_name": "Việt Nam",
        "city": "Đồng Nai",
        "district": "Biên Hòa",
        "ward": "Phường Trung Dũng",
        "street": "Hẻm 2123/1 Nguyễn Ái Quốc",
        "postal_code": "76118",
        "categories": [
            {
                "name": "Cửa hàng bán lẻ điện thoại di động"
            }
        ]
    },
    {
        "name": "Khánh Smartphone",
        "latitude": 10.8748,
        "longitude": 106.75865,
        "address": "Khánh Smartphone, Đường Lê Trọng Tấn, Phường An Bình, Dĩ An, Bình Dương, Việt Nam",
        "country_code": "VNM",
        "country_name": "Việt Nam",
        "city": "Bình Dương",
        "district": "Dĩ An",
        "ward": "Phường An Bình",
        "street": "Đường Lê Trọng Tấn",
        "postal_code": "75307",
        "categories": [
            {
                "name": "Cửa hàng bán lẻ điện thoại di động"
            }
        ]
    },
    {
        "name": "Phụ Kiện Blackberry 148",
        "latitude": 10.95315,
        "longitude": 106.82601,
        "address": "Phụ Kiện Blackberry 148, Hẻm 59/4 Đường 30 Tháng 4, Phường Trung Dũng, Biên Hòa, Đồng Nai, Việt Nam",
        "country_code": "VNM",
        "country_name": "Việt Nam",
        "city": "Đồng Nai",
        "district": "Biên Hòa",
        "ward": "Phường Trung Dũng",
        "street": "Hẻm 59/4 Đường 30 Tháng 4",
        "postal_code": "76118",
        "categories": [
            {
                "name": "Cửa hàng bán lẻ điện thoại di động"
            }
        ]
    },
    {
        "name": "Thu Hiền Mobile",
        "latitude": 10.86238,
        "longitude": 106.79803,
        "address": "Thu Hiền Mobile, 35 Đường Nam Cao, Phường Tân Phú, Thủ Đức, Hồ Chí Minh, Việt Nam",
        "country_code": "VNM",
        "country_name": "Việt Nam",
        "city": "Hồ Chí Minh",
        "district": "Thủ Đức",
        "ward": "Phường Tân Phú",
        "street": "Đường Nam Cao",
        "postal_code": "71218",
        "categories": [
            {
                "name": "Cửa hàng bán lẻ điện thoại di động"
            }
        ]
    },
    {
        "name": "Huỳnh Gia",
        "latitude": 10.9486,
        "longitude": 106.83292,
        "address": "Huỳnh Gia, Đường D13, Phường Thống Nhất, Biên Hòa, Đồng Nai, Việt Nam",
        "country_code": "VNM",
        "country_name": "Việt Nam",
        "city": "Đồng Nai",
        "district": "Biên Hòa",
        "ward": "Phường Thống Nhất",
        "street": "Đường D13",
        "postal_code": "76108",
        "categories": [
            {
                "name": "Cửa hàng bán lẻ điện thoại di động"
            }
        ]
    },
    {
        "name": "Cửa Hàng Điện Thoại Anh Hoàng Mobile",
        "latitude": 10.87116,
        "longitude": 106.75925,
        "address": "Cửa Hàng Điện Thoại Anh Hoàng Mobile, Đường Số 4, Phường An Bình, Dĩ An, Bình Dương, Việt Nam",
        "country_code": "VNM",
        "country_name": "Việt Nam",
        "city": "Bình Dương",
        "district": "Dĩ An",
        "ward": "Phường An Bình",
        "street": "Đường Số 4",
        "postal_code": "75307",
        "categories": [
            {
                "name": "Cửa hàng bán lẻ điện thoại di động"
            }
        ]
    },
    {
        "name": "Điểm Cung Cấp Dịch Vụ Viễn Thông Viettel",
        "latitude": 10.87804,
        "longitude": 106.74961,
        "address": "Điểm Cung Cấp Dịch Vụ Viễn Thông Viettel, Đường Độc Lập, Phường Dĩ An, Dĩ An, Bình Dương, Việt Nam",
        "country_code": "VNM",
        "country_name": "Việt Nam",
        "city": "Bình Dương",
        "district": "Dĩ An",
        "ward": "Phường Dĩ An",
        "street": "Đường Độc Lập",
        "postal_code": "75306",
        "categories": [
            {
                "name": "Cửa hàng bán lẻ điện thoại di động"
            },
            {
                "name": "Cửa hàng điện tử gia dụng"
            }
        ]
    },
    {
        "name": "Ken Apple",
        "latitude": 10.90019,
        "longitude": 106.84782,
        "address": "Ken Apple, Đường N7, Phường Long Bình Tân, Biên Hòa, Đồng Nai, Việt Nam",
        "country_code": "VNM",
        "country_name": "Việt Nam",
        "city": "Đồng Nai",
        "district": "Biên Hòa",
        "ward": "Phường Long Bình Tân",
        "street": "Đường N7",
        "postal_code": "76129",
        "categories": [
            {
                "name": "Cửa hàng bán lẻ điện thoại di động"
            },
            {
                "name": "Dịch vụ kinh doanh"
            }
        ]
    },
    {
        "name": "Vico - Trung Tâm Công Nghệ Di Động",
        "latitude": 10.92451,
        "longitude": 106.73432,
        "address": "Vico - Trung Tâm Công Nghệ Di Động, Đường Nguyễn Du, Phường Bình Hòa, Thuận An, Bình Dương, Việt Nam",
        "country_code": "VNM",
        "country_name": "Việt Nam",
        "city": "Bình Dương",
        "district": "Thuận An",
        "ward": "Phường Bình Hòa",
        "street": "Đường Nguyễn Du",
        "postal_code": "75208",
        "categories": [
            {
                "name": "Cửa hàng bán lẻ điện thoại di động"
            }
        ]
    },
    {
        "name": "Trung Tâm Điện Thoại Nguyễn Duy",
        "latitude": 10.87767,
        "longitude": 106.74587,
        "address": "Trung Tâm Điện Thoại Nguyễn Duy, 192B Đường Lê Thị Hoa, Phường Bình Chiểu, Thủ Đức, Hồ Chí Minh, Việt Nam",
        "country_code": "VNM",
        "country_name": "Việt Nam",
        "city": "Hồ Chí Minh",
        "district": "Thủ Đức",
        "ward": "Phường Bình Chiểu",
        "street": "Đường Lê Thị Hoa",
        "postal_code": "71313",
        "categories": [
            {
                "name": "Cửa hàng bán lẻ điện thoại di động"
            }
        ]
    },
    {
        "name": "Viettel",
        "latitude": 10.87658,
        "longitude": 106.74443,
        "address": "Viettel, Đường Số 12, Phường Bình Chiểu, Thủ Đức, Hồ Chí Minh, Việt Nam",
        "country_code": "VNM",
        "country_name": "Việt Nam",
        "city": "Hồ Chí Minh",
        "district": "Thủ Đức",
        "ward": "Phường Bình Chiểu",
        "street": "Đường Số 12",
        "postal_code": "71313",
        "categories": [
            {
                "name": "Cửa hàng bán lẻ điện thoại di động"
            },
            {
                "name": "Cửa hàng điện tử gia dụng"
            }
        ]
    },
    {
        "name": "Cửa Hàng ĐT Thông",
        "latitude": 10.95811,
        "longitude": 106.83337,
        "address": "Cửa Hàng ĐT Thông, Đường Phạm Văn Thuận, Phường Thống Nhất, Biên Hòa, Đồng Nai, Việt Nam",
        "country_code": "VNM",
        "country_name": "Việt Nam",
        "city": "Đồng Nai",
        "district": "Biên Hòa",
        "ward": "Phường Thống Nhất",
        "street": "Đường Phạm Văn Thuận",
        "postal_code": "76108",
        "categories": [
            {
                "name": "Cửa hàng bán lẻ điện thoại di động"
            }
        ]
    },
    {
        "name": "Điểm Cung Cấp Dịch Vụ Viễn Thông Viettel",
        "latitude": 10.86057,
        "longitude": 106.7606,
        "address": "Điểm Cung Cấp Dịch Vụ Viễn Thông Viettel, Đường Kha Vạn Cân, Phường Linh Tây, Thủ Đức, Hồ Chí Minh, Việt Nam",
        "country_code": "VNM",
        "country_name": "Việt Nam",
        "city": "Hồ Chí Minh",
        "district": "Thủ Đức",
        "ward": "Phường Linh Tây",
        "street": "Đường Kha Vạn Cân",
        "postal_code": "71310",
        "categories": [
            {
                "name": "Cửa hàng bán lẻ điện thoại di động"
            },
            {
                "name": "Cửa hàng điện tử gia dụng"
            }
        ]
    },
    {
        "name": "1168 Kha Vạn Cân, P. Linh Chiểu, Q. Thủ Đức, TP. HCM",
        "latitude": 10.86009,
        "longitude": 106.76034,
        "address": "1168 Kha Vạn Cân, P. Linh Chiểu, Q. Thủ Đức, TP. HCM, Đường Kha Vạn Cân, Phường Linh Tây, Thủ Đức, Hồ Chí Minh, Việt Nam",
        "country_code": "VNM",
        "country_name": "Việt Nam",
        "city": "Hồ Chí Minh",
        "district": "Thủ Đức",
        "ward": "Phường Linh Tây",
        "street": "Đường Kha Vạn Cân",
        "postal_code": "71310",
        "categories": [
            {
                "name": "Cửa hàng bán lẻ điện thoại di động"
            }
        ]
    },
    {
        "name": "Mua & Bán Nhà Đất Đồng Nai",
        "latitude": 10.93484,
        "longitude": 106.85181,
        "address": "Mua & Bán Nhà Đất Đồng Nai, Đường Trần Quốc Toản, Phường An Bình, Biên Hòa, Đồng Nai, Việt Nam",
        "country_code": "VNM",
        "country_name": "Việt Nam",
        "city": "Đồng Nai",
        "district": "Biên Hòa",
        "ward": "Phường An Bình",
        "street": "Đường Trần Quốc Toản",
        "postal_code": "76128",
        "categories": [
            {
                "name": "Cửa hàng bán lẻ điện thoại di động"
            },
            {
                "name": "Hãng môi giới bất động sản"
            }
        ]
    },
    {
        "name": "Viettelstore Bình Hòa-Thuận An-Bình Dương",
        "latitude": 10.90556,
        "longitude": 106.72831,
        "address": "Viettelstore Bình Hòa-Thuận An-Bình Dương, TL.743B, Phường Bình Hòa, Thuận An, Bình Dương, Việt Nam",
        "country_code": "VNM",
        "country_name": "Việt Nam",
        "city": "Bình Dương",
        "district": "Thuận An",
        "ward": "Phường Bình Hòa",
        "street": "TL.743B",
        "postal_code": "75208",
        "categories": [
            {
                "name": "Cửa hàng bán lẻ điện thoại di động"
            },
            {
                "name": "Cửa hàng điện tử gia dụng"
            }
        ]
    },
    {
        "name": "Thanh Luxury",
        "latitude": 10.85504,
        "longitude": 106.76759,
        "address": "Thanh Luxury, 182 Đường Hoàng Diệu 2, Phường Linh Trung, Thủ Đức, Hồ Chí Minh, Việt Nam",
        "country_code": "VNM",
        "country_name": "Việt Nam",
        "city": "Hồ Chí Minh",
        "district": "Thủ Đức",
        "ward": "Phường Linh Trung",
        "street": "Đường Hoàng Diệu 2",
        "postal_code": "71308",
        "categories": [
            {
                "name": "Cửa hàng bán lẻ điện thoại di động"
            }
        ]
    },
    {
        "name": "ĐTDĐ Hạnh",
        "latitude": 10.85113,
        "longitude": 106.7823,
        "address": "ĐTDĐ Hạnh, Đường Số 96, Phường Hiệp Phú, Thủ Đức, Hồ Chí Minh, Việt Nam",
        "country_code": "VNM",
        "country_name": "Việt Nam",
        "city": "Hồ Chí Minh",
        "district": "Thủ Đức",
        "ward": "Phường Hiệp Phú",
        "street": "Đường Số 96",
        "postal_code": "71206",
        "categories": [
            {
                "name": "Cửa hàng bán lẻ điện thoại di động"
            }
        ]
    },
    {
        "name": "Smartphone Thiên Tuấn",
        "latitude": 10.85829,
        "longitude": 106.75862,
        "address": "Smartphone Thiên Tuấn, 881 Đường Kha Vạn Cân, Phường Linh Tây, Thủ Đức, Hồ Chí Minh, Việt Nam",
        "country_code": "VNM",
        "country_name": "Việt Nam",
        "city": "Hồ Chí Minh",
        "district": "Thủ Đức",
        "ward": "Phường Linh Tây",
        "street": "Đường Kha Vạn Cân",
        "postal_code": "71310",
        "categories": [
            {
                "name": "Quần áo & Phụ kiện"
            },
            {
                "name": "Cửa hàng bán lẻ điện thoại di động"
            }
        ]
    },
    {
        "name": "Sim Số Đẹp Giá Rẻ",
        "latitude": 10.85338,
        "longitude": 106.76787,
        "address": "Sim Số Đẹp Giá Rẻ, 94 Hẻm 83 Đường Tô Vĩnh Diện, Phường Linh Chiểu, Thủ Đức, Hồ Chí Minh, Việt Nam",
        "country_code": "VNM",
        "country_name": "Việt Nam",
        "city": "Hồ Chí Minh",
        "district": "Thủ Đức",
        "ward": "Phường Linh Chiểu",
        "street": "Hẻm 83 Đường Tô Vĩnh Diện",
        "postal_code": "71307",
        "categories": [
            {
                "name": "Cửa hàng bán lẻ điện thoại di động"
            }
        ]
    },
    {
        "name": "Thế Giới Di Động",
        "latitude": 10.95787,
        "longitude": 106.84096,
        "address": "Thế Giới Di Động, 217A Đường Phạm Văn Thuận, Phường Thống Nhất, Biên Hòa, Đồng Nai, Việt Nam",
        "country_code": "VNM",
        "country_name": "Việt Nam",
        "city": "Đồng Nai",
        "district": "Biên Hòa",
        "ward": "Phường Thống Nhất",
        "street": "Đường Phạm Văn Thuận",
        "postal_code": "76108",
        "categories": [
            {
                "name": "Cửa hàng điện tử gia dụng"
            },
            {
                "name": "Cửa hàng bán lẻ điện thoại di động"
            },
            {
                "name": "Hàng tiêu dùng"
            }
        ]
    },
    {
        "name": "Uc Mobile",
        "latitude": 10.95826,
        "longitude": 106.84299,
        "address": "Uc Mobile, Đường Phan Trung, Phường Tân Tiến, Biên Hòa, Đồng Nai, Việt Nam",
        "country_code": "VNM",
        "country_name": "Việt Nam",
        "city": "Đồng Nai",
        "district": "Biên Hòa",
        "ward": "Phường Tân Tiến",
        "street": "Đường Phan Trung",
        "postal_code": "76115",
        "categories": [
            {
                "name": "Quần áo & Phụ kiện"
            },
            {
                "name": "Cửa hàng bán lẻ điện thoại di động"
            }
        ]
    },
    {
        "name": "Điện Thoại Cũ Giá Rẻ - L&C Shop",
        "latitude": 10.84708,
        "longitude": 106.78908,
        "address": "Điện Thoại Cũ Giá Rẻ - L&C Shop, 10 Đường 379, Phường Tăng Nhơn Phú A, Thủ Đức, Hồ Chí Minh, Việt Nam",
        "country_code": "VNM",
        "country_name": "Việt Nam",
        "city": "Hồ Chí Minh",
        "district": "Thủ Đức",
        "ward": "Phường Tăng Nhơn Phú A",
        "street": "Đường 379",
        "postal_code": "71207",
        "categories": [
            {
                "name": "Cửa hàng điện tử"
            },
            {
                "name": "Cửa hàng bán lẻ điện thoại di động"
            }
        ]
    },
    {
        "name": "H2MOBILE - Phụ Kiện Điện Thoại Chính Hãng",
        "latitude": 10.84676,
        "longitude": 106.78886,
        "address": "H2MOBILE - Phụ Kiện Điện Thoại Chính Hãng, 8B Đường Số 379, Phường Tăng Nhơn Phú A, Thủ Đức, Hồ Chí Minh, Việt Nam",
        "country_code": "VNM",
        "country_name": "Việt Nam",
        "city": "Hồ Chí Minh",
        "district": "Thủ Đức",
        "ward": "Phường Tăng Nhơn Phú A",
        "street": "Đường Số 379",
        "postal_code": "71207",
        "categories": [
            {
                "name": "Quần áo & Phụ kiện"
            },
            {
                "name": "Cửa hàng bán lẻ điện thoại di động"
            }
        ]
    },
    {
        "name": "Thế Giới Di Động 340 Võ Văn Ngân",
        "latitude": 10.84961,
        "longitude": 106.77114,
        "address": "Thế Giới Di Động 340 Võ Văn Ngân, 340 Đường Võ Văn Ngân, Phường Linh Chiểu, Thủ Đức, Hồ Chí Minh, Việt Nam",
        "country_code": "VNM",
        "country_name": "Việt Nam",
        "city": "Hồ Chí Minh",
        "district": "Thủ Đức",
        "ward": "Phường Linh Chiểu",
        "street": "Đường Võ Văn Ngân",
        "postal_code": "71307",
        "categories": [
            {
                "name": "Cửa hàng bán lẻ điện thoại di động"
            }
        ]
    },
    {
        "name": "Cửa Hàng ĐTDĐ Anh Quân",
        "latitude": 10.85605,
        "longitude": 106.75612,
        "address": "Cửa Hàng ĐTDĐ Anh Quân, Đường Kha Vạn Cân, Phường Linh Tây, Thủ Đức, Hồ Chí Minh, Việt Nam",
        "country_code": "VNM",
        "country_name": "Việt Nam",
        "city": "Hồ Chí Minh",
        "district": "Thủ Đức",
        "ward": "Phường Linh Tây",
        "street": "Đường Kha Vạn Cân",
        "postal_code": "71310",
        "categories": [
            {
                "name": "Cửa hàng bán lẻ điện thoại di động"
            }
        ]
    },
    {
        "name": "Viễn Thông A",
        "latitude": 10.89029,
        "longitude": 106.72697,
        "address": "Viễn Thông A, TL.43, Phường Bình Chiểu, Thủ Đức, Hồ Chí Minh, Việt Nam",
        "country_code": "VNM",
        "country_name": "Việt Nam",
        "city": "Hồ Chí Minh",
        "district": "Thủ Đức",
        "ward": "Phường Bình Chiểu",
        "street": "TL.43",
        "postal_code": "71313",
        "categories": [
            {
                "name": "Cửa hàng bán lẻ điện thoại di động"
            },
            {
                "name": "Hàng tiêu dùng"
            }
        ]
    },
    {
        "name": "Bi Store - Case Iphone, Ipad: 69 Chương Dương P. Linh Chiểu Q. Thủ Đức",
        "latitude": 10.85403,
        "longitude": 106.75892,
        "address": "Bi Store - Case Iphone, Ipad: 69 Chương Dương P. Linh Chiểu Q. Thủ Đức, 69 Hẻm 61 Đường Chương Dương, Phường Linh Chiểu, Thủ Đức, Hồ Chí Minh, Việt Nam",
        "country_code": "VNM",
        "country_name": "Việt Nam",
        "city": "Hồ Chí Minh",
        "district": "Thủ Đức",
        "ward": "Phường Linh Chiểu",
        "street": "Hẻm 61 Đường Chương Dương",
        "postal_code": "71307",
        "categories": [
            {
                "name": "Cửa hàng bán lẻ điện thoại di động"
            },
            {
                "name": "Quần áo & Phụ kiện"
            }
        ]
    },
    {
        "name": "Điện Thoại Xách Tay",
        "latitude": 10.84731,
        "longitude": 106.77448,
        "address": "Điện Thoại Xách Tay, Đường Quang Trung, Phường Hiệp Phú, Thủ Đức, Hồ Chí Minh, Việt Nam",
        "country_code": "VNM",
        "country_name": "Việt Nam",
        "city": "Hồ Chí Minh",
        "district": "Thủ Đức",
        "ward": "Phường Hiệp Phú",
        "street": "Đường Quang Trung",
        "postal_code": "71206",
        "categories": [
            {
                "name": "Cửa hàng điện tử gia dụng"
            },
            {
                "name": "Cửa hàng bán lẻ điện thoại di động"
            },
            {
                "name": "Dịch vụ kinh doanh"
            }
        ]
    },
    {
        "name": "Cellphones - Hệ Thống Bán Lẻ Di Động Toàn Quốc",
        "latitude": 10.84644,
        "longitude": 106.7783,
        "address": "Cellphones - Hệ Thống Bán Lẻ Di Động Toàn Quốc, Đường Lê Văn Việt, Phường Hiệp Phú, Thủ Đức, Hồ Chí Minh, Việt Nam",
        "country_code": "VNM",
        "country_name": "Việt Nam",
        "city": "Hồ Chí Minh",
        "district": "Thủ Đức",
        "ward": "Phường Hiệp Phú",
        "street": "Đường Lê Văn Việt",
        "postal_code": "71206",
        "categories": [
            {
                "name": "Cửa hàng bán lẻ điện thoại di động"
            }
        ]
    },
    {
        "name": "Cửa Hàng ĐTDĐ Nguyễn Nguyên",
        "latitude": 10.86109,
        "longitude": 106.74661,
        "address": "Cửa Hàng ĐTDĐ Nguyễn Nguyên, 24 Đường Số 4, Phường Tam Phú, Thủ Đức, Hồ Chí Minh, Việt Nam",
        "country_code": "VNM",
        "country_name": "Việt Nam",
        "city": "Hồ Chí Minh",
        "district": "Thủ Đức",
        "ward": "Phường Tam Phú",
        "street": "Đường Số 4",
        "postal_code": "71311",
        "categories": [
            {
                "name": "Cửa hàng bán lẻ điện thoại di động"
            }
        ]
    },
    {
        "name": "TGDD 161 Lê Văn Việt",
        "latitude": 10.8458,
        "longitude": 106.77916,
        "address": "TGDD 161 Lê Văn Việt, 161 Đường Lê Văn Việt, Phường Hiệp Phú, Thủ Đức, Hồ Chí Minh, Việt Nam",
        "country_code": "VNM",
        "country_name": "Việt Nam",
        "city": "Hồ Chí Minh",
        "district": "Thủ Đức",
        "ward": "Phường Hiệp Phú",
        "street": "Đường Lê Văn Việt",
        "postal_code": "71206",
        "categories": [
            {
                "name": "Cửa hàng bán lẻ điện thoại di động"
            }
        ]
    },
    {
        "name": "Viettel Telecom",
        "latitude": 10.87649,
        "longitude": 106.73214,
        "address": "Viettel Telecom, Tỉnh Lộ 43, Phường Bình Chiểu, Thủ Đức, Hồ Chí Minh, Việt Nam",
        "country_code": "VNM",
        "country_name": "Việt Nam",
        "city": "Hồ Chí Minh",
        "district": "Thủ Đức",
        "ward": "Phường Bình Chiểu",
        "street": "Tỉnh Lộ 43",
        "postal_code": "71313",
        "categories": [
            {
                "name": "Cửa hàng bán lẻ điện thoại di động"
            },
            {
                "name": "Cửa hàng điện tử gia dụng"
            }
        ]
    },
    {
        "name": "Didongnct.VN - Trung Tâm Thay Màn Hình Cảm Ứng",
        "latitude": 10.8467,
        "longitude": 106.77414,
        "address": "Didongnct.VN - Trung Tâm Thay Màn Hình Cảm Ứng, Đường Quang Trung, Phường Hiệp Phú, Thủ Đức, Hồ Chí Minh, Việt Nam",
        "country_code": "VNM",
        "country_name": "Việt Nam",
        "city": "Hồ Chí Minh",
        "district": "Thủ Đức",
        "ward": "Phường Hiệp Phú",
        "street": "Đường Quang Trung",
        "postal_code": "71206",
        "categories": [
            {
                "name": "Cửa hàng bán lẻ điện thoại di động"
            },
            {
                "name": "Phần mềm và phần cứng máy tính"
            }
        ]
    },
    {
        "name": "Huân Store",
        "latitude": 10.96488,
        "longitude": 106.84038,
        "address": "Huân Store, Hẻm 1400 Nguyễn Ái Quốc, Phường Tân Phong, Biên Hòa, Đồng Nai, Việt Nam",
        "country_code": "VNM",
        "country_name": "Việt Nam",
        "city": "Đồng Nai",
        "district": "Biên Hòa",
        "ward": "Phường Tân Phong",
        "street": "Hẻm 1400 Nguyễn Ái Quốc",
        "postal_code": "76117",
        "categories": [
            {
                "name": "Cửa hàng bán lẻ điện thoại di động"
            }
        ]
    },
    {
        "name": "Mobifone Corporation",
        "latitude": 10.8506,
        "longitude": 106.76238,
        "address": "Mobifone Corporation, 176 Đường Võ Văn Ngân, Phường Bình Thọ, Thủ Đức, Hồ Chí Minh, Việt Nam",
        "country_code": "VNM",
        "country_name": "Việt Nam",
        "city": "Hồ Chí Minh",
        "district": "Thủ Đức",
        "ward": "Phường Bình Thọ",
        "street": "Đường Võ Văn Ngân",
        "postal_code": "71306",
        "categories": [
            {
                "name": "Cửa hàng bán lẻ điện thoại di động"
            },
            {
                "name": "Liên lạc và truyền thông"
            }
        ]
    },
    {
        "name": "Mobifone Thu Duc",
        "latitude": 10.85053,
        "longitude": 106.7624,
        "address": "Mobifone Thu Duc, Đường Số 11, Phường Bình Thọ, Thủ Đức, Hồ Chí Minh, Việt Nam",
        "country_code": "VNM",
        "country_name": "Việt Nam",
        "city": "Hồ Chí Minh",
        "district": "Thủ Đức",
        "ward": "Phường Bình Thọ",
        "street": "Đường Số 11",
        "postal_code": "71306",
        "categories": [
            {
                "name": "Cửa hàng bán lẻ điện thoại di động"
            }
        ]
    },
    {
        "name": "Ép Kính Giá Rẻ Thủ Đức",
        "latitude": 10.85675,
        "longitude": 106.75011,
        "address": "Ép Kính Giá Rẻ Thủ Đức, 214 Đường Tô Ngọc Vân, Phường Linh Đông, Thủ Đức, Hồ Chí Minh, Việt Nam",
        "country_code": "VNM",
        "country_name": "Việt Nam",
        "city": "Hồ Chí Minh",
        "district": "Thủ Đức",
        "ward": "Phường Linh Đông",
        "street": "Đường Tô Ngọc Vân",
        "postal_code": "71316",
        "categories": [
            {
                "name": "Cửa hàng bán lẻ điện thoại di động"
            }
        ]
    },
    {
        "name": "Sáng Ngời Phụ Kiện 235 Lê Văn Việt Quận 9",
        "latitude": 10.84399,
        "longitude": 106.78377,
        "address": "Sáng Ngời Phụ Kiện 235 Lê Văn Việt Quận 9, Đường Lê Văn Việt, Phường Tăng Nhơn Phú B, Thủ Đức, Hồ Chí Minh, Việt Nam",
        "country_code": "VNM",
        "country_name": "Việt Nam",
        "city": "Hồ Chí Minh",
        "district": "Thủ Đức",
        "ward": "Phường Tăng Nhơn Phú B",
        "street": "Đường Lê Văn Việt",
        "postal_code": "71211",
        "categories": [
            {
                "name": "Quần áo & Phụ kiện"
            },
            {
                "name": "Cửa hàng bán lẻ điện thoại di động"
            }
        ]
    },
    {
        "name": "Đại Lý Điện Thoại Di Động Viettel",
        "latitude": 10.88783,
        "longitude": 106.72502,
        "address": "Đại Lý Điện Thoại Di Động Viettel, Đường Nam Khu Chế Xuất, Phường Bình Chiểu, Thủ Đức, Hồ Chí Minh, Việt Nam",
        "country_code": "VNM",
        "country_name": "Việt Nam",
        "city": "Hồ Chí Minh",
        "district": "Thủ Đức",
        "ward": "Phường Bình Chiểu",
        "street": "Đường Nam Khu Chế Xuất",
        "postal_code": "71313",
        "categories": [
            {
                "name": "Cửa hàng bán lẻ điện thoại di động"
            },
            {
                "name": "Cửa hàng điện tử gia dụng"
            }
        ]
    },
    {
        "name": "Cường Thịnh Phụ Kiện Giá Gốc - Sửa Chữa ĐT Chuyên Nghiệp",
        "latitude": 10.88311,
        "longitude": 106.72714,
        "address": "Cường Thịnh Phụ Kiện Giá Gốc - Sửa Chữa ĐT Chuyên Nghiệp, Hẻm 1089 Tỉnh Lộ 43, Phường Bình Chiểu, Thủ Đức, Hồ Chí Minh, Việt Nam",
        "country_code": "VNM",
        "country_name": "Việt Nam",
        "city": "Hồ Chí Minh",
        "district": "Thủ Đức",
        "ward": "Phường Bình Chiểu",
        "street": "Hẻm 1089 Tỉnh Lộ 43",
        "postal_code": "71313",
        "categories": [
            {
                "name": "Cửa hàng bán lẻ điện thoại di động"
            },
            {
                "name": "Dịch vụ kinh doanh"
            }
        ]
    },
    {
        "name": "Hưng Phú Mobile",
        "latitude": 10.93832,
        "longitude": 106.85932,
        "address": "Hưng Phú Mobile, Đường Trần Quốc Toản, Phường Bình Đa, Biên Hòa, Đồng Nai, Việt Nam",
        "country_code": "VNM",
        "country_name": "Việt Nam",
        "city": "Đồng Nai",
        "district": "Biên Hòa",
        "ward": "Phường Bình Đa",
        "street": "Đường Trần Quốc Toản",
        "postal_code": "76127",
        "categories": [
            {
                "name": "Cửa hàng bán lẻ điện thoại di động"
            },
            {
                "name": "Sửa chữa và bảo dưỡng điện thoại di động"
            }
        ]
    },
    {
        "name": "Viettel STORE",
        "latitude": 10.87354,
        "longitude": 106.73276,
        "address": "Viettel STORE, Đường Bình Chiểu, Phường Bình Chiểu, Thủ Đức, Hồ Chí Minh, Việt Nam",
        "country_code": "VNM",
        "country_name": "Việt Nam",
        "city": "Hồ Chí Minh",
        "district": "Thủ Đức",
        "ward": "Phường Bình Chiểu",
        "street": "Đường Bình Chiểu",
        "postal_code": "71313",
        "categories": [
            {
                "name": "Cửa hàng bán lẻ điện thoại di động"
            },
            {
                "name": "Cửa hàng điện tử gia dụng"
            }
        ]
    },
    {
        "name": "Cửa Hàng ĐTDĐ Linh Việt",
        "latitude": 10.87396,
        "longitude": 106.73223,
        "address": "Cửa Hàng ĐTDĐ Linh Việt, Tỉnh Lộ 43, Phường Tam Bình, Thủ Đức, Hồ Chí Minh, Việt Nam",
        "country_code": "VNM",
        "country_name": "Việt Nam",
        "city": "Hồ Chí Minh",
        "district": "Thủ Đức",
        "ward": "Phường Tam Bình",
        "street": "Tỉnh Lộ 43",
        "postal_code": "71312",
        "categories": [
            {
                "name": "Cửa hàng bán lẻ điện thoại di động"
            }
        ]
    },
    {
        "name": "ĐTDĐ Quốc Mobile",
        "latitude": 10.94766,
        "longitude": 106.85572,
        "address": "ĐTDĐ Quốc Mobile, Đường Phạm Văn Thuận, Phường Tam Hiệp, Biên Hòa, Đồng Nai, Việt Nam",
        "country_code": "VNM",
        "country_name": "Việt Nam",
        "city": "Đồng Nai",
        "district": "Biên Hòa",
        "ward": "Phường Tam Hiệp",
        "street": "Đường Phạm Văn Thuận",
        "postal_code": "76109",
        "categories": [
            {
                "name": "Cửa hàng bán lẻ điện thoại di động"
            },
            {
                "name": "Dịch vụ kinh doanh"
            }
        ]
    },
    {
        "name": "Bảo Bảo Store",
        "latitude": 10.87201,
        "longitude": 106.73304,
        "address": "Bảo Bảo Store, TL.43, Phường Tam Bình, Thủ Đức, Hồ Chí Minh, Việt Nam",
        "country_code": "VNM",
        "country_name": "Việt Nam",
        "city": "Hồ Chí Minh",
        "district": "Thủ Đức",
        "ward": "Phường Tam Bình",
        "street": "TL.43",
        "postal_code": "71312",
        "categories": [
            {
                "name": "Cửa hàng bán lẻ điện thoại di động"
            }
        ]
    },
    {
        "name": "Ibstore",
        "latitude": 10.94504,
        "longitude": 106.85763,
        "address": "Ibstore, Đường Phạm Văn Thuận, Phường Tam Hiệp, Biên Hòa, Đồng Nai, Việt Nam",
        "country_code": "VNM",
        "country_name": "Việt Nam",
        "city": "Đồng Nai",
        "district": "Biên Hòa",
        "ward": "Phường Tam Hiệp",
        "street": "Đường Phạm Văn Thuận",
        "postal_code": "76109",
        "categories": [
            {
                "name": "Cửa hàng bán lẻ điện thoại di động"
            }
        ]
    },
    {
        "name": "Viettel STORE",
        "latitude": 10.96664,
        "longitude": 106.74184,
        "address": "Viettel STORE, Đường Từ Văn Phước, Phường An Phú, Thuận An, Bình Dương, Việt Nam",
        "country_code": "VNM",
        "country_name": "Việt Nam",
        "city": "Bình Dương",
        "district": "Thuận An",
        "ward": "Phường An Phú",
        "street": "Đường Từ Văn Phước",
        "postal_code": "75209",
        "categories": [
            {
                "name": "Cửa hàng bán lẻ điện thoại di động"
            },
            {
                "name": "Cửa hàng điện tử gia dụng"
            }
        ]
    },
    {
        "name": "Thành Công Mobile",
        "latitude": 10.85845,
        "longitude": 106.74512,
        "address": "Thành Công Mobile, Đường Số 11, Phường Linh Đông, Thủ Đức, Hồ Chí Minh, Việt Nam",
        "country_code": "VNM",
        "country_name": "Việt Nam",
        "city": "Hồ Chí Minh",
        "district": "Thủ Đức",
        "ward": "Phường Linh Đông",
        "street": "Đường Số 11",
        "postal_code": "71316",
        "categories": [
            {
                "name": "Cửa hàng bán lẻ điện thoại di động"
            }
        ]
    },
    {
        "name": "Viettel STORE",
        "latitude": 10.85173,
        "longitude": 106.7547,
        "address": "Viettel STORE, 715 Đường Kha Vạn Cân, Phường Linh Tây, Thủ Đức, Hồ Chí Minh, Việt Nam",
        "country_code": "VNM",
        "country_name": "Việt Nam",
        "city": "Hồ Chí Minh",
        "district": "Thủ Đức",
        "ward": "Phường Linh Tây",
        "street": "Đường Kha Vạn Cân",
        "postal_code": "71310",
        "categories": [
            {
                "name": "Cửa hàng bán lẻ điện thoại di động"
            },
            {
                "name": "Cửa hàng điện tử gia dụng"
            }
        ]
    },
    {
        "name": "Phương Apple",
        "latitude": 10.94283,
        "longitude": 106.85952,
        "address": "Phương Apple, 127 Đường Phạm Văn Thuận, Phường Tam Hiệp, Biên Hòa, Đồng Nai, Việt Nam",
        "country_code": "VNM",
        "country_name": "Việt Nam",
        "city": "Đồng Nai",
        "district": "Biên Hòa",
        "ward": "Phường Tam Hiệp",
        "street": "Đường Phạm Văn Thuận",
        "postal_code": "76109",
        "categories": [
            {
                "name": "Quần áo & Phụ kiện"
            },
            {
                "name": "Cửa hàng bán lẻ điện thoại di động"
            }
        ]
    },
    {
        "name": "Apple Thủ Đức",
        "latitude": 10.85131,
        "longitude": 106.75471,
        "address": "Apple Thủ Đức, 2 Đường Tô Ngọc Vân, Phường Linh Tây, Thủ Đức, Hồ Chí Minh, Việt Nam",
        "country_code": "VNM",
        "country_name": "Việt Nam",
        "city": "Hồ Chí Minh",
        "district": "Thủ Đức",
        "ward": "Phường Linh Tây",
        "street": "Đường Tô Ngọc Vân",
        "postal_code": "71310",
        "categories": [
            {
                "name": "Cửa hàng bán lẻ điện thoại di động"
            }
        ]
    },
    {
        "name": "Mạnh Phát",
        "latitude": 10.84159,
        "longitude": 106.78512,
        "address": "Mạnh Phát, Đường Số 2, Phường Tăng Nhơn Phú B, Thủ Đức, Hồ Chí Minh, Việt Nam",
        "country_code": "VNM",
        "country_name": "Việt Nam",
        "city": "Hồ Chí Minh",
        "district": "Thủ Đức",
        "ward": "Phường Tăng Nhơn Phú B",
        "street": "Đường Số 2",
        "postal_code": "71211",
        "categories": [
            {
                "name": "Cửa hàng bán lẻ điện thoại di động"
            },
            {
                "name": "Dịch vụ kinh doanh"
            }
        ]
    },
    {
        "name": "Toto Shop",
        "latitude": 10.84139,
        "longitude": 106.78523,
        "address": "Toto Shop, 2 Đường 3, Phường Tăng Nhơn Phú B, Thủ Đức, Hồ Chí Minh, Việt Nam",
        "country_code": "VNM",
        "country_name": "Việt Nam",
        "city": "Hồ Chí Minh",
        "district": "Thủ Đức",
        "ward": "Phường Tăng Nhơn Phú B",
        "street": "Đường 3",
        "postal_code": "71211",
        "categories": [
            {
                "name": "Cửa hàng bán lẻ điện thoại di động"
            }
        ]
    },
    {
        "name": "Didongsaigon.Vn",
        "latitude": 10.84027,
        "longitude": 106.78478,
        "address": "Didongsaigon.Vn, Đường 3, Phường Tăng Nhơn Phú B, Thủ Đức, Hồ Chí Minh, Việt Nam",
        "country_code": "VNM",
        "country_name": "Việt Nam",
        "city": "Hồ Chí Minh",
        "district": "Thủ Đức",
        "ward": "Phường Tăng Nhơn Phú B",
        "street": "Đường 3",
        "postal_code": "71211",
        "categories": [
            {
                "name": "Quần áo & Phụ kiện"
            },
            {
                "name": "Cửa hàng bán lẻ điện thoại di động"
            }
        ]
    },
    {
        "name": "Vintage Rim Blackberry",
        "latitude": 10.84172,
        "longitude": 106.77427,
        "address": "Vintage Rim Blackberry, Đường Hai Bà Trưng, Phường Hiệp Phú, Thủ Đức, Hồ Chí Minh, Việt Nam",
        "country_code": "VNM",
        "country_name": "Việt Nam",
        "city": "Hồ Chí Minh",
        "district": "Thủ Đức",
        "ward": "Phường Hiệp Phú",
        "street": "Đường Hai Bà Trưng",
        "postal_code": "71206",
        "categories": [
            {
                "name": "Cửa hàng bán lẻ điện thoại di động"
            },
            {
                "name": "Quà tặng, đồ cổ và tác phẩm nghệ thuật"
            }
        ]
    },
    {
        "name": "VI Tính - Điện Thoại Quang Ấn",
        "latitude": 10.93974,
        "longitude": 106.86291,
        "address": "VI Tính - Điện Thoại Quang Ấn, Hẻm 55 Trần Quốc Toản, Phường Bình Đa, Biên Hòa, Đồng Nai, Việt Nam",
        "country_code": "VNM",
        "country_name": "Việt Nam",
        "city": "Đồng Nai",
        "district": "Biên Hòa",
        "ward": "Phường Bình Đa",
        "street": "Hẻm 55 Trần Quốc Toản",
        "postal_code": "76127",
        "categories": [
            {
                "name": "Cửa hàng bán lẻ điện thoại di động"
            },
            {
                "name": "Phần mềm và phần cứng máy tính"
            }
        ]
    }
]
