[
    {
        "name": "Ngân Hàng Sài Gòn Thương Tín",
        "latitude": 10.9052,
        "longitude": 106.79448,
        "address": "Ngân Hàng Sài Gòn Thương Tín, Xa Lộ Hà Nội, Phường Bình Thắng, Dĩ An, Bình Dương, Việt Nam",
        "country_code": "VNM",
        "country_name": "Việt Nam",
        "city": "Bình Dương",
        "district": "Dĩ An",
        "ward": "Phường Bình Thắng",
        "street": "Xa Lộ Hà Nội",
        "postal_code": "75309",
        "categories": [
            {
                "name": "Ngân hàng"
            },
            {
                "name": "Máy rút tiền ATM"
            }
        ]
    },
    {
        "name": "Ngân Hàng Phát Triển Nhà TP. HCM",
        "latitude": 10.90342,
        "longitude": 106.7935,
        "address": "Ngân Hàng Phát Triển Nhà TP. HCM, Xa Lộ Hà Nội, Phường Bình Thắng, Dĩ An, Bình Dương, Việt Nam",
        "country_code": "VNM",
        "country_name": "Việt Nam",
        "city": "Bình Dương",
        "district": "Dĩ An",
        "ward": "Phường Bình Thắng",
        "street": "Xa Lộ Hà Nội",
        "postal_code": "75309",
        "categories": [
            {
                "name": "Ngân hàng"
            },
            {
                "name": "Máy rút tiền ATM"
            }
        ]
    },
    {
        "name": "Quỹ Tín Dụng Nhân Dân Bình An",
        "latitude": 10.90503,
        "longitude": 106.80305,
        "address": "Quỹ Tín Dụng Nhân Dân Bình An, Đường Bình Thung, Phường Bình Thắng, Dĩ An, Bình Dương, Việt Nam",
        "country_code": "VNM",
        "country_name": "Việt Nam",
        "city": "Bình Dương",
        "district": "Dĩ An",
        "ward": "Phường Bình Thắng",
        "street": "Đường Bình Thung",
        "postal_code": "75309",
        "categories": [
            {
                "name": "Ngân hàng"
            }
        ]
    },
    {
        "name": "Ngân Hàng NN & PT Nông Thôn",
        "latitude": 10.89604,
        "longitude": 106.79148,
        "address": "Ngân Hàng NN & PT Nông Thôn, Xa Lộ Hà Nội, Phường Đông Hòa, Dĩ An, Bình Dương, Việt Nam",
        "country_code": "VNM",
        "country_name": "Việt Nam",
        "city": "Bình Dương",
        "district": "Dĩ An",
        "ward": "Phường Đông Hòa",
        "street": "Xa Lộ Hà Nội",
        "postal_code": "75308",
        "categories": [
            {
                "name": "Ngân hàng"
            },
            {
                "name": "Máy rút tiền ATM"
            }
        ]
    },
    {
        "name": "BIDV",
        "latitude": 10.90322,
        "longitude": 106.77313,
        "address": "BIDV, Đường Trần Hưng Đạo, Phường Đông Hòa, Dĩ An, Bình Dương, Việt Nam",
        "country_code": "VNM",
        "country_name": "Việt Nam",
        "city": "Bình Dương",
        "district": "Dĩ An",
        "ward": "Phường Đông Hòa",
        "street": "Đường Trần Hưng Đạo",
        "postal_code": "75308",
        "categories": [
            {
                "name": "Ngân hàng"
            }
        ]
    },
    {
        "name": "Sea Bank",
        "latitude": 10.91457,
        "longitude": 106.76957,
        "address": "Sea Bank, Đường Nguyễn An Ninh, Phường Dĩ An, Dĩ An, Bình Dương, Việt Nam",
        "country_code": "VNM",
        "country_name": "Việt Nam",
        "city": "Bình Dương",
        "district": "Dĩ An",
        "ward": "Phường Dĩ An",
        "street": "Đường Nguyễn An Ninh",
        "postal_code": "75306",
        "categories": [
            {
                "name": "Ngân hàng"
            }
        ]
    },
    {
        "name": "Quỹ Tín Dụng Nhân Dân Dĩ An",
        "latitude": 10.90471,
        "longitude": 106.77157,
        "address": "Quỹ Tín Dụng Nhân Dân Dĩ An, Đường Trần Hưng Đạo, Phường Dĩ An, Dĩ An, Bình Dương, Việt Nam",
        "country_code": "VNM",
        "country_name": "Việt Nam",
        "city": "Bình Dương",
        "district": "Dĩ An",
        "ward": "Phường Dĩ An",
        "street": "Đường Trần Hưng Đạo",
        "postal_code": "75306",
        "categories": [
            {
                "name": "Ngân hàng"
            },
            {
                "name": "Dịch vụ tài chính và bảo hiểm"
            }
        ]
    },
    {
        "name": "Ngân Hàng TNHH Indovina (I.V.B) - CN Bình Dương",
        "latitude": 10.91563,
        "longitude": 106.76921,
        "address": "Ngân Hàng TNHH Indovina (I.V.B) - CN Bình Dương, TL.743, Phường Dĩ An, Dĩ An, Bình Dương, Việt Nam",
        "country_code": "VNM",
        "country_name": "Việt Nam",
        "city": "Bình Dương",
        "district": "Dĩ An",
        "ward": "Phường Dĩ An",
        "street": "TL.743",
        "postal_code": "75306",
        "categories": [
            {
                "name": "Ngân hàng"
            }
        ]
    },
    {
        "name": "Ngân Hàng LienVietPostBank",
        "latitude": 10.90534,
        "longitude": 106.77085,
        "address": "Ngân Hàng LienVietPostBank, Đường Trần Hưng Đạo, Phường Dĩ An, Dĩ An, Bình Dương, Việt Nam",
        "country_code": "VNM",
        "country_name": "Việt Nam",
        "city": "Bình Dương",
        "district": "Dĩ An",
        "ward": "Phường Dĩ An",
        "street": "Đường Trần Hưng Đạo",
        "postal_code": "75306",
        "categories": [
            {
                "name": "Ngân hàng"
            }
        ]
    },
    {
        "name": "Vietcombank",
        "latitude": 10.89246,
        "longitude": 106.78462,
        "address": "Vietcombank, Đường Nguyễn Thị Út, Phường Đông Hòa, Dĩ An, Bình Dương, Việt Nam",
        "country_code": "VNM",
        "country_name": "Việt Nam",
        "city": "Bình Dương",
        "district": "Dĩ An",
        "ward": "Phường Đông Hòa",
        "street": "Đường Nguyễn Thị Út",
        "postal_code": "75308",
        "categories": [
            {
                "name": "Ngân hàng"
            }
        ]
    },
    {
        "name": "Ngh Habubank",
        "latitude": 10.90625,
        "longitude": 106.76998,
        "address": "Ngh Habubank, Đường Số 5, Phường Dĩ An, Dĩ An, Bình Dương, Việt Nam",
        "country_code": "VNM",
        "country_name": "Việt Nam",
        "city": "Bình Dương",
        "district": "Dĩ An",
        "ward": "Phường Dĩ An",
        "street": "Đường Số 5",
        "postal_code": "75306",
        "categories": [
            {
                "name": "Ngân hàng"
            }
        ]
    },
    {
        "name": "Ngân Hàng TMCP Sài Gòn-Hà Nội",
        "latitude": 10.90629,
        "longitude": 106.76992,
        "address": "Ngân Hàng TMCP Sài Gòn-Hà Nội, Đường Số 5, Phường Dĩ An, Dĩ An, Bình Dương, Việt Nam",
        "country_code": "VNM",
        "country_name": "Việt Nam",
        "city": "Bình Dương",
        "district": "Dĩ An",
        "ward": "Phường Dĩ An",
        "street": "Đường Số 5",
        "postal_code": "75306",
        "categories": [
            {
                "name": "Ngân hàng"
            }
        ]
    },
    {
        "name": "Ngân Hàng TMCP Đầu Tư Và Phát Triển Việt Nam",
        "latitude": 10.89862,
        "longitude": 106.80891,
        "address": "Ngân Hàng TMCP Đầu Tư Và Phát Triển Việt Nam, TL.743, Phường Bình Thắng, Dĩ An, Bình Dương, Việt Nam",
        "country_code": "VNM",
        "country_name": "Việt Nam",
        "city": "Bình Dương",
        "district": "Dĩ An",
        "ward": "Phường Bình Thắng",
        "street": "TL.743",
        "postal_code": "75309",
        "categories": [
            {
                "name": "Ngân hàng"
            }
        ]
    },
    {
        "name": "Techcombank Dĩ An",
        "latitude": 10.9062,
        "longitude": 106.76964,
        "address": "Techcombank Dĩ An, Đường Trần Hưng Đạo, Phường Dĩ An, Dĩ An, Bình Dương, Việt Nam",
        "country_code": "VNM",
        "country_name": "Việt Nam",
        "city": "Bình Dương",
        "district": "Dĩ An",
        "ward": "Phường Dĩ An",
        "street": "Đường Trần Hưng Đạo",
        "postal_code": "75306",
        "categories": [
            {
                "name": "Ngân hàng"
            }
        ]
    },
    {
        "name": "Sacombank",
        "latitude": 10.90635,
        "longitude": 106.76929,
        "address": "Sacombank, Đường Trần Hưng Đạo, Phường Dĩ An, Dĩ An, Bình Dương, Việt Nam",
        "country_code": "VNM",
        "country_name": "Việt Nam",
        "city": "Bình Dương",
        "district": "Dĩ An",
        "ward": "Phường Dĩ An",
        "street": "Đường Trần Hưng Đạo",
        "postal_code": "75306",
        "categories": [
            {
                "name": "Ngân hàng"
            }
        ]
    },
    {
        "name": "Ocb",
        "latitude": 10.90683,
        "longitude": 106.76898,
        "address": "Ocb, Đường Nguyễn An Ninh, Phường Dĩ An, Dĩ An, Bình Dương, Việt Nam",
        "country_code": "VNM",
        "country_name": "Việt Nam",
        "city": "Bình Dương",
        "district": "Dĩ An",
        "ward": "Phường Dĩ An",
        "street": "Đường Nguyễn An Ninh",
        "postal_code": "75306",
        "categories": [
            {
                "name": "Ngân hàng"
            }
        ]
    },
    {
        "name": "Ngân Hàng Nông Nghiệp Và Phát Triển Nông Thôn Việt Nam",
        "latitude": 10.90659,
        "longitude": 106.76897,
        "address": "Ngân Hàng Nông Nghiệp Và Phát Triển Nông Thôn Việt Nam, Đường Trần Hưng Đạo, Phường Dĩ An, Dĩ An, Bình Dương, Việt Nam",
        "country_code": "VNM",
        "country_name": "Việt Nam",
        "city": "Bình Dương",
        "district": "Dĩ An",
        "ward": "Phường Dĩ An",
        "street": "Đường Trần Hưng Đạo",
        "postal_code": "75306",
        "categories": [
            {
                "name": "Ngân hàng"
            }
        ]
    },
    {
        "name": "Agribank",
        "latitude": 10.90655,
        "longitude": 106.76887,
        "address": "Agribank, Đường Trần Hưng Đạo, Phường Dĩ An, Dĩ An, Bình Dương, Việt Nam",
        "country_code": "VNM",
        "country_name": "Việt Nam",
        "city": "Bình Dương",
        "district": "Dĩ An",
        "ward": "Phường Dĩ An",
        "street": "Đường Trần Hưng Đạo",
        "postal_code": "75306",
        "categories": [
            {
                "name": "Ngân hàng"
            }
        ]
    },
    {
        "name": "Donga Bank",
        "latitude": 10.89099,
        "longitude": 106.78473,
        "address": "Donga Bank, Đường Trần Hưng Đạo, Phường Đông Hòa, Dĩ An, Bình Dương, Việt Nam",
        "country_code": "VNM",
        "country_name": "Việt Nam",
        "city": "Bình Dương",
        "district": "Dĩ An",
        "ward": "Phường Đông Hòa",
        "street": "Đường Trần Hưng Đạo",
        "postal_code": "75308",
        "categories": [
            {
                "name": "Ngân hàng"
            }
        ]
    },
    {
        "name": "Ngân Hàng Ngoại Thương Việt Nam",
        "latitude": 10.89062,
        "longitude": 106.78501,
        "address": "Ngân Hàng Ngoại Thương Việt Nam, QL.1K, Phường Đông Hòa, Dĩ An, Bình Dương, Việt Nam",
        "country_code": "VNM",
        "country_name": "Việt Nam",
        "city": "Bình Dương",
        "district": "Dĩ An",
        "ward": "Phường Đông Hòa",
        "street": "QL.1K",
        "postal_code": "75308",
        "categories": [
            {
                "name": "Ngân hàng"
            },
            {
                "name": "Máy rút tiền ATM"
            }
        ]
    },
    {
        "name": "Eximbank",
        "latitude": 10.90554,
        "longitude": 106.76841,
        "address": "Eximbank, Đường Nguyễn An Ninh, Phường Dĩ An, Dĩ An, Bình Dương, Việt Nam",
        "country_code": "VNM",
        "country_name": "Việt Nam",
        "city": "Bình Dương",
        "district": "Dĩ An",
        "ward": "Phường Dĩ An",
        "street": "Đường Nguyễn An Ninh",
        "postal_code": "75306",
        "categories": [
            {
                "name": "Ngân hàng"
            }
        ]
    },
    {
        "name": "Ngân Hàng TMCP Quốc Tế Việt Nam-Phòng Giao Dịch Dĩ An",
        "latitude": 10.90499,
        "longitude": 106.76826,
        "address": "Ngân Hàng TMCP Quốc Tế Việt Nam-Phòng Giao Dịch Dĩ An, Đường Nguyễn An Ninh, Phường Dĩ An, Dĩ An, Bình Dương, Việt Nam",
        "country_code": "VNM",
        "country_name": "Việt Nam",
        "city": "Bình Dương",
        "district": "Dĩ An",
        "ward": "Phường Dĩ An",
        "street": "Đường Nguyễn An Ninh",
        "postal_code": "75306",
        "categories": [
            {
                "name": "Ngân hàng"
            }
        ]
    },
    {
        "name": "Ngân Hàng Chính Sách Xã Hội",
        "latitude": 10.93543,
        "longitude": 106.80503,
        "address": "Ngân Hàng Chính Sách Xã Hội, Đường Nguyễn Ái Quốc, Phường Hóa An, Biên Hòa, Đồng Nai, Việt Nam",
        "country_code": "VNM",
        "country_name": "Việt Nam",
        "city": "Đồng Nai",
        "district": "Biên Hòa",
        "ward": "Phường Hóa An",
        "street": "Đường Nguyễn Ái Quốc",
        "postal_code": "76123",
        "categories": [
            {
                "name": "Ngân hàng"
            }
        ]
    },
    {
        "name": "BIDV",
        "latitude": 10.90182,
        "longitude": 106.76786,
        "address": "BIDV, Hẻm 1 Đường Nguyễn An Ninh, Phường Dĩ An, Dĩ An, Bình Dương, Việt Nam",
        "country_code": "VNM",
        "country_name": "Việt Nam",
        "city": "Bình Dương",
        "district": "Dĩ An",
        "ward": "Phường Dĩ An",
        "street": "Hẻm 1 Đường Nguyễn An Ninh",
        "postal_code": "75306",
        "categories": [
            {
                "name": "Ngân hàng"
            },
            {
                "name": "Máy rút tiền ATM"
            }
        ]
    },
    {
        "name": "Ngân Hàng TM CP XNK Việt Nam (EximBank) - Phòng Giao Dịch Linh Xuân",
        "latitude": 10.8897,
        "longitude": 106.77961,
        "address": "Ngân Hàng TM CP XNK Việt Nam (EximBank) - Phòng Giao Dịch Linh Xuân, Xa Lộ Hà Nội, Phường Đông Hòa, Dĩ An, Bình Dương, Việt Nam",
        "country_code": "VNM",
        "country_name": "Việt Nam",
        "city": "Bình Dương",
        "district": "Dĩ An",
        "ward": "Phường Đông Hòa",
        "street": "Xa Lộ Hà Nội",
        "postal_code": "75308",
        "categories": [
            {
                "name": "Ngân hàng"
            }
        ]
    },
    {
        "name": "Viet Capital Bank",
        "latitude": 10.89897,
        "longitude": 106.76794,
        "address": "Viet Capital Bank, Đường Nguyễn An Ninh, Phường Dĩ An, Dĩ An, Bình Dương, Việt Nam",
        "country_code": "VNM",
        "country_name": "Việt Nam",
        "city": "Bình Dương",
        "district": "Dĩ An",
        "ward": "Phường Dĩ An",
        "street": "Đường Nguyễn An Ninh",
        "postal_code": "75306",
        "categories": [
            {
                "name": "Ngân hàng"
            }
        ]
    },
    {
        "name": "Ngân Hàng AgriBank Phòng Giao Dịch Hóa An",
        "latitude": 10.93926,
        "longitude": 106.80401,
        "address": "Ngân Hàng AgriBank Phòng Giao Dịch Hóa An, Đường Nguyễn Ái Quốc, Phường Hóa An, Biên Hòa, Đồng Nai, Việt Nam",
        "country_code": "VNM",
        "country_name": "Việt Nam",
        "city": "Đồng Nai",
        "district": "Biên Hòa",
        "ward": "Phường Hóa An",
        "street": "Đường Nguyễn Ái Quốc",
        "postal_code": "76123",
        "categories": [
            {
                "name": "Ngân hàng"
            }
        ]
    },
    {
        "name": "Quỹ Tín Dụng Nhân Dân Cơ Sở Thanh Bình-Phòng Giao Dịch Hóa An",
        "latitude": 10.94052,
        "longitude": 106.80407,
        "address": "Quỹ Tín Dụng Nhân Dân Cơ Sở Thanh Bình-Phòng Giao Dịch Hóa An, Đường Nguyễn Ái Quốc, Phường Hóa An, Biên Hòa, Đồng Nai, Việt Nam",
        "country_code": "VNM",
        "country_name": "Việt Nam",
        "city": "Đồng Nai",
        "district": "Biên Hòa",
        "ward": "Phường Hóa An",
        "street": "Đường Nguyễn Ái Quốc",
        "postal_code": "76123",
        "categories": [
            {
                "name": "Ngân hàng"
            }
        ]
    },
    {
        "name": "Bidv",
        "latitude": 10.89715,
        "longitude": 106.76754,
        "address": "Bidv, Đường Nguyễn An Ninh, Phường Dĩ An, Dĩ An, Bình Dương, Việt Nam",
        "country_code": "VNM",
        "country_name": "Việt Nam",
        "city": "Bình Dương",
        "district": "Dĩ An",
        "ward": "Phường Dĩ An",
        "street": "Đường Nguyễn An Ninh",
        "postal_code": "75306",
        "categories": [
            {
                "name": "Ngân hàng"
            },
            {
                "name": "Máy rút tiền ATM"
            }
        ]
    },
    {
        "name": "Vietinbank",
        "latitude": 10.895,
        "longitude": 106.76845,
        "address": "Vietinbank, Đường GS1, Phường Đông Hòa, Dĩ An, Bình Dương, Việt Nam",
        "country_code": "VNM",
        "country_name": "Việt Nam",
        "city": "Bình Dương",
        "district": "Dĩ An",
        "ward": "Phường Đông Hòa",
        "street": "Đường GS1",
        "postal_code": "75308",
        "categories": [
            {
                "name": "Ngân hàng"
            }
        ]
    },
    {
        "name": "SHB",
        "latitude": 10.89551,
        "longitude": 106.76716,
        "address": "SHB, Đường Nguyễn An Ninh, Phường Dĩ An, Dĩ An, Bình Dương, Việt Nam",
        "country_code": "VNM",
        "country_name": "Việt Nam",
        "city": "Bình Dương",
        "district": "Dĩ An",
        "ward": "Phường Dĩ An",
        "street": "Đường Nguyễn An Ninh",
        "postal_code": "75306",
        "categories": [
            {
                "name": "Ngân hàng"
            }
        ]
    },
    {
        "name": "Ngân Hàng Á Châu",
        "latitude": 10.89541,
        "longitude": 106.76713,
        "address": "Ngân Hàng Á Châu, Đường Nguyễn An Ninh, Phường Dĩ An, Dĩ An, Bình Dương, Việt Nam",
        "country_code": "VNM",
        "country_name": "Việt Nam",
        "city": "Bình Dương",
        "district": "Dĩ An",
        "ward": "Phường Dĩ An",
        "street": "Đường Nguyễn An Ninh",
        "postal_code": "75306",
        "categories": [
            {
                "name": "Ngân hàng"
            },
            {
                "name": "Máy rút tiền ATM"
            }
        ]
    },
    {
        "name": "Ngân Hàng TMCP Tiên Phong-Chi Nhánh Dĩ An",
        "latitude": 10.89456,
        "longitude": 106.76731,
        "address": "Ngân Hàng TMCP Tiên Phong-Chi Nhánh Dĩ An, Đường Nguyễn An Ninh, Phường Dĩ An, Dĩ An, Bình Dương, Việt Nam",
        "country_code": "VNM",
        "country_name": "Việt Nam",
        "city": "Bình Dương",
        "district": "Dĩ An",
        "ward": "Phường Dĩ An",
        "street": "Đường Nguyễn An Ninh",
        "postal_code": "75306",
        "categories": [
            {
                "name": "Ngân hàng"
            }
        ]
    },
    {
        "name": "Tpbank",
        "latitude": 10.89443,
        "longitude": 106.76694,
        "address": "Tpbank, Đường Nguyễn An Ninh, Phường Dĩ An, Dĩ An, Bình Dương, Việt Nam",
        "country_code": "VNM",
        "country_name": "Việt Nam",
        "city": "Bình Dương",
        "district": "Dĩ An",
        "ward": "Phường Dĩ An",
        "street": "Đường Nguyễn An Ninh",
        "postal_code": "75306",
        "categories": [
            {
                "name": "Ngân hàng"
            }
        ]
    },
    {
        "name": "Baoviet Bank",
        "latitude": 10.89422,
        "longitude": 106.76695,
        "address": "Baoviet Bank, Đường Nguyễn An Ninh, Phường Đông Hòa, Dĩ An, Bình Dương, Việt Nam",
        "country_code": "VNM",
        "country_name": "Việt Nam",
        "city": "Bình Dương",
        "district": "Dĩ An",
        "ward": "Phường Đông Hòa",
        "street": "Đường Nguyễn An Ninh",
        "postal_code": "75308",
        "categories": [
            {
                "name": "Ngân hàng"
            }
        ]
    },
    {
        "name": "Ngân Hàng Chính Sách Xã Hội-Điểm Giao Dịch Phường Bửu Hòa",
        "latitude": 10.92857,
        "longitude": 106.82047,
        "address": "Ngân Hàng Chính Sách Xã Hội-Điểm Giao Dịch Phường Bửu Hòa, Đường Nguyễn Tri Phương, Phường Bửu Hòa, Biên Hòa, Đồng Nai, Việt Nam",
        "country_code": "VNM",
        "country_name": "Việt Nam",
        "city": "Đồng Nai",
        "district": "Biên Hòa",
        "ward": "Phường Bửu Hòa",
        "street": "Đường Nguyễn Tri Phương",
        "postal_code": "76125",
        "categories": [
            {
                "name": "Ngân hàng"
            }
        ]
    },
    {
        "name": "Ngân Hàng TMCP Phát Triển TP.HCM-Phòng Giao Dịch Quang Vinh",
        "latitude": 10.93889,
        "longitude": 106.81217,
        "address": "Ngân Hàng TMCP Phát Triển TP.HCM-Phòng Giao Dịch Quang Vinh, Đường Bùi Hữu Nghĩa, Phường Hóa An, Biên Hòa, Đồng Nai, Việt Nam",
        "country_code": "VNM",
        "country_name": "Việt Nam",
        "city": "Đồng Nai",
        "district": "Biên Hòa",
        "ward": "Phường Hóa An",
        "street": "Đường Bùi Hữu Nghĩa",
        "postal_code": "76123",
        "categories": [
            {
                "name": "Ngân hàng"
            }
        ]
    },
    {
        "name": "Ngân Hàng Phát Triển Nhà TP. HCM",
        "latitude": 10.93889,
        "longitude": 106.81217,
        "address": "Ngân Hàng Phát Triển Nhà TP. HCM, Đường Bùi Hữu Nghĩa, Phường Hóa An, Biên Hòa, Đồng Nai, Việt Nam",
        "country_code": "VNM",
        "country_name": "Việt Nam",
        "city": "Đồng Nai",
        "district": "Biên Hòa",
        "ward": "Phường Hóa An",
        "street": "Đường Bùi Hữu Nghĩa",
        "postal_code": "76123",
        "categories": [
            {
                "name": "Ngân hàng"
            },
            {
                "name": "Máy rút tiền ATM"
            }
        ]
    },
    {
        "name": "Ngân Hàng TM CP Công Thương Việt Nam (Vietinbank) - CN KCN Bình Dương",
        "latitude": 10.89645,
        "longitude": 106.76462,
        "address": "Ngân Hàng TM CP Công Thương Việt Nam (Vietinbank) - CN KCN Bình Dương, Đường Số 1, Phường Dĩ An, Dĩ An, Bình Dương, Việt Nam",
        "country_code": "VNM",
        "country_name": "Việt Nam",
        "city": "Bình Dương",
        "district": "Dĩ An",
        "ward": "Phường Dĩ An",
        "street": "Đường Số 1",
        "postal_code": "75306",
        "categories": [
            {
                "name": "Ngân hàng"
            }
        ]
    },
    {
        "name": "Cty Cho Thuê Tài Chính 2 - Ng.H NN&PT Nông Thôn VN (Alc 2) - CN Bình Dương",
        "latitude": 10.89645,
        "longitude": 106.76462,
        "address": "Cty Cho Thuê Tài Chính 2 - Ng.H NN&PT Nông Thôn VN (Alc 2) - CN Bình Dương, Đường Số 1, Phường Dĩ An, Dĩ An, Bình Dương, Việt Nam",
        "country_code": "VNM",
        "country_name": "Việt Nam",
        "city": "Bình Dương",
        "district": "Dĩ An",
        "ward": "Phường Dĩ An",
        "street": "Đường Số 1",
        "postal_code": "75306",
        "categories": [
            {
                "name": "Ngân hàng"
            }
        ]
    },
    {
        "name": "VPBank",
        "latitude": 10.89306,
        "longitude": 106.76721,
        "address": "VPBank, Đường Nguyễn An Ninh, Phường Đông Hòa, Dĩ An, Bình Dương, Việt Nam",
        "country_code": "VNM",
        "country_name": "Việt Nam",
        "city": "Bình Dương",
        "district": "Dĩ An",
        "ward": "Phường Đông Hòa",
        "street": "Đường Nguyễn An Ninh",
        "postal_code": "75308",
        "categories": [
            {
                "name": "Ngân hàng"
            },
            {
                "name": "Máy rút tiền ATM"
            }
        ]
    },
    {
        "name": "Ngân Hàng Công Thương Việt Nam",
        "latitude": 10.92889,
        "longitude": 106.821,
        "address": "Ngân Hàng Công Thương Việt Nam, Đường Nguyễn Tri Phương, Phường Bửu Hòa, Biên Hòa, Đồng Nai, Việt Nam",
        "country_code": "VNM",
        "country_name": "Việt Nam",
        "city": "Đồng Nai",
        "district": "Biên Hòa",
        "ward": "Phường Bửu Hòa",
        "street": "Đường Nguyễn Tri Phương",
        "postal_code": "76125",
        "categories": [
            {
                "name": "Ngân hàng"
            },
            {
                "name": "Máy rút tiền ATM"
            }
        ]
    },
    {
        "name": "VIB",
        "latitude": 10.8927,
        "longitude": 106.76709,
        "address": "VIB, Đường Số 4, Phường Dĩ An, Dĩ An, Bình Dương, Việt Nam",
        "country_code": "VNM",
        "country_name": "Việt Nam",
        "city": "Bình Dương",
        "district": "Dĩ An",
        "ward": "Phường Dĩ An",
        "street": "Đường Số 4",
        "postal_code": "75306",
        "categories": [
            {
                "name": "Ngân hàng"
            }
        ]
    },
    {
        "name": "Ngân Hàng TMCP Công Thương Việt Nam-Phòng Giao Dịch Bửu Hòa",
        "latitude": 10.92963,
        "longitude": 106.82106,
        "address": "Ngân Hàng TMCP Công Thương Việt Nam-Phòng Giao Dịch Bửu Hòa, Đường Bùi Hữu Nghĩa, Phường Bửu Hòa, Biên Hòa, Đồng Nai, Việt Nam",
        "country_code": "VNM",
        "country_name": "Việt Nam",
        "city": "Đồng Nai",
        "district": "Biên Hòa",
        "ward": "Phường Bửu Hòa",
        "street": "Đường Bùi Hữu Nghĩa",
        "postal_code": "76125",
        "categories": [
            {
                "name": "Ngân hàng"
            }
        ]
    },
    {
        "name": "Vietcombank",
        "latitude": 10.89164,
        "longitude": 106.76644,
        "address": "Vietcombank, Đường Số 8, Phường Dĩ An, Dĩ An, Bình Dương, Việt Nam",
        "country_code": "VNM",
        "country_name": "Việt Nam",
        "city": "Bình Dương",
        "district": "Dĩ An",
        "ward": "Phường Dĩ An",
        "street": "Đường Số 8",
        "postal_code": "75306",
        "categories": [
            {
                "name": "Ngân hàng"
            }
        ]
    },
    {
        "name": "Ngân Hàng TMCP Bản Việt-Phòng Giao Dịch Hóa An",
        "latitude": 10.91752,
        "longitude": 106.82574,
        "address": "Ngân Hàng TMCP Bản Việt-Phòng Giao Dịch Hóa An, Đường Bùi Hữu Nghĩa, Phường Tân Vạn, Biên Hòa, Đồng Nai, Việt Nam",
        "country_code": "VNM",
        "country_name": "Việt Nam",
        "city": "Đồng Nai",
        "district": "Biên Hòa",
        "ward": "Phường Tân Vạn",
        "street": "Đường Bùi Hữu Nghĩa",
        "postal_code": "76124",
        "categories": [
            {
                "name": "Ngân hàng"
            }
        ]
    },
    {
        "name": "Donga Bank",
        "latitude": 10.94139,
        "longitude": 106.77091,
        "address": "Donga Bank, Đường Nguyễn Thị Minh Khai, Phường Tân Bình, Dĩ An, Bình Dương, Việt Nam",
        "country_code": "VNM",
        "country_name": "Việt Nam",
        "city": "Bình Dương",
        "district": "Dĩ An",
        "ward": "Phường Tân Bình",
        "street": "Đường Nguyễn Thị Minh Khai",
        "postal_code": "75312",
        "categories": [
            {
                "name": "Ngân hàng"
            }
        ]
    },
    {
        "name": "Ngân Hàng Nông Nghiệp Và Phát Triển Nông Thôn Việt Nam",
        "latitude": 10.89333,
        "longitude": 106.76371,
        "address": "Ngân Hàng Nông Nghiệp Và Phát Triển Nông Thôn Việt Nam, Đường T, Phường Dĩ An, Dĩ An, Bình Dương, Việt Nam",
        "country_code": "VNM",
        "country_name": "Việt Nam",
        "city": "Bình Dương",
        "district": "Dĩ An",
        "ward": "Phường Dĩ An",
        "street": "Đường T",
        "postal_code": "75306",
        "categories": [
            {
                "name": "Ngân hàng"
            }
        ]
    },
    {
        "name": "Ngân Hàng Công Thương Việt Nam",
        "latitude": 10.90608,
        "longitude": 106.7575,
        "address": "Ngân Hàng Công Thương Việt Nam, Đường Nguyễn Trãi, Phường Dĩ An, Dĩ An, Bình Dương, Việt Nam",
        "country_code": "VNM",
        "country_name": "Việt Nam",
        "city": "Bình Dương",
        "district": "Dĩ An",
        "ward": "Phường Dĩ An",
        "street": "Đường Nguyễn Trãi",
        "postal_code": "75306",
        "categories": [
            {
                "name": "Ngân hàng"
            },
            {
                "name": "Máy rút tiền ATM"
            }
        ]
    },
    {
        "name": "AgriBank",
        "latitude": 10.89305,
        "longitude": 106.76364,
        "address": "AgriBank, Đường T, Phường Dĩ An, Dĩ An, Bình Dương, Việt Nam",
        "country_code": "VNM",
        "country_name": "Việt Nam",
        "city": "Bình Dương",
        "district": "Dĩ An",
        "ward": "Phường Dĩ An",
        "street": "Đường T",
        "postal_code": "75306",
        "categories": [
            {
                "name": "Ngân hàng"
            },
            {
                "name": "Máy rút tiền ATM"
            }
        ]
    },
    {
        "name": "Ngân Hàng TMCP Công Thương Việt Nam",
        "latitude": 10.89196,
        "longitude": 106.76438,
        "address": "Ngân Hàng TMCP Công Thương Việt Nam, Đường Số 9, Phường Dĩ An, Dĩ An, Bình Dương, Việt Nam",
        "country_code": "VNM",
        "country_name": "Việt Nam",
        "city": "Bình Dương",
        "district": "Dĩ An",
        "ward": "Phường Dĩ An",
        "street": "Đường Số 9",
        "postal_code": "75306",
        "categories": [
            {
                "name": "Ngân hàng"
            }
        ]
    },
    {
        "name": "Ngân Hàng Phát Triển Nhà TP. HCM",
        "latitude": 10.90589,
        "longitude": 106.75703,
        "address": "Ngân Hàng Phát Triển Nhà TP. HCM, Đường Nguyễn Trãi, Phường Dĩ An, Dĩ An, Bình Dương, Việt Nam",
        "country_code": "VNM",
        "country_name": "Việt Nam",
        "city": "Bình Dương",
        "district": "Dĩ An",
        "ward": "Phường Dĩ An",
        "street": "Đường Nguyễn Trãi",
        "postal_code": "75306",
        "categories": [
            {
                "name": "Ngân hàng"
            }
        ]
    },
    {
        "name": "Sacombank",
        "latitude": 10.88722,
        "longitude": 106.76824,
        "address": "Sacombank, Đường Số 11, Phường Linh Xuân, Thủ Đức, Hồ Chí Minh, Việt Nam",
        "country_code": "VNM",
        "country_name": "Việt Nam",
        "city": "Hồ Chí Minh",
        "district": "Thủ Đức",
        "ward": "Phường Linh Xuân",
        "street": "Đường Số 11",
        "postal_code": "71309",
        "categories": [
            {
                "name": "Ngân hàng"
            }
        ]
    },
    {
        "name": "Ngân Hàng Chính Sách Xã Hội-Điểm Giao Dịch Phường Tân Vạn",
        "latitude": 10.91183,
        "longitude": 106.82804,
        "address": "Ngân Hàng Chính Sách Xã Hội-Điểm Giao Dịch Phường Tân Vạn, Đường Bùi Hữu Nghĩa, Phường Tân Vạn, Biên Hòa, Đồng Nai, Việt Nam",
        "country_code": "VNM",
        "country_name": "Việt Nam",
        "city": "Đồng Nai",
        "district": "Biên Hòa",
        "ward": "Phường Tân Vạn",
        "street": "Đường Bùi Hữu Nghĩa",
        "postal_code": "76124",
        "categories": [
            {
                "name": "Ngân hàng"
            }
        ]
    },
    {
        "name": "Acb KCN Sóng Thần",
        "latitude": 10.90321,
        "longitude": 106.75538,
        "address": "Acb KCN Sóng Thần, Đường Nguyễn Trãi, Phường Dĩ An, Dĩ An, Bình Dương, Việt Nam",
        "country_code": "VNM",
        "country_name": "Việt Nam",
        "city": "Bình Dương",
        "district": "Dĩ An",
        "ward": "Phường Dĩ An",
        "street": "Đường Nguyễn Trãi",
        "postal_code": "75306",
        "categories": [
            {
                "name": "Ngân hàng"
            }
        ]
    },
    {
        "name": "Tpbank",
        "latitude": 10.9485,
        "longitude": 106.81198,
        "address": "Tpbank, Đường Huỳnh Văn Lũy, Phường Hòa Bình, Biên Hòa, Đồng Nai, Việt Nam",
        "country_code": "VNM",
        "country_name": "Việt Nam",
        "city": "Đồng Nai",
        "district": "Biên Hòa",
        "ward": "Phường Hòa Bình",
        "street": "Đường Huỳnh Văn Lũy",
        "postal_code": "76122",
        "categories": [
            {
                "name": "Ngân hàng"
            }
        ]
    },
    {
        "name": "Ngân Hàng Chính Sách Xã Hội-Điểm Giao Dịch Xã Hiệp Hòa",
        "latitude": 10.93327,
        "longitude": 106.82743,
        "address": "Ngân Hàng Chính Sách Xã Hội-Điểm Giao Dịch Xã Hiệp Hòa, Đường Đỗ Văn Thi, Phường Hiệp Hòa, Biên Hòa, Đồng Nai, Việt Nam",
        "country_code": "VNM",
        "country_name": "Việt Nam",
        "city": "Đồng Nai",
        "district": "Biên Hòa",
        "ward": "Phường Hiệp Hòa",
        "street": "Đường Đỗ Văn Thi",
        "postal_code": "76126",
        "categories": [
            {
                "name": "Ngân hàng"
            }
        ]
    },
    {
        "name": "Ngân Hàng TM CP Quân Đội (Military Bank) - CN Bắc Sài Gòn",
        "latitude": 10.88032,
        "longitude": 106.81387,
        "address": "Ngân Hàng TM CP Quân Đội (Military Bank) - CN Bắc Sài Gòn, Đường Số 1, Phường Bình An, Dĩ An, Bình Dương, Việt Nam",
        "country_code": "VNM",
        "country_name": "Việt Nam",
        "city": "Bình Dương",
        "district": "Dĩ An",
        "ward": "Phường Bình An",
        "street": "Đường Số 1",
        "postal_code": "75310",
        "categories": [
            {
                "name": "Ngân hàng"
            }
        ]
    },
    {
        "name": "Ngân Hàng HD Bank",
        "latitude": 10.94641,
        "longitude": 106.81612,
        "address": "Ngân Hàng HD Bank, Đường Nguyễn Trãi, Phường Thanh Bình, Biên Hòa, Đồng Nai, Việt Nam",
        "country_code": "VNM",
        "country_name": "Việt Nam",
        "city": "Đồng Nai",
        "district": "Biên Hòa",
        "ward": "Phường Thanh Bình",
        "street": "Đường Nguyễn Trãi",
        "postal_code": "76106",
        "categories": [
            {
                "name": "Ngân hàng"
            }
        ]
    },
    {
        "name": "Đại Á (Daia Bank)",
        "latitude": 10.94644,
        "longitude": 106.81614,
        "address": "Đại Á (Daia Bank), Đường Nguyễn Trãi, Phường Thanh Bình, Biên Hòa, Đồng Nai, Việt Nam",
        "country_code": "VNM",
        "country_name": "Việt Nam",
        "city": "Đồng Nai",
        "district": "Biên Hòa",
        "ward": "Phường Thanh Bình",
        "street": "Đường Nguyễn Trãi",
        "postal_code": "76106",
        "categories": [
            {
                "name": "Ngân hàng"
            }
        ]
    },
    {
        "name": "Ngân Hàng Phát Triển Nhà TP. HCM",
        "latitude": 10.94644,
        "longitude": 106.81614,
        "address": "Ngân Hàng Phát Triển Nhà TP. HCM, Đường Nguyễn Trãi, Phường Thanh Bình, Biên Hòa, Đồng Nai, Việt Nam",
        "country_code": "VNM",
        "country_name": "Việt Nam",
        "city": "Đồng Nai",
        "district": "Biên Hòa",
        "ward": "Phường Thanh Bình",
        "street": "Đường Nguyễn Trãi",
        "postal_code": "76106",
        "categories": [
            {
                "name": "Ngân hàng"
            }
        ]
    },
    {
        "name": "Ngân Hàng Công Thương Việt Nam",
        "latitude": 10.94779,
        "longitude": 106.81493,
        "address": "Ngân Hàng Công Thương Việt Nam, Đường Phan Chu Trinh, Phường Hòa Bình, Biên Hòa, Đồng Nai, Việt Nam",
        "country_code": "VNM",
        "country_name": "Việt Nam",
        "city": "Đồng Nai",
        "district": "Biên Hòa",
        "ward": "Phường Hòa Bình",
        "street": "Đường Phan Chu Trinh",
        "postal_code": "76122",
        "categories": [
            {
                "name": "Ngân hàng"
            },
            {
                "name": "Máy rút tiền ATM"
            }
        ]
    },
    {
        "name": "Ngân Hàng Công Thương Việt Nam",
        "latitude": 10.94688,
        "longitude": 106.81645,
        "address": "Ngân Hàng Công Thương Việt Nam, Đường Nguyễn Trãi, Phường Thanh Bình, Biên Hòa, Đồng Nai, Việt Nam",
        "country_code": "VNM",
        "country_name": "Việt Nam",
        "city": "Đồng Nai",
        "district": "Biên Hòa",
        "ward": "Phường Thanh Bình",
        "street": "Đường Nguyễn Trãi",
        "postal_code": "76106",
        "categories": [
            {
                "name": "Ngân hàng"
            },
            {
                "name": "Máy rút tiền ATM"
            }
        ]
    },
    {
        "name": "Ngân Hàng Phát Triển Nhà TP. HCM",
        "latitude": 10.95475,
        "longitude": 106.79629,
        "address": "Ngân Hàng Phát Triển Nhà TP. HCM, Đường Huỳnh Văn Nghệ, Phường Bửu Long, Biên Hòa, Đồng Nai, Việt Nam",
        "country_code": "VNM",
        "country_name": "Việt Nam",
        "city": "Đồng Nai",
        "district": "Biên Hòa",
        "ward": "Phường Bửu Long",
        "street": "Đường Huỳnh Văn Nghệ",
        "postal_code": "76120",
        "categories": [
            {
                "name": "Ngân hàng"
            },
            {
                "name": "Máy rút tiền ATM"
            }
        ]
    },
    {
        "name": "HD Bank Bửu Long",
        "latitude": 10.95426,
        "longitude": 106.79982,
        "address": "HD Bank Bửu Long, Đường Huỳnh Văn Nghệ, Phường Bửu Long, Biên Hòa, Đồng Nai, Việt Nam",
        "country_code": "VNM",
        "country_name": "Việt Nam",
        "city": "Đồng Nai",
        "district": "Biên Hòa",
        "ward": "Phường Bửu Long",
        "street": "Đường Huỳnh Văn Nghệ",
        "postal_code": "76120",
        "categories": [
            {
                "name": "Ngân hàng"
            }
        ]
    },
    {
        "name": "Ngh Bidv",
        "latitude": 10.94883,
        "longitude": 106.81381,
        "address": "Ngh Bidv, Đường Hoàng Minh Châu, Phường Hòa Bình, Biên Hòa, Đồng Nai, Việt Nam",
        "country_code": "VNM",
        "country_name": "Việt Nam",
        "city": "Đồng Nai",
        "district": "Biên Hòa",
        "ward": "Phường Hòa Bình",
        "street": "Đường Hoàng Minh Châu",
        "postal_code": "76122",
        "categories": [
            {
                "name": "Ngân hàng"
            }
        ]
    },
    {
        "name": "Ngân Hàng An Bình",
        "latitude": 10.94819,
        "longitude": 106.81501,
        "address": "Ngân Hàng An Bình, Đường Cách Mạng Tháng 8, Phường Hòa Bình, Biên Hòa, Đồng Nai, Việt Nam",
        "country_code": "VNM",
        "country_name": "Việt Nam",
        "city": "Đồng Nai",
        "district": "Biên Hòa",
        "ward": "Phường Hòa Bình",
        "street": "Đường Cách Mạng Tháng 8",
        "postal_code": "76122",
        "categories": [
            {
                "name": "Ngân hàng"
            },
            {
                "name": "Máy rút tiền ATM"
            }
        ]
    },
    {
        "name": "Ngân Hàng TMCP An Bình-Phòng Giao Dịch Chợ Biên Hòa",
        "latitude": 10.94819,
        "longitude": 106.81505,
        "address": "Ngân Hàng TMCP An Bình-Phòng Giao Dịch Chợ Biên Hòa, Đường Cách Mạng Tháng 8, Phường Hòa Bình, Biên Hòa, Đồng Nai, Việt Nam",
        "country_code": "VNM",
        "country_name": "Việt Nam",
        "city": "Đồng Nai",
        "district": "Biên Hòa",
        "ward": "Phường Hòa Bình",
        "street": "Đường Cách Mạng Tháng 8",
        "postal_code": "76122",
        "categories": [
            {
                "name": "Ngân hàng"
            }
        ]
    },
    {
        "name": "Ngân Hàng Đầu Tư & Phát Triển Việt Nam - PGD Thanh Bình",
        "latitude": 10.94684,
        "longitude": 106.81705,
        "address": "Ngân Hàng Đầu Tư & Phát Triển Việt Nam - PGD Thanh Bình, 5 Đường Cách Mạng Tháng 8, Phường Thanh Bình, Biên Hòa, Đồng Nai, Việt Nam",
        "country_code": "VNM",
        "country_name": "Việt Nam",
        "city": "Đồng Nai",
        "district": "Biên Hòa",
        "ward": "Phường Thanh Bình",
        "street": "Đường Cách Mạng Tháng 8",
        "postal_code": "76106",
        "categories": [
            {
                "name": "Ngân hàng"
            }
        ]
    },
    {
        "name": "Ngân Hàng Đầu Tư Và Phát Triển",
        "latitude": 10.94684,
        "longitude": 106.81705,
        "address": "Ngân Hàng Đầu Tư Và Phát Triển, 5 Đường Cách Mạng Tháng 8, Phường Thanh Bình, Biên Hòa, Đồng Nai, Việt Nam",
        "country_code": "VNM",
        "country_name": "Việt Nam",
        "city": "Đồng Nai",
        "district": "Biên Hòa",
        "ward": "Phường Thanh Bình",
        "street": "Đường Cách Mạng Tháng 8",
        "postal_code": "76106",
        "categories": [
            {
                "name": "Ngân hàng"
            },
            {
                "name": "Máy rút tiền ATM"
            }
        ]
    },
    {
        "name": "Ngân Hàng TMCP Phát Triển TP.HCM",
        "latitude": 10.94156,
        "longitude": 106.82289,
        "address": "Ngân Hàng TMCP Phát Triển TP.HCM, Đường Cách Mạng Tháng 8, Phường Quyết Thắng, Biên Hòa, Đồng Nai, Việt Nam",
        "country_code": "VNM",
        "country_name": "Việt Nam",
        "city": "Đồng Nai",
        "district": "Biên Hòa",
        "ward": "Phường Quyết Thắng",
        "street": "Đường Cách Mạng Tháng 8",
        "postal_code": "76107",
        "categories": [
            {
                "name": "Ngân hàng"
            }
        ]
    },
    {
        "name": "Ngân Hàng TMCP Phát Triển TP.HCM-Phòng Giao Dịch Quyết Thắng",
        "latitude": 10.94418,
        "longitude": 106.8203,
        "address": "Ngân Hàng TMCP Phát Triển TP.HCM-Phòng Giao Dịch Quyết Thắng, Đường Cách Mạng Tháng 8, Phường Quyết Thắng, Biên Hòa, Đồng Nai, Việt Nam",
        "country_code": "VNM",
        "country_name": "Việt Nam",
        "city": "Đồng Nai",
        "district": "Biên Hòa",
        "ward": "Phường Quyết Thắng",
        "street": "Đường Cách Mạng Tháng 8",
        "postal_code": "76107",
        "categories": [
            {
                "name": "Ngân hàng"
            }
        ]
    },
    {
        "name": "Ngân Hàng Phát Triển Nhà TP. HCM",
        "latitude": 10.94418,
        "longitude": 106.8203,
        "address": "Ngân Hàng Phát Triển Nhà TP. HCM, Đường Cách Mạng Tháng 8, Phường Quyết Thắng, Biên Hòa, Đồng Nai, Việt Nam",
        "country_code": "VNM",
        "country_name": "Việt Nam",
        "city": "Đồng Nai",
        "district": "Biên Hòa",
        "ward": "Phường Quyết Thắng",
        "street": "Đường Cách Mạng Tháng 8",
        "postal_code": "76107",
        "categories": [
            {
                "name": "Ngân hàng"
            },
            {
                "name": "Máy rút tiền ATM"
            }
        ]
    },
    {
        "name": "Ngân Hàng Nhà Nước Việt Nam Chi Nhánh Đồng Nai",
        "latitude": 10.94402,
        "longitude": 106.82051,
        "address": "Ngân Hàng Nhà Nước Việt Nam Chi Nhánh Đồng Nai, Đường Cách Mạng Tháng 8, Phường Quyết Thắng, Biên Hòa, Đồng Nai, Việt Nam",
        "country_code": "VNM",
        "country_name": "Việt Nam",
        "city": "Đồng Nai",
        "district": "Biên Hòa",
        "ward": "Phường Quyết Thắng",
        "street": "Đường Cách Mạng Tháng 8",
        "postal_code": "76107",
        "categories": [
            {
                "name": "Ngân hàng"
            }
        ]
    },
    {
        "name": "Đại Á (Daia Bank)",
        "latitude": 10.94108,
        "longitude": 106.82344,
        "address": "Đại Á (Daia Bank), Đường Cách Mạng Tháng 8, Phường Quyết Thắng, Biên Hòa, Đồng Nai, Việt Nam",
        "country_code": "VNM",
        "country_name": "Việt Nam",
        "city": "Đồng Nai",
        "district": "Biên Hòa",
        "ward": "Phường Quyết Thắng",
        "street": "Đường Cách Mạng Tháng 8",
        "postal_code": "76107",
        "categories": [
            {
                "name": "Ngân hàng"
            }
        ]
    },
    {
        "name": "Ngân Hàng TMCP Phương Đông-Chi Nhánh Đồng Nai-Phòng Giao Dịch Biên Hòa",
        "latitude": 10.94843,
        "longitude": 106.81497,
        "address": "Ngân Hàng TMCP Phương Đông-Chi Nhánh Đồng Nai-Phòng Giao Dịch Biên Hòa, Đường Cách Mạng Tháng 8, Phường Hòa Bình, Biên Hòa, Đồng Nai, Việt Nam",
        "country_code": "VNM",
        "country_name": "Việt Nam",
        "city": "Đồng Nai",
        "district": "Biên Hòa",
        "ward": "Phường Hòa Bình",
        "street": "Đường Cách Mạng Tháng 8",
        "postal_code": "76122",
        "categories": [
            {
                "name": "Ngân hàng"
            }
        ]
    },
    {
        "name": "Ocb",
        "latitude": 10.94839,
        "longitude": 106.81511,
        "address": "Ocb, Đường Phan Chu Trinh, Phường Quang Vinh, Biên Hòa, Đồng Nai, Việt Nam",
        "country_code": "VNM",
        "country_name": "Việt Nam",
        "city": "Đồng Nai",
        "district": "Biên Hòa",
        "ward": "Phường Quang Vinh",
        "street": "Đường Phan Chu Trinh",
        "postal_code": "76119",
        "categories": [
            {
                "name": "Ngân hàng"
            },
            {
                "name": "Dịch vụ tài chính và bảo hiểm"
            }
        ]
    },
    {
        "name": "Donga Bank",
        "latitude": 10.95409,
        "longitude": 106.80212,
        "address": "Donga Bank, Đường Huỳnh Văn Nghệ, Phường Bửu Long, Biên Hòa, Đồng Nai, Việt Nam",
        "country_code": "VNM",
        "country_name": "Việt Nam",
        "city": "Đồng Nai",
        "district": "Biên Hòa",
        "ward": "Phường Bửu Long",
        "street": "Đường Huỳnh Văn Nghệ",
        "postal_code": "76120",
        "categories": [
            {
                "name": "Ngân hàng"
            },
            {
                "name": "Máy rút tiền ATM"
            }
        ]
    },
    {
        "name": "Ngân Hàng TMCP Phát Triển TP.HCM-Sở Giao Dịch Đồng Nai",
        "latitude": 10.94838,
        "longitude": 106.81514,
        "address": "Ngân Hàng TMCP Phát Triển TP.HCM-Sở Giao Dịch Đồng Nai, Đường Phan Chu Trinh, Phường Quang Vinh, Biên Hòa, Đồng Nai, Việt Nam",
        "country_code": "VNM",
        "country_name": "Việt Nam",
        "city": "Đồng Nai",
        "district": "Biên Hòa",
        "ward": "Phường Quang Vinh",
        "street": "Đường Phan Chu Trinh",
        "postal_code": "76119",
        "categories": [
            {
                "name": "Ngân hàng"
            }
        ]
    },
    {
        "name": "Ngân Hàng Sài Gòn",
        "latitude": 10.94962,
        "longitude": 106.81324,
        "address": "Ngân Hàng Sài Gòn, 111 Đường Cách Mạng Tháng 8, Phường Hòa Bình, Biên Hòa, Đồng Nai, Việt Nam",
        "country_code": "VNM",
        "country_name": "Việt Nam",
        "city": "Đồng Nai",
        "district": "Biên Hòa",
        "ward": "Phường Hòa Bình",
        "street": "Đường Cách Mạng Tháng 8",
        "postal_code": "76122",
        "categories": [
            {
                "name": "Ngân hàng"
            },
            {
                "name": "Máy rút tiền ATM"
            }
        ]
    },
    {
        "name": "Ngân Hàng Phát Triển Nhà ĐBSCL",
        "latitude": 10.94758,
        "longitude": 106.81657,
        "address": "Ngân Hàng Phát Triển Nhà ĐBSCL, Đường Phan Đình Phùng, Phường Quang Vinh, Biên Hòa, Đồng Nai, Việt Nam",
        "country_code": "VNM",
        "country_name": "Việt Nam",
        "city": "Đồng Nai",
        "district": "Biên Hòa",
        "ward": "Phường Quang Vinh",
        "street": "Đường Phan Đình Phùng",
        "postal_code": "76119",
        "categories": [
            {
                "name": "Ngân hàng"
            },
            {
                "name": "Máy rút tiền ATM"
            }
        ]
    },
    {
        "name": "Ngân Hàng NN & PT Nông Thôn",
        "latitude": 10.89616,
        "longitude": 106.75351,
        "address": "Ngân Hàng NN & PT Nông Thôn, Đại Lộ Thống Nhất, Phường Dĩ An, Dĩ An, Bình Dương, Việt Nam",
        "country_code": "VNM",
        "country_name": "Việt Nam",
        "city": "Bình Dương",
        "district": "Dĩ An",
        "ward": "Phường Dĩ An",
        "street": "Đại Lộ Thống Nhất",
        "postal_code": "75306",
        "categories": [
            {
                "name": "Ngân hàng"
            },
            {
                "name": "Máy rút tiền ATM"
            }
        ]
    },
    {
        "name": "Dịch Vụ Chuyển Tiền Momo",
        "latitude": 10.93448,
        "longitude": 106.82941,
        "address": "Dịch Vụ Chuyển Tiền Momo, Đường Đỗ Văn Thi, Phường Hiệp Hòa, Biên Hòa, Đồng Nai, Việt Nam",
        "country_code": "VNM",
        "country_name": "Việt Nam",
        "city": "Đồng Nai",
        "district": "Biên Hòa",
        "ward": "Phường Hiệp Hòa",
        "street": "Đường Đỗ Văn Thi",
        "postal_code": "76126",
        "categories": [
            {
                "name": "Ngân hàng"
            }
        ]
    },
    {
        "name": "Vietinbank",
        "latitude": 10.94866,
        "longitude": 106.81658,
        "address": "Vietinbank, Đường Nguyễn Văn Nghĩa, Phường Quang Vinh, Biên Hòa, Đồng Nai, Việt Nam",
        "country_code": "VNM",
        "country_name": "Việt Nam",
        "city": "Đồng Nai",
        "district": "Biên Hòa",
        "ward": "Phường Quang Vinh",
        "street": "Đường Nguyễn Văn Nghĩa",
        "postal_code": "76119",
        "categories": [
            {
                "name": "Ngân hàng"
            }
        ]
    },
    {
        "name": "Quỹ Tín Dụng Nhân Dân Cơ Sở Thanh Bình-Chi Nhánh Hiệp Hòa",
        "latitude": 10.93385,
        "longitude": 106.83013,
        "address": "Quỹ Tín Dụng Nhân Dân Cơ Sở Thanh Bình-Chi Nhánh Hiệp Hòa, Đường Đặng Văn Trơn, Phường Hiệp Hòa, Biên Hòa, Đồng Nai, Việt Nam",
        "country_code": "VNM",
        "country_name": "Việt Nam",
        "city": "Đồng Nai",
        "district": "Biên Hòa",
        "ward": "Phường Hiệp Hòa",
        "street": "Đường Đặng Văn Trơn",
        "postal_code": "76126",
        "categories": [
            {
                "name": "Ngân hàng"
            }
        ]
    },
    {
        "name": "Agribank",
        "latitude": 10.94545,
        "longitude": 106.82206,
        "address": "Agribank, Đường Võ Thị Sáu, Phường Quyết Thắng, Biên Hòa, Đồng Nai, Việt Nam",
        "country_code": "VNM",
        "country_name": "Việt Nam",
        "city": "Đồng Nai",
        "district": "Biên Hòa",
        "ward": "Phường Quyết Thắng",
        "street": "Đường Võ Thị Sáu",
        "postal_code": "76107",
        "categories": [
            {
                "name": "Ngân hàng"
            }
        ]
    },
    {
        "name": "Ngân Hàng TMCP Sài Gòn-Hà Nội",
        "latitude": 10.94797,
        "longitude": 106.81937,
        "address": "Ngân Hàng TMCP Sài Gòn-Hà Nội, Đường 30 Tháng 4, Phường Quyết Thắng, Biên Hòa, Đồng Nai, Việt Nam",
        "country_code": "VNM",
        "country_name": "Việt Nam",
        "city": "Đồng Nai",
        "district": "Biên Hòa",
        "ward": "Phường Quyết Thắng",
        "street": "Đường 30 Tháng 4",
        "postal_code": "76107",
        "categories": [
            {
                "name": "Ngân hàng"
            }
        ]
    },
    {
        "name": "Ngân Hàng Sài Gòn-Hà Nội",
        "latitude": 10.94797,
        "longitude": 106.81937,
        "address": "Ngân Hàng Sài Gòn-Hà Nội, Đường 30 Tháng 4, Phường Quyết Thắng, Biên Hòa, Đồng Nai, Việt Nam",
        "country_code": "VNM",
        "country_name": "Việt Nam",
        "city": "Đồng Nai",
        "district": "Biên Hòa",
        "ward": "Phường Quyết Thắng",
        "street": "Đường 30 Tháng 4",
        "postal_code": "76107",
        "categories": [
            {
                "name": "Ngân hàng"
            }
        ]
    },
    {
        "name": "Tpbank",
        "latitude": 10.94938,
        "longitude": 106.81771,
        "address": "Tpbank, Hẻm 217 Phan Đình Phùng, Phường Thanh Bình, Biên Hòa, Đồng Nai, Việt Nam",
        "country_code": "VNM",
        "country_name": "Việt Nam",
        "city": "Đồng Nai",
        "district": "Biên Hòa",
        "ward": "Phường Thanh Bình",
        "street": "Hẻm 217 Phan Đình Phùng",
        "postal_code": "76106",
        "categories": [
            {
                "name": "Ngân hàng"
            }
        ]
    },
    {
        "name": "Ngân Hàng TMCP Quân Đội-Phòng Giao Dịch Quyết Thắng",
        "latitude": 10.94813,
        "longitude": 106.81978,
        "address": "Ngân Hàng TMCP Quân Đội-Phòng Giao Dịch Quyết Thắng, Đường 30 Tháng 4, Phường Quyết Thắng, Biên Hòa, Đồng Nai, Việt Nam",
        "country_code": "VNM",
        "country_name": "Việt Nam",
        "city": "Đồng Nai",
        "district": "Biên Hòa",
        "ward": "Phường Quyết Thắng",
        "street": "Đường 30 Tháng 4",
        "postal_code": "76107",
        "categories": [
            {
                "name": "Ngân hàng"
            }
        ]
    },
    {
        "name": "Ngân Hàng NN & PT Nông Thôn",
        "latitude": 10.87763,
        "longitude": 106.76664,
        "address": "Ngân Hàng NN & PT Nông Thôn, 86 Xa Lộ Hà Nội, Phường Linh Xuân, Thủ Đức, Hồ Chí Minh, Việt Nam",
        "country_code": "VNM",
        "country_name": "Việt Nam",
        "city": "Hồ Chí Minh",
        "district": "Thủ Đức",
        "ward": "Phường Linh Xuân",
        "street": "Xa Lộ Hà Nội",
        "postal_code": "71309",
        "categories": [
            {
                "name": "Ngân hàng"
            },
            {
                "name": "Máy rút tiền ATM"
            }
        ]
    },
    {
        "name": "BIDV",
        "latitude": 10.94747,
        "longitude": 106.82127,
        "address": "BIDV, Hẻm 217 Hà Huy Giáp, Phường Quyết Thắng, Biên Hòa, Đồng Nai, Việt Nam",
        "country_code": "VNM",
        "country_name": "Việt Nam",
        "city": "Đồng Nai",
        "district": "Biên Hòa",
        "ward": "Phường Quyết Thắng",
        "street": "Hẻm 217 Hà Huy Giáp",
        "postal_code": "76107",
        "categories": [
            {
                "name": "Ngân hàng"
            },
            {
                "name": "Máy rút tiền ATM"
            }
        ]
    },
    {
        "name": "Ngân Hàng Xuất Nhập Khẩu Việt Nam",
        "latitude": 10.87709,
        "longitude": 106.76659,
        "address": "Ngân Hàng Xuất Nhập Khẩu Việt Nam, 76 Xa Lộ Hà Nội, Phường Linh Xuân, Thủ Đức, Hồ Chí Minh, Việt Nam",
        "country_code": "VNM",
        "country_name": "Việt Nam",
        "city": "Hồ Chí Minh",
        "district": "Thủ Đức",
        "ward": "Phường Linh Xuân",
        "street": "Xa Lộ Hà Nội",
        "postal_code": "71309",
        "categories": [
            {
                "name": "Ngân hàng"
            }
        ]
    }
]
