[
    {
        "name": "Bao Cao Su Gai",
        "latitude": 10.90934,
        "longitude": 106.78539,
        "address": "Bao Cao Su Gai, ĐT.743B, Phường Tân Đông Hiệp, Dĩ An, Bình Dương, Việt Nam",
        "country_code": "VNM",
        "country_name": "Việt Nam",
        "city": "Bình Dương",
        "district": "Dĩ An",
        "ward": "Phường Tân Đông Hiệp",
        "street": "ĐT.743B",
        "postal_code": "75311",
        "categories": [
            {
                "name": "Dịch vụ thương mại"
            }
        ]
    },
    {
        "name": "Cty Bao Bì Nhựa Thái Dương",
        "latitude": 10.90584,
        "longitude": 106.78398,
        "address": "Cty Bao Bì Nhựa Thái Dương, Đường Số 2, Phường Tân Đông Hiệp, Dĩ An, Bình Dương, Việt Nam",
        "country_code": "VNM",
        "country_name": "Việt Nam",
        "city": "Bình Dương",
        "district": "Dĩ An",
        "ward": "Phường Tân Đông Hiệp",
        "street": "Đường Số 2",
        "postal_code": "75311",
        "categories": [
            {
                "name": "Dịch vụ thương mại"
            }
        ]
    },
    {
        "name": "Nội Thât Aq",
        "latitude": 10.89991,
        "longitude": 106.80027,
        "address": "Nội Thât Aq, Đường Đào Sư Tích, Phường Bình Thắng, Dĩ An, Bình Dương, Việt Nam",
        "country_code": "VNM",
        "country_name": "Việt Nam",
        "city": "Bình Dương",
        "district": "Dĩ An",
        "ward": "Phường Bình Thắng",
        "street": "Đường Đào Sư Tích",
        "postal_code": "75309",
        "categories": [
            {
                "name": "Dịch vụ thương mại"
            }
        ]
    },
    {
        "name": "Đặc Sản Dê 35",
        "latitude": 10.90049,
        "longitude": 106.78059,
        "address": "Đặc Sản Dê 35, Đường Hai Bà Trưng, Phường Đông Hòa, Dĩ An, Bình Dương, Việt Nam",
        "country_code": "VNM",
        "country_name": "Việt Nam",
        "city": "Bình Dương",
        "district": "Dĩ An",
        "ward": "Phường Đông Hòa",
        "street": "Đường Hai Bà Trưng",
        "postal_code": "75308",
        "categories": [
            {
                "name": "Dịch vụ thương mại"
            }
        ]
    },
    {
        "name": "Cttnhhmtv Tm-Dv Phu Th",
        "latitude": 10.89219,
        "longitude": 106.79748,
        "address": "Cttnhhmtv Tm-Dv Phu Th, Đường Thống Nhất, Phường Bình Thắng, Dĩ An, Bình Dương, Việt Nam",
        "country_code": "VNM",
        "country_name": "Việt Nam",
        "city": "Bình Dương",
        "district": "Dĩ An",
        "ward": "Phường Bình Thắng",
        "street": "Đường Thống Nhất",
        "postal_code": "75309",
        "categories": [
            {
                "name": "Dịch vụ thương mại"
            }
        ]
    },
    {
        "name": "Atz Computer",
        "latitude": 10.90738,
        "longitude": 106.76714,
        "address": "Atz Computer, Đường Lý Thường Kiệt, Phường Dĩ An, Dĩ An, Bình Dương, Việt Nam",
        "country_code": "VNM",
        "country_name": "Việt Nam",
        "city": "Bình Dương",
        "district": "Dĩ An",
        "ward": "Phường Dĩ An",
        "street": "Đường Lý Thường Kiệt",
        "postal_code": "75306",
        "categories": [
            {
                "name": "Dịch vụ thương mại"
            }
        ]
    },
    {
        "name": "Toàn Thắng Container",
        "latitude": 10.8987,
        "longitude": 106.771,
        "address": "Toàn Thắng Container, Đường Trần Quốc Toản, Phường Đông Hòa, Dĩ An, Bình Dương, Việt Nam",
        "country_code": "VNM",
        "country_name": "Việt Nam",
        "city": "Bình Dương",
        "district": "Dĩ An",
        "ward": "Phường Đông Hòa",
        "street": "Đường Trần Quốc Toản",
        "postal_code": "75308",
        "categories": [
            {
                "name": "Dịch vụ thương mại"
            }
        ]
    },
    {
        "name": "Shop Thoi Trang Mẹ Và Bé Ủn Ỉn",
        "latitude": 10.8987,
        "longitude": 106.771,
        "address": "Shop Thoi Trang Mẹ Và Bé Ủn Ỉn, Đường Trần Quốc Toản, Phường Đông Hòa, Dĩ An, Bình Dương, Việt Nam",
        "country_code": "VNM",
        "country_name": "Việt Nam",
        "city": "Bình Dương",
        "district": "Dĩ An",
        "ward": "Phường Đông Hòa",
        "street": "Đường Trần Quốc Toản",
        "postal_code": "75308",
        "categories": [
            {
                "name": "Dịch vụ thương mại"
            }
        ]
    },
    {
        "name": "Friend House",
        "latitude": 10.8987,
        "longitude": 106.771,
        "address": "Friend House, Đường Trần Quốc Toản, Phường Đông Hòa, Dĩ An, Bình Dương, Việt Nam",
        "country_code": "VNM",
        "country_name": "Việt Nam",
        "city": "Bình Dương",
        "district": "Dĩ An",
        "ward": "Phường Đông Hòa",
        "street": "Đường Trần Quốc Toản",
        "postal_code": "75308",
        "categories": [
            {
                "name": "Dịch vụ thương mại"
            }
        ]
    },
    {
        "name": "Feliz House",
        "latitude": 10.88965,
        "longitude": 106.78382,
        "address": "Feliz House, 7 Hẻm 29 Đường Tô Vĩnh Diện, Phường Đông Hòa, Dĩ An, Bình Dương, Việt Nam",
        "country_code": "VNM",
        "country_name": "Việt Nam",
        "city": "Bình Dương",
        "district": "Dĩ An",
        "ward": "Phường Đông Hòa",
        "street": "Hẻm 29 Đường Tô Vĩnh Diện",
        "postal_code": "75308",
        "categories": [
            {
                "name": "Dịch vụ thương mại"
            }
        ]
    },
    {
        "name": "Nnh Group - Hanhcd",
        "latitude": 10.88446,
        "longitude": 106.78411,
        "address": "Nnh Group - Hanhcd, Đường Tô Vĩnh Diện, Phường Đông Hòa, Dĩ An, Bình Dương, Việt Nam",
        "country_code": "VNM",
        "country_name": "Việt Nam",
        "city": "Bình Dương",
        "district": "Dĩ An",
        "ward": "Phường Đông Hòa",
        "street": "Đường Tô Vĩnh Diện",
        "postal_code": "75308",
        "categories": [
            {
                "name": "Dịch vụ thương mại"
            }
        ]
    },
    {
        "name": "Mầm Non Quốc Tế TBS",
        "latitude": 10.93622,
        "longitude": 106.81432,
        "address": "Mầm Non Quốc Tế TBS, Đường Bùi Hữu Nghĩa, Phường Bửu Hòa, Biên Hòa, Đồng Nai, Việt Nam",
        "country_code": "VNM",
        "country_name": "Việt Nam",
        "city": "Đồng Nai",
        "district": "Biên Hòa",
        "ward": "Phường Bửu Hòa",
        "street": "Đường Bùi Hữu Nghĩa",
        "postal_code": "76125",
        "categories": [
            {
                "name": "Dịch vụ thương mại"
            }
        ]
    },
    {
        "name": "Hello, Đôla - Trà Sữa Take Away",
        "latitude": 10.93629,
        "longitude": 106.81427,
        "address": "Hello, Đôla - Trà Sữa Take Away, 65 Đường Bùi Hữu Nghĩa, Phường Bửu Hòa, Biên Hòa, Đồng Nai, Việt Nam",
        "country_code": "VNM",
        "country_name": "Việt Nam",
        "city": "Đồng Nai",
        "district": "Biên Hòa",
        "ward": "Phường Bửu Hòa",
        "street": "Đường Bùi Hữu Nghĩa",
        "postal_code": "76125",
        "categories": [
            {
                "name": "Dịch vụ thương mại"
            }
        ]
    },
    {
        "name": "Công Ty Xuất Nhập Khẩu Minh Hiếu Miền Nam",
        "latitude": 10.94578,
        "longitude": 106.7956,
        "address": "Công Ty Xuất Nhập Khẩu Minh Hiếu Miền Nam, Hẻm Ấp Bình Hóa, Phường Hóa An, Biên Hòa, Đồng Nai, Việt Nam",
        "country_code": "VNM",
        "country_name": "Việt Nam",
        "city": "Đồng Nai",
        "district": "Biên Hòa",
        "ward": "Phường Hóa An",
        "street": "Hẻm Ấp Bình Hóa",
        "postal_code": "76123",
        "categories": [
            {
                "name": "Dịch vụ thương mại"
            }
        ]
    },
    {
        "name": "Phá Lấu 63",
        "latitude": 10.88146,
        "longitude": 106.77524,
        "address": "Phá Lấu 63, Hẻm 63 Đường Số 8, Phường Linh Xuân, Thủ Đức, Hồ Chí Minh, Việt Nam",
        "country_code": "VNM",
        "country_name": "Việt Nam",
        "city": "Hồ Chí Minh",
        "district": "Thủ Đức",
        "ward": "Phường Linh Xuân",
        "street": "Hẻm 63 Đường Số 8",
        "postal_code": "71309",
        "categories": [
            {
                "name": "Dịch vụ thương mại"
            }
        ]
    },
    {
        "name": "Helen Beauty Hair & Spa",
        "latitude": 10.89481,
        "longitude": 106.75927,
        "address": "Helen Beauty Hair & Spa, 269 Hẻm 3 Đường Nguyễn Tri Phương, Phường Dĩ An, Dĩ An, Bình Dương, Việt Nam",
        "country_code": "VNM",
        "country_name": "Việt Nam",
        "city": "Bình Dương",
        "district": "Dĩ An",
        "ward": "Phường Dĩ An",
        "street": "Hẻm 3 Đường Nguyễn Tri Phương",
        "postal_code": "75306",
        "categories": [
            {
                "name": "Dịch vụ thương mại"
            }
        ]
    },
    {
        "name": "LGBT Sài Gòn Fashion",
        "latitude": 10.89295,
        "longitude": 106.82373,
        "address": "LGBT Sài Gòn Fashion, Đường Bắc, Phường Bình An, Dĩ An, Bình Dương, Việt Nam",
        "country_code": "VNM",
        "country_name": "Việt Nam",
        "city": "Bình Dương",
        "district": "Dĩ An",
        "ward": "Phường Bình An",
        "street": "Đường Bắc",
        "postal_code": "75310",
        "categories": [
            {
                "name": "Dịch vụ thương mại"
            }
        ]
    },
    {
        "name": "Fuso Mpc",
        "latitude": 10.88701,
        "longitude": 106.81871,
        "address": "Fuso Mpc, 44C Xa Lộ Hà Nội, Phường Bình An, Dĩ An, Bình Dương, Việt Nam",
        "country_code": "VNM",
        "country_name": "Việt Nam",
        "city": "Bình Dương",
        "district": "Dĩ An",
        "ward": "Phường Bình An",
        "street": "Xa Lộ Hà Nội",
        "postal_code": "75310",
        "categories": [
            {
                "name": "Dịch vụ thương mại"
            }
        ]
    },
    {
        "name": "Atlas Copco Vietnam",
        "latitude": 10.89691,
        "longitude": 106.75682,
        "address": "Atlas Copco Vietnam, Đường Số 12, Phường Dĩ An, Dĩ An, Bình Dương, Việt Nam",
        "country_code": "VNM",
        "country_name": "Việt Nam",
        "city": "Bình Dương",
        "district": "Dĩ An",
        "ward": "Phường Dĩ An",
        "street": "Đường Số 12",
        "postal_code": "75306",
        "categories": [
            {
                "name": "Dịch vụ thương mại"
            }
        ]
    },
    {
        "name": "Barber Coffee",
        "latitude": 10.88129,
        "longitude": 106.81382,
        "address": "Barber Coffee, Đường Tân Lập, Phường Đông Hòa, Dĩ An, Bình Dương, Việt Nam",
        "country_code": "VNM",
        "country_name": "Việt Nam",
        "city": "Bình Dương",
        "district": "Dĩ An",
        "ward": "Phường Đông Hòa",
        "street": "Đường Tân Lập",
        "postal_code": "75308",
        "categories": [
            {
                "name": "Dịch vụ thương mại"
            }
        ]
    },
    {
        "name": "Tom Kat Custom",
        "latitude": 10.94501,
        "longitude": 106.817,
        "address": "Tom Kat Custom, Đường Nguyễn Văn Trị, Phường Thanh Bình, Biên Hòa, Đồng Nai, Việt Nam",
        "country_code": "VNM",
        "country_name": "Việt Nam",
        "city": "Đồng Nai",
        "district": "Biên Hòa",
        "ward": "Phường Thanh Bình",
        "street": "Đường Nguyễn Văn Trị",
        "postal_code": "76106",
        "categories": [
            {
                "name": "Dịch vụ thương mại"
            }
        ]
    },
    {
        "name": "Nga 3 Dông Tân",
        "latitude": 10.91139,
        "longitude": 106.75094,
        "address": "Nga 3 Dông Tân, Đường Tỉnh 743B, Phường Tân Đông Hiệp, Dĩ An, Bình Dương, Việt Nam",
        "country_code": "VNM",
        "country_name": "Việt Nam",
        "city": "Bình Dương",
        "district": "Dĩ An",
        "ward": "Phường Tân Đông Hiệp",
        "street": "Đường Tỉnh 743B",
        "postal_code": "75311",
        "categories": [
            {
                "name": "Dịch vụ thương mại"
            }
        ]
    },
    {
        "name": "Putoline Biên Hòa",
        "latitude": 10.93707,
        "longitude": 106.82619,
        "address": "Putoline Biên Hòa, 6 Đường Nguyễn Thành Phương, Phường Quyết Thắng, Biên Hòa, Đồng Nai, Việt Nam",
        "country_code": "VNM",
        "country_name": "Việt Nam",
        "city": "Đồng Nai",
        "district": "Biên Hòa",
        "ward": "Phường Quyết Thắng",
        "street": "Đường Nguyễn Thành Phương",
        "postal_code": "76107",
        "categories": [
            {
                "name": "Dịch vụ thương mại"
            }
        ]
    },
    {
        "name": "Golden SATURN",
        "latitude": 10.95379,
        "longitude": 106.8026,
        "address": "Golden SATURN, 113 Đường Huỳnh Văn Nghệ, Phường Bửu Long, Biên Hòa, Đồng Nai, Việt Nam",
        "country_code": "VNM",
        "country_name": "Việt Nam",
        "city": "Đồng Nai",
        "district": "Biên Hòa",
        "ward": "Phường Bửu Long",
        "street": "Đường Huỳnh Văn Nghệ",
        "postal_code": "76120",
        "categories": [
            {
                "name": "Dịch vụ thương mại"
            }
        ]
    },
    {
        "name": "Công Ty TNHH HQ Decor",
        "latitude": 10.87686,
        "longitude": 106.77377,
        "address": "Công Ty TNHH HQ Decor, Hẻm 63 Đường Số 10, Phường Linh Xuân, Thủ Đức, Hồ Chí Minh, Việt Nam",
        "country_code": "VNM",
        "country_name": "Việt Nam",
        "city": "Hồ Chí Minh",
        "district": "Thủ Đức",
        "ward": "Phường Linh Xuân",
        "street": "Hẻm 63 Đường Số 10",
        "postal_code": "71309",
        "categories": [
            {
                "name": "Dịch vụ thương mại"
            }
        ]
    },
    {
        "name": "Trà Sữa A Béo",
        "latitude": 10.94141,
        "longitude": 106.76005,
        "address": "Trà Sữa A Béo, Đường Bùi Thị Xuân, Phường Tân Bình, Dĩ An, Bình Dương, Việt Nam",
        "country_code": "VNM",
        "country_name": "Việt Nam",
        "city": "Bình Dương",
        "district": "Dĩ An",
        "ward": "Phường Tân Bình",
        "street": "Đường Bùi Thị Xuân",
        "postal_code": "75312",
        "categories": [
            {
                "name": "Dịch vụ thương mại"
            }
        ]
    },
    {
        "name": "Jdjd",
        "latitude": 10.88292,
        "longitude": 106.81959,
        "address": "Jdjd, Đường 16, Phường Long Bình, Thủ Đức, Hồ Chí Minh, Việt Nam",
        "country_code": "VNM",
        "country_name": "Việt Nam",
        "city": "Hồ Chí Minh",
        "district": "Thủ Đức",
        "ward": "Phường Long Bình",
        "street": "Đường 16",
        "postal_code": "71217",
        "categories": [
            {
                "name": "Dịch vụ thương mại"
            }
        ]
    },
    {
        "name": "Sửa Xe 716 Trọng Bình Dương",
        "latitude": 10.87664,
        "longitude": 106.81056,
        "address": "Sửa Xe 716 Trọng Bình Dương, Xa Lộ Hà Nội, Phường Đông Hòa, Dĩ An, Bình Dương, Việt Nam",
        "country_code": "VNM",
        "country_name": "Việt Nam",
        "city": "Bình Dương",
        "district": "Dĩ An",
        "ward": "Phường Đông Hòa",
        "street": "Xa Lộ Hà Nội",
        "postal_code": "75308",
        "categories": [
            {
                "name": "Dịch vụ thương mại"
            }
        ]
    },
    {
        "name": "Thiết Bị Số Hoàn Mỹ",
        "latitude": 10.90814,
        "longitude": 106.74867,
        "address": "Thiết Bị Số Hoàn Mỹ, Đường Lý Thường Kiệt, Phường Dĩ An, Dĩ An, Bình Dương, Việt Nam",
        "country_code": "VNM",
        "country_name": "Việt Nam",
        "city": "Bình Dương",
        "district": "Dĩ An",
        "ward": "Phường Dĩ An",
        "street": "Đường Lý Thường Kiệt",
        "postal_code": "75306",
        "categories": [
            {
                "name": "Dịch vụ thương mại"
            }
        ]
    },
    {
        "name": "Cty Chutex",
        "latitude": 10.89679,
        "longitude": 106.75171,
        "address": "Cty Chutex, Đại Lộ Thống Nhất, Phường Dĩ An, Dĩ An, Bình Dương, Việt Nam",
        "country_code": "VNM",
        "country_name": "Việt Nam",
        "city": "Bình Dương",
        "district": "Dĩ An",
        "ward": "Phường Dĩ An",
        "street": "Đại Lộ Thống Nhất",
        "postal_code": "75306",
        "categories": [
            {
                "name": "Dịch vụ thương mại"
            }
        ]
    },
    {
        "name": "Ban Nhạc Linh Đan",
        "latitude": 10.89667,
        "longitude": 106.83183,
        "address": "Ban Nhạc Linh Đan, Đường Long Sơn, Phường Long Bình, Thủ Đức, Hồ Chí Minh, Việt Nam",
        "country_code": "VNM",
        "country_name": "Việt Nam",
        "city": "Hồ Chí Minh",
        "district": "Thủ Đức",
        "ward": "Phường Long Bình",
        "street": "Đường Long Sơn",
        "postal_code": "71217",
        "categories": [
            {
                "name": "Dịch vụ thương mại"
            }
        ]
    },
    {
        "name": "Hủ Tiếu Mực Ông Già",
        "latitude": 10.94913,
        "longitude": 106.8176,
        "address": "Hủ Tiếu Mực Ông Già, Đường Phan Đình Phùng, Phường Quang Vinh, Biên Hòa, Đồng Nai, Việt Nam",
        "country_code": "VNM",
        "country_name": "Việt Nam",
        "city": "Đồng Nai",
        "district": "Biên Hòa",
        "ward": "Phường Quang Vinh",
        "street": "Đường Phan Đình Phùng",
        "postal_code": "76119",
        "categories": [
            {
                "name": "Dịch vụ thương mại"
            }
        ]
    },
    {
        "name": "Bàn Đứng Tự Động - Autostanddesk",
        "latitude": 10.87728,
        "longitude": 106.76812,
        "address": "Bàn Đứng Tự Động - Autostanddesk, Hẻm 88 Quốc Lộ 1K, Phường Linh Xuân, Thủ Đức, Hồ Chí Minh, Việt Nam",
        "country_code": "VNM",
        "country_name": "Việt Nam",
        "city": "Hồ Chí Minh",
        "district": "Thủ Đức",
        "ward": "Phường Linh Xuân",
        "street": "Hẻm 88 Quốc Lộ 1K",
        "postal_code": "71309",
        "categories": [
            {
                "name": "Dịch vụ thương mại"
            }
        ]
    },
    {
        "name": "Thế Giới Nội Y Legend",
        "latitude": 10.87582,
        "longitude": 106.81549,
        "address": "Thế Giới Nội Y Legend, 540 Đường Hoàng Hữu Nam, Phường Long Bình, Thủ Đức, Hồ Chí Minh, Việt Nam",
        "country_code": "VNM",
        "country_name": "Việt Nam",
        "city": "Hồ Chí Minh",
        "district": "Thủ Đức",
        "ward": "Phường Long Bình",
        "street": "Đường Hoàng Hữu Nam",
        "postal_code": "71217",
        "categories": [
            {
                "name": "Dịch vụ thương mại"
            }
        ]
    },
    {
        "name": "KDL Sinh Thái Ngọc Hoa Trang",
        "latitude": 10.92663,
        "longitude": 106.8356,
        "address": "KDL Sinh Thái Ngọc Hoa Trang, Đường Đặng Văn Trơn, Phường Hiệp Hòa, Biên Hòa, Đồng Nai, Việt Nam",
        "country_code": "VNM",
        "country_name": "Việt Nam",
        "city": "Đồng Nai",
        "district": "Biên Hòa",
        "ward": "Phường Hiệp Hòa",
        "street": "Đường Đặng Văn Trơn",
        "postal_code": "76126",
        "categories": [
            {
                "name": "Dịch vụ thương mại"
            }
        ]
    },
    {
        "name": "Agabang Gallery-Vanhan",
        "latitude": 10.87703,
        "longitude": 106.76589,
        "address": "Agabang Gallery-Vanhan, Đường Vận Hành, Phường Linh Xuân, Thủ Đức, Hồ Chí Minh, Việt Nam",
        "country_code": "VNM",
        "country_name": "Việt Nam",
        "city": "Hồ Chí Minh",
        "district": "Thủ Đức",
        "ward": "Phường Linh Xuân",
        "street": "Đường Vận Hành",
        "postal_code": "71309",
        "categories": [
            {
                "name": "Dịch vụ thương mại"
            }
        ]
    },
    {
        "name": "Poly Craft",
        "latitude": 10.88032,
        "longitude": 106.76118,
        "address": "Poly Craft, 32 Hẻm 23 Đường Nguyễn Tri Phương, Phường Linh Xuân, Thủ Đức, Hồ Chí Minh, Việt Nam",
        "country_code": "VNM",
        "country_name": "Việt Nam",
        "city": "Hồ Chí Minh",
        "district": "Thủ Đức",
        "ward": "Phường Linh Xuân",
        "street": "Hẻm 23 Đường Nguyễn Tri Phương",
        "postal_code": "71309",
        "categories": [
            {
                "name": "Dịch vụ thương mại"
            }
        ]
    },
    {
        "name": "Yazaki Eds Vietnam, Ltd. (Yev)",
        "latitude": 10.90932,
        "longitude": 106.74533,
        "address": "Yazaki Eds Vietnam, Ltd. (Yev), Đường Lý Thường Kiệt, Phường Dĩ An, Dĩ An, Bình Dương, Việt Nam",
        "country_code": "VNM",
        "country_name": "Việt Nam",
        "city": "Bình Dương",
        "district": "Dĩ An",
        "ward": "Phường Dĩ An",
        "street": "Đường Lý Thường Kiệt",
        "postal_code": "75306",
        "categories": [
            {
                "name": "Dịch vụ thương mại"
            }
        ]
    },
    {
        "name": "Ecodoor",
        "latitude": 10.87478,
        "longitude": 106.76556,
        "address": "Ecodoor, Xa Lộ Hà Nội, Phường Linh Xuân, Thủ Đức, Hồ Chí Minh, Việt Nam",
        "country_code": "VNM",
        "country_name": "Việt Nam",
        "city": "Hồ Chí Minh",
        "district": "Thủ Đức",
        "ward": "Phường Linh Xuân",
        "street": "Xa Lộ Hà Nội",
        "postal_code": "71309",
        "categories": [
            {
                "name": "Dịch vụ thương mại"
            }
        ]
    },
    {
        "name": "In 3D Thủ Đức",
        "latitude": 10.86734,
        "longitude": 106.78429,
        "address": "In 3D Thủ Đức, Quốc Lộ 1A, Phường Đông Hòa, Dĩ An, Bình Dương, Việt Nam",
        "country_code": "VNM",
        "country_name": "Việt Nam",
        "city": "Bình Dương",
        "district": "Dĩ An",
        "ward": "Phường Đông Hòa",
        "street": "Quốc Lộ 1A",
        "postal_code": "75308",
        "categories": [
            {
                "name": "Dịch vụ thương mại"
            }
        ]
    },
    {
        "name": "Cty Giày Da Thái Bình",
        "latitude": 10.87775,
        "longitude": 106.759,
        "address": "Cty Giày Da Thái Bình, Đường Lê Văn Tách, Phường An Bình, Dĩ An, Bình Dương, Việt Nam",
        "country_code": "VNM",
        "country_name": "Việt Nam",
        "city": "Bình Dương",
        "district": "Dĩ An",
        "ward": "Phường An Bình",
        "street": "Đường Lê Văn Tách",
        "postal_code": "75307",
        "categories": [
            {
                "name": "Dịch vụ thương mại"
            }
        ]
    },
    {
        "name": "Điện Mặt Trời Vũ Phong",
        "latitude": 10.90905,
        "longitude": 106.74247,
        "address": "Điện Mặt Trời Vũ Phong, TL.743B, Phường Tân Đông Hiệp, Dĩ An, Bình Dương, Việt Nam",
        "country_code": "VNM",
        "country_name": "Việt Nam",
        "city": "Bình Dương",
        "district": "Dĩ An",
        "ward": "Phường Tân Đông Hiệp",
        "street": "TL.743B",
        "postal_code": "75311",
        "categories": [
            {
                "name": "Dịch vụ thương mại"
            }
        ]
    },
    {
        "name": "Hàng Quảng Châu Xuất Xịn",
        "latitude": 10.86489,
        "longitude": 106.7951,
        "address": "Hàng Quảng Châu Xuất Xịn, 1068 Đường Quốc Lộ 1A, Phường Linh Trung, Thủ Đức, Hồ Chí Minh, Việt Nam",
        "country_code": "VNM",
        "country_name": "Việt Nam",
        "city": "Hồ Chí Minh",
        "district": "Thủ Đức",
        "ward": "Phường Linh Trung",
        "street": "Đường Quốc Lộ 1A",
        "postal_code": "71308",
        "categories": [
            {
                "name": "Dịch vụ thương mại"
            }
        ]
    },
    {
        "name": "Phượng Hoàng Sài Gòn - Mua Bán Cho Thuê Cẩu & Xe Nâng Nguời",
        "latitude": 10.86529,
        "longitude": 106.79953,
        "address": "Phượng Hoàng Sài Gòn - Mua Bán Cho Thuê Cẩu & Xe Nâng Nguời, QL.1, Phường Linh Trung, Thủ Đức, Hồ Chí Minh, Việt Nam",
        "country_code": "VNM",
        "country_name": "Việt Nam",
        "city": "Hồ Chí Minh",
        "district": "Thủ Đức",
        "ward": "Phường Linh Trung",
        "street": "QL.1",
        "postal_code": "71308",
        "categories": [
            {
                "name": "Dịch vụ thương mại"
            }
        ]
    },
    {
        "name": "Jenny's Corner",
        "latitude": 10.95179,
        "longitude": 106.82477,
        "address": "Jenny's Corner, Hẻm 161/29 Đường 30 Tháng 4, Phường Trung Dũng, Biên Hòa, Đồng Nai, Việt Nam",
        "country_code": "VNM",
        "country_name": "Việt Nam",
        "city": "Đồng Nai",
        "district": "Biên Hòa",
        "ward": "Phường Trung Dũng",
        "street": "Hẻm 161/29 Đường 30 Tháng 4",
        "postal_code": "76118",
        "categories": [
            {
                "name": "Dịch vụ thương mại"
            }
        ]
    },
    {
        "name": "Swift Store",
        "latitude": 10.95835,
        "longitude": 106.81554,
        "address": "Swift Store, Khu Phố 10, Phường Tân Phong, Biên Hòa, Đồng Nai, Việt Nam",
        "country_code": "VNM",
        "country_name": "Việt Nam",
        "city": "Đồng Nai",
        "district": "Biên Hòa",
        "ward": "Phường Tân Phong",
        "street": "Khu Phố 10",
        "postal_code": "76117",
        "categories": [
            {
                "name": "Dịch vụ thương mại"
            }
        ]
    },
    {
        "name": "Trái Cây Xô Đường 5",
        "latitude": 10.94767,
        "longitude": 106.83033,
        "address": "Trái Cây Xô Đường 5, Đường Võ Thị Sáu, Phường Thống Nhất, Biên Hòa, Đồng Nai, Việt Nam",
        "country_code": "VNM",
        "country_name": "Việt Nam",
        "city": "Đồng Nai",
        "district": "Biên Hòa",
        "ward": "Phường Thống Nhất",
        "street": "Đường Võ Thị Sáu",
        "postal_code": "76108",
        "categories": [
            {
                "name": "Dịch vụ thương mại"
            }
        ]
    },
    {
        "name": "Iot Software",
        "latitude": 10.95631,
        "longitude": 106.82035,
        "address": "Iot Software, Đường Nguyễn Ái Quốc, Phường Trung Dũng, Biên Hòa, Đồng Nai, Việt Nam",
        "country_code": "VNM",
        "country_name": "Việt Nam",
        "city": "Đồng Nai",
        "district": "Biên Hòa",
        "ward": "Phường Trung Dũng",
        "street": "Đường Nguyễn Ái Quốc",
        "postal_code": "76118",
        "categories": [
            {
                "name": "Dịch vụ thương mại"
            }
        ]
    },
    {
        "name": "Kingcha - Phố Trà Sữa - Đường 5 Cũ",
        "latitude": 10.95171,
        "longitude": 106.82718,
        "address": "Kingcha - Phố Trà Sữa - Đường 5 Cũ, Đường Số 7, Phường Thống Nhất, Biên Hòa, Đồng Nai, Việt Nam",
        "country_code": "VNM",
        "country_name": "Việt Nam",
        "city": "Đồng Nai",
        "district": "Biên Hòa",
        "ward": "Phường Thống Nhất",
        "street": "Đường Số 7",
        "postal_code": "76108",
        "categories": [
            {
                "name": "Dịch vụ thương mại"
            }
        ]
    },
    {
        "name": "Bệnh Mất Ngủ",
        "latitude": 10.95588,
        "longitude": 106.82235,
        "address": "Bệnh Mất Ngủ, Đường Nguyễn Ái Quốc, Phường Trung Dũng, Biên Hòa, Đồng Nai, Việt Nam",
        "country_code": "VNM",
        "country_name": "Việt Nam",
        "city": "Đồng Nai",
        "district": "Biên Hòa",
        "ward": "Phường Trung Dũng",
        "street": "Đường Nguyễn Ái Quốc",
        "postal_code": "76118",
        "categories": [
            {
                "name": "Dịch vụ thương mại"
            }
        ]
    },
    {
        "name": "Biệt Đội Shipper",
        "latitude": 10.95588,
        "longitude": 106.82235,
        "address": "Biệt Đội Shipper, Đường Nguyễn Ái Quốc, Phường Trung Dũng, Biên Hòa, Đồng Nai, Việt Nam",
        "country_code": "VNM",
        "country_name": "Việt Nam",
        "city": "Đồng Nai",
        "district": "Biên Hòa",
        "ward": "Phường Trung Dũng",
        "street": "Đường Nguyễn Ái Quốc",
        "postal_code": "76118",
        "categories": [
            {
                "name": "Dịch vụ thương mại"
            }
        ]
    },
    {
        "name": "Lão Tôn Shop - Mua Bán Iguana Dĩ An, Thủ Đức",
        "latitude": 10.87331,
        "longitude": 106.75921,
        "address": "Lão Tôn Shop - Mua Bán Iguana Dĩ An, Thủ Đức, Đường Số 4, Phường An Bình, Dĩ An, Bình Dương, Việt Nam",
        "country_code": "VNM",
        "country_name": "Việt Nam",
        "city": "Bình Dương",
        "district": "Dĩ An",
        "ward": "Phường An Bình",
        "street": "Đường Số 4",
        "postal_code": "75307",
        "categories": [
            {
                "name": "Dịch vụ thương mại"
            }
        ]
    },
    {
        "name": "Hạt Tiêu Mỹ Lộc",
        "latitude": 10.86938,
        "longitude": 106.76484,
        "address": "Hạt Tiêu Mỹ Lộc, Đường Số 1, Phường Linh Trung, Thủ Đức, Hồ Chí Minh, Việt Nam",
        "country_code": "VNM",
        "country_name": "Việt Nam",
        "city": "Hồ Chí Minh",
        "district": "Thủ Đức",
        "ward": "Phường Linh Trung",
        "street": "Đường Số 1",
        "postal_code": "71308",
        "categories": [
            {
                "name": "Dịch vụ thương mại"
            }
        ]
    },
    {
        "name": "Kcay Xang 71",
        "latitude": 10.89762,
        "longitude": 106.74024,
        "address": "Kcay Xang 71, ĐT.743, Phường Dĩ An, Dĩ An, Bình Dương, Việt Nam",
        "country_code": "VNM",
        "country_name": "Việt Nam",
        "city": "Bình Dương",
        "district": "Dĩ An",
        "ward": "Phường Dĩ An",
        "street": "ĐT.743",
        "postal_code": "75306",
        "categories": [
            {
                "name": "Dịch vụ thương mại"
            }
        ]
    },
    {
        "name": "Chợ Việt Lập- Dĩ An- Bình Dương",
        "latitude": 10.87189,
        "longitude": 106.75815,
        "address": "Chợ Việt Lập- Dĩ An- Bình Dương, Đường Lê Trọng Tấn, Phường An Bình, Dĩ An, Bình Dương, Việt Nam",
        "country_code": "VNM",
        "country_name": "Việt Nam",
        "city": "Bình Dương",
        "district": "Dĩ An",
        "ward": "Phường An Bình",
        "street": "Đường Lê Trọng Tấn",
        "postal_code": "75307",
        "categories": [
            {
                "name": "Dịch vụ thương mại"
            }
        ]
    },
    {
        "name": "Anh Sao Duong Joint Stock Company",
        "latitude": 10.87116,
        "longitude": 106.75759,
        "address": "Anh Sao Duong Joint Stock Company, Đường Lê Trọng Tấn, Phường An Bình, Dĩ An, Bình Dương, Việt Nam",
        "country_code": "VNM",
        "country_name": "Việt Nam",
        "city": "Bình Dương",
        "district": "Dĩ An",
        "ward": "Phường An Bình",
        "street": "Đường Lê Trọng Tấn",
        "postal_code": "75307",
        "categories": [
            {
                "name": "Dịch vụ thương mại"
            }
        ]
    },
    {
        "name": "Công Ty TNHH Thương Mại Lê Võ",
        "latitude": 10.86078,
        "longitude": 106.7795,
        "address": "Công Ty TNHH Thương Mại Lê Võ, Đường Số 16, Phường Linh Trung, Thủ Đức, Hồ Chí Minh, Việt Nam",
        "country_code": "VNM",
        "country_name": "Việt Nam",
        "city": "Hồ Chí Minh",
        "district": "Thủ Đức",
        "ward": "Phường Linh Trung",
        "street": "Đường Số 16",
        "postal_code": "71308",
        "categories": [
            {
                "name": "Dịch vụ thương mại"
            }
        ]
    },
    {
        "name": "Xe Máy Nam Tiến",
        "latitude": 10.87804,
        "longitude": 106.74982,
        "address": "Xe Máy Nam Tiến, Đường Độc Lập, Phường Dĩ An, Dĩ An, Bình Dương, Việt Nam",
        "country_code": "VNM",
        "country_name": "Việt Nam",
        "city": "Bình Dương",
        "district": "Dĩ An",
        "ward": "Phường Dĩ An",
        "street": "Đường Độc Lập",
        "postal_code": "75306",
        "categories": [
            {
                "name": "Dịch vụ thương mại"
            }
        ]
    },
    {
        "name": "Suka Farm",
        "latitude": 10.86029,
        "longitude": 106.77992,
        "address": "Suka Farm, Đường Số 16, Phường Linh Trung, Thủ Đức, Hồ Chí Minh, Việt Nam",
        "country_code": "VNM",
        "country_name": "Việt Nam",
        "city": "Hồ Chí Minh",
        "district": "Thủ Đức",
        "ward": "Phường Linh Trung",
        "street": "Đường Số 16",
        "postal_code": "71308",
        "categories": [
            {
                "name": "Dịch vụ thương mại"
            }
        ]
    },
    {
        "name": "Đẹp Để Hạnh Phúc",
        "latitude": 10.87152,
        "longitude": 106.75523,
        "address": "Đẹp Để Hạnh Phúc, Đường An Bình, Phường An Bình, Dĩ An, Bình Dương, Việt Nam",
        "country_code": "VNM",
        "country_name": "Việt Nam",
        "city": "Bình Dương",
        "district": "Dĩ An",
        "ward": "Phường An Bình",
        "street": "Đường An Bình",
        "postal_code": "75307",
        "categories": [
            {
                "name": "Dịch vụ thương mại"
            }
        ]
    },
    {
        "name": "Công Ty TNHH Hoàng Hưng Long . Mỹ Phẩm Cao Cấp Kbone & Zoley",
        "latitude": 10.85863,
        "longitude": 106.80044,
        "address": "Công Ty TNHH Hoàng Hưng Long . Mỹ Phẩm Cao Cấp Kbone & Zoley, Hẻm 84 Nam Cao, Phường Tân Phú, Thủ Đức, Hồ Chí Minh, Việt Nam",
        "country_code": "VNM",
        "country_name": "Việt Nam",
        "city": "Hồ Chí Minh",
        "district": "Thủ Đức",
        "ward": "Phường Tân Phú",
        "street": "Hẻm 84 Nam Cao",
        "postal_code": "71218",
        "categories": [
            {
                "name": "Dịch vụ thương mại"
            }
        ]
    },
    {
        "name": "Béo Mập Style- Quần Áo Cho Người Béo Bụng, Mỡ, Phụ Nữ Sau Sinh",
        "latitude": 10.88435,
        "longitude": 106.74313,
        "address": "Béo Mập Style- Quần Áo Cho Người Béo Bụng, Mỡ, Phụ Nữ Sau Sinh, Đại Lộ Độc Lập, Phường Dĩ An, Dĩ An, Bình Dương, Việt Nam",
        "country_code": "VNM",
        "country_name": "Việt Nam",
        "city": "Bình Dương",
        "district": "Dĩ An",
        "ward": "Phường Dĩ An",
        "street": "Đại Lộ Độc Lập",
        "postal_code": "75306",
        "categories": [
            {
                "name": "Dịch vụ thương mại"
            }
        ]
    },
    {
        "name": "Cox Shoes Biên Hoà",
        "latitude": 10.9569,
        "longitude": 106.82904,
        "address": "Cox Shoes Biên Hoà, 390 Đường Phạm Văn Thuận, Phường Trung Dũng, Biên Hòa, Đồng Nai, Việt Nam",
        "country_code": "VNM",
        "country_name": "Việt Nam",
        "city": "Đồng Nai",
        "district": "Biên Hòa",
        "ward": "Phường Trung Dũng",
        "street": "Đường Phạm Văn Thuận",
        "postal_code": "76118",
        "categories": [
            {
                "name": "Dịch vụ thương mại"
            }
        ]
    },
    {
        "name": "Quyet Thang Pp Jsc",
        "latitude": 10.95676,
        "longitude": 106.82942,
        "address": "Quyet Thang Pp Jsc, Hẻm 1675 Phạm Văn Thuận, Phường Trung Dũng, Biên Hòa, Đồng Nai, Việt Nam",
        "country_code": "VNM",
        "country_name": "Việt Nam",
        "city": "Đồng Nai",
        "district": "Biên Hòa",
        "ward": "Phường Trung Dũng",
        "street": "Hẻm 1675 Phạm Văn Thuận",
        "postal_code": "76118",
        "categories": [
            {
                "name": "Dịch vụ thương mại"
            }
        ]
    },
    {
        "name": "Địa Điểm Ăn Uống TP.HCM",
        "latitude": 10.86057,
        "longitude": 106.77337,
        "address": "Địa Điểm Ăn Uống TP.HCM, Đường Linh Trung, Phường Linh Trung, Thủ Đức, Hồ Chí Minh, Việt Nam",
        "country_code": "VNM",
        "country_name": "Việt Nam",
        "city": "Hồ Chí Minh",
        "district": "Thủ Đức",
        "ward": "Phường Linh Trung",
        "street": "Đường Linh Trung",
        "postal_code": "71308",
        "categories": [
            {
                "name": "Dịch vụ thương mại"
            }
        ]
    },
    {
        "name": "PEUGEOT Đồng Nai - Đại Lý Ủy Quyền Cấp I",
        "latitude": 10.94919,
        "longitude": 106.83732,
        "address": "PEUGEOT Đồng Nai - Đại Lý Ủy Quyền Cấp I, Đường Võ Thị Sáu, Phường Thống Nhất, Biên Hòa, Đồng Nai, Việt Nam",
        "country_code": "VNM",
        "country_name": "Việt Nam",
        "city": "Đồng Nai",
        "district": "Biên Hòa",
        "ward": "Phường Thống Nhất",
        "street": "Đường Võ Thị Sáu",
        "postal_code": "76108",
        "categories": [
            {
                "name": "Dịch vụ thương mại"
            }
        ]
    },
    {
        "name": "In Móc Khóa, Làm Móc Khóa, Sản Xuất Móc Khóa Đồng Nai",
        "latitude": 10.95725,
        "longitude": 106.82983,
        "address": "In Móc Khóa, Làm Móc Khóa, Sản Xuất Móc Khóa Đồng Nai, Đường Phạm Văn Thuận, Phường Trung Dũng, Biên Hòa, Đồng Nai, Việt Nam",
        "country_code": "VNM",
        "country_name": "Việt Nam",
        "city": "Đồng Nai",
        "district": "Biên Hòa",
        "ward": "Phường Trung Dũng",
        "street": "Đường Phạm Văn Thuận",
        "postal_code": "76118",
        "categories": [
            {
                "name": "Dịch vụ thương mại"
            }
        ]
    },
    {
        "name": "Khánh Dung Store - Chuyên Sỉ & Lẻ",
        "latitude": 10.95709,
        "longitude": 106.83009,
        "address": "Khánh Dung Store - Chuyên Sỉ & Lẻ, Đường Phạm Văn Thuận, Phường Trung Dũng, Biên Hòa, Đồng Nai, Việt Nam",
        "country_code": "VNM",
        "country_name": "Việt Nam",
        "city": "Đồng Nai",
        "district": "Biên Hòa",
        "ward": "Phường Trung Dũng",
        "street": "Đường Phạm Văn Thuận",
        "postal_code": "76118",
        "categories": [
            {
                "name": "Dịch vụ thương mại"
            }
        ]
    },
    {
        "name": "Shop Simmaxx, Shop Quần Áo Đông Nhất Chợ Dĩ An 2",
        "latitude": 10.95729,
        "longitude": 106.82995,
        "address": "Shop Simmaxx, Shop Quần Áo Đông Nhất Chợ Dĩ An 2, Đường Phạm Văn Thuận, Phường Trung Dũng, Biên Hòa, Đồng Nai, Việt Nam",
        "country_code": "VNM",
        "country_name": "Việt Nam",
        "city": "Đồng Nai",
        "district": "Biên Hòa",
        "ward": "Phường Trung Dũng",
        "street": "Đường Phạm Văn Thuận",
        "postal_code": "76118",
        "categories": [
            {
                "name": "Dịch vụ thương mại"
            }
        ]
    },
    {
        "name": "Molicha",
        "latitude": 10.95755,
        "longitude": 106.83083,
        "address": "Molicha, Đường Phạm Văn Thuận, Phường Trung Dũng, Biên Hòa, Đồng Nai, Việt Nam",
        "country_code": "VNM",
        "country_name": "Việt Nam",
        "city": "Đồng Nai",
        "district": "Biên Hòa",
        "ward": "Phường Trung Dũng",
        "street": "Đường Phạm Văn Thuận",
        "postal_code": "76118",
        "categories": [
            {
                "name": "Dịch vụ thương mại"
            }
        ]
    },
    {
        "name": "Công Ty Fashiongarment 2 KCN Biên Hòa 2",
        "latitude": 10.90246,
        "longitude": 106.8499,
        "address": "Công Ty Fashiongarment 2 KCN Biên Hòa 2, Đường D2 Quốc Lộ 51, Phường Long Bình Tân, Biên Hòa, Đồng Nai, Việt Nam",
        "country_code": "VNM",
        "country_name": "Việt Nam",
        "city": "Đồng Nai",
        "district": "Biên Hòa",
        "ward": "Phường Long Bình Tân",
        "street": "Đường D2 Quốc Lộ 51",
        "postal_code": "76129",
        "categories": [
            {
                "name": "Dịch vụ thương mại"
            }
        ]
    },
    {
        "name": "T&H Store",
        "latitude": 10.86306,
        "longitude": 106.76247,
        "address": "T&H Store, Đường Linh Trung, Phường Linh Trung, Thủ Đức, Hồ Chí Minh, Việt Nam",
        "country_code": "VNM",
        "country_name": "Việt Nam",
        "city": "Hồ Chí Minh",
        "district": "Thủ Đức",
        "ward": "Phường Linh Trung",
        "street": "Đường Linh Trung",
        "postal_code": "71308",
        "categories": [
            {
                "name": "Dịch vụ thương mại"
            }
        ]
    },
    {
        "name": "Bigsize Shop - Mỗi Chiếc Đầm Là 1 Câu Chuyện",
        "latitude": 10.8598,
        "longitude": 106.76913,
        "address": "Bigsize Shop - Mỗi Chiếc Đầm Là 1 Câu Chuyện, 77 Đường Số 7, Phường Linh Trung, Thủ Đức, Hồ Chí Minh, Việt Nam",
        "country_code": "VNM",
        "country_name": "Việt Nam",
        "city": "Hồ Chí Minh",
        "district": "Thủ Đức",
        "ward": "Phường Linh Trung",
        "street": "Đường Số 7",
        "postal_code": "71308",
        "categories": [
            {
                "name": "Dịch vụ thương mại"
            }
        ]
    },
    {
        "name": "Librashop",
        "latitude": 10.86339,
        "longitude": 106.76156,
        "address": "Librashop, Đường Linh Trung, Phường Linh Trung, Thủ Đức, Hồ Chí Minh, Việt Nam",
        "country_code": "VNM",
        "country_name": "Việt Nam",
        "city": "Hồ Chí Minh",
        "district": "Thủ Đức",
        "ward": "Phường Linh Trung",
        "street": "Đường Linh Trung",
        "postal_code": "71308",
        "categories": [
            {
                "name": "Dịch vụ thương mại"
            }
        ]
    },
    {
        "name": "Cô Ba Mập- Chuyên Váy Đầm Bigsize, Béo, Mập, Sau Sinh",
        "latitude": 10.86304,
        "longitude": 106.76196,
        "address": "Cô Ba Mập- Chuyên Váy Đầm Bigsize, Béo, Mập, Sau Sinh, 2L Đường Linh Trung, Phường Linh Trung, Thủ Đức, Hồ Chí Minh, Việt Nam",
        "country_code": "VNM",
        "country_name": "Việt Nam",
        "city": "Hồ Chí Minh",
        "district": "Thủ Đức",
        "ward": "Phường Linh Trung",
        "street": "Đường Linh Trung",
        "postal_code": "71308",
        "categories": [
            {
                "name": "Dịch vụ thương mại"
            }
        ]
    },
    {
        "name": "Molive - Trang Phục Cho Nàng Béo, Mập, Mũm Mĩm",
        "latitude": 10.86304,
        "longitude": 106.76196,
        "address": "Molive - Trang Phục Cho Nàng Béo, Mập, Mũm Mĩm, 2L Đường Linh Trung, Phường Linh Trung, Thủ Đức, Hồ Chí Minh, Việt Nam",
        "country_code": "VNM",
        "country_name": "Việt Nam",
        "city": "Hồ Chí Minh",
        "district": "Thủ Đức",
        "ward": "Phường Linh Trung",
        "street": "Đường Linh Trung",
        "postal_code": "71308",
        "categories": [
            {
                "name": "Dịch vụ thương mại"
            }
        ]
    },
    {
        "name": "Thương Mại Công Nghiệp G-Star",
        "latitude": 10.8547,
        "longitude": 106.79298,
        "address": "Thương Mại Công Nghiệp G-Star, Đường Xa Lộ Hà Nội, Phường Tân Phú, Thủ Đức, Hồ Chí Minh, Việt Nam",
        "country_code": "VNM",
        "country_name": "Việt Nam",
        "city": "Hồ Chí Minh",
        "district": "Thủ Đức",
        "ward": "Phường Tân Phú",
        "street": "Đường Xa Lộ Hà Nội",
        "postal_code": "71218",
        "categories": [
            {
                "name": "Dịch vụ thương mại"
            }
        ]
    },
    {
        "name": "Nem Chua Thanh Hóa Tại Biên Hòa -Đồng Nai",
        "latitude": 10.89733,
        "longitude": 106.84991,
        "address": "Nem Chua Thanh Hóa Tại Biên Hòa -Đồng Nai, Đường D7, Phường Long Bình Tân, Biên Hòa, Đồng Nai, Việt Nam",
        "country_code": "VNM",
        "country_name": "Việt Nam",
        "city": "Đồng Nai",
        "district": "Biên Hòa",
        "ward": "Phường Long Bình Tân",
        "street": "Đường D7",
        "postal_code": "76129",
        "categories": [
            {
                "name": "Dịch vụ thương mại"
            }
        ]
    },
    {
        "name": "Gemz",
        "latitude": 10.85502,
        "longitude": 106.78303,
        "address": "Gemz, 930 Đường Xa Lộ Hà Nội, Phường Hiệp Phú, Thủ Đức, Hồ Chí Minh, Việt Nam",
        "country_code": "VNM",
        "country_name": "Việt Nam",
        "city": "Hồ Chí Minh",
        "district": "Thủ Đức",
        "ward": "Phường Hiệp Phú",
        "street": "Đường Xa Lộ Hà Nội",
        "postal_code": "71206",
        "categories": [
            {
                "name": "Dịch vụ thương mại"
            }
        ]
    },
    {
        "name": "Ăn Vặt Cô Ba - Chuyên Bánh Pò Quẩy Hộp - Khô Gà Lá Chanh Sài Gòn",
        "latitude": 10.85903,
        "longitude": 106.76821,
        "address": "Ăn Vặt Cô Ba - Chuyên Bánh Pò Quẩy Hộp - Khô Gà Lá Chanh Sài Gòn, Đường Số 7, Phường Linh Trung, Thủ Đức, Hồ Chí Minh, Việt Nam",
        "country_code": "VNM",
        "country_name": "Việt Nam",
        "city": "Hồ Chí Minh",
        "district": "Thủ Đức",
        "ward": "Phường Linh Trung",
        "street": "Đường Số 7",
        "postal_code": "71308",
        "categories": [
            {
                "name": "Dịch vụ thương mại"
            }
        ]
    },
    {
        "name": "Nhà Thông Minh Vsmarttek",
        "latitude": 10.85436,
        "longitude": 106.78835,
        "address": "Nhà Thông Minh Vsmarttek, Đường D1, Phường Hiệp Phú, Thủ Đức, Hồ Chí Minh, Việt Nam",
        "country_code": "VNM",
        "country_name": "Việt Nam",
        "city": "Hồ Chí Minh",
        "district": "Thủ Đức",
        "ward": "Phường Hiệp Phú",
        "street": "Đường D1",
        "postal_code": "71206",
        "categories": [
            {
                "name": "Dịch vụ thương mại"
            }
        ]
    },
    {
        "name": "Cty TNHH TMSX Cơ Khí Duy Đức",
        "latitude": 10.85561,
        "longitude": 106.77425,
        "address": "Cty TNHH TMSX Cơ Khí Duy Đức, 1 Đường Lê Văn Chí, Phường Linh Trung, Thủ Đức, Hồ Chí Minh, Việt Nam",
        "country_code": "VNM",
        "country_name": "Việt Nam",
        "city": "Hồ Chí Minh",
        "district": "Thủ Đức",
        "ward": "Phường Linh Trung",
        "street": "Đường Lê Văn Chí",
        "postal_code": "71308",
        "categories": [
            {
                "name": "Dịch vụ thương mại"
            }
        ]
    },
    {
        "name": "Esmée",
        "latitude": 10.85543,
        "longitude": 106.77395,
        "address": "Esmée, 31 Đường Lê Văn Chí, Phường Linh Trung, Thủ Đức, Hồ Chí Minh, Việt Nam",
        "country_code": "VNM",
        "country_name": "Việt Nam",
        "city": "Hồ Chí Minh",
        "district": "Thủ Đức",
        "ward": "Phường Linh Trung",
        "street": "Đường Lê Văn Chí",
        "postal_code": "71308",
        "categories": [
            {
                "name": "Dịch vụ thương mại"
            }
        ]
    },
    {
        "name": "Shop Hòa Phát",
        "latitude": 10.95856,
        "longitude": 106.83469,
        "address": "Shop Hòa Phát, 1519 Đường Phạm Văn Thuận, Phường Thống Nhất, Biên Hòa, Đồng Nai, Việt Nam",
        "country_code": "VNM",
        "country_name": "Việt Nam",
        "city": "Đồng Nai",
        "district": "Biên Hòa",
        "ward": "Phường Thống Nhất",
        "street": "Đường Phạm Văn Thuận",
        "postal_code": "76108",
        "categories": [
            {
                "name": "Dịch vụ thương mại"
            }
        ]
    },
    {
        "name": "Thương Boutique",
        "latitude": 10.85979,
        "longitude": 106.76214,
        "address": "Thương Boutique, 31 Đường Hoàng Diệu 2, Phường Linh Chiểu, Thủ Đức, Hồ Chí Minh, Việt Nam",
        "country_code": "VNM",
        "country_name": "Việt Nam",
        "city": "Hồ Chí Minh",
        "district": "Thủ Đức",
        "ward": "Phường Linh Chiểu",
        "street": "Đường Hoàng Diệu 2",
        "postal_code": "71307",
        "categories": [
            {
                "name": "Dịch vụ thương mại"
            }
        ]
    }
]
