[
    {
        "name": "Trung Tâm Hội Nghị Tiệc Cưới Eros Palace",
        "latitude": 10.9643,
        "longitude": 106.85507,
        "address": "Trung Tâm Hội Nghị Tiệc Cưới Eros Palace, Đường Nguyễn Văn A, Phường Tân Hiệp, Biên Hòa, Đồng Nai, Việt Nam",
        "country_code": "VNM",
        "country_name": "Việt Nam",
        "city": "Đồng Nai",
        "district": "Biên Hòa",
        "ward": "Phường Tân Hiệp",
        "street": "Đường Nguyễn Văn A",
        "postal_code": "76111",
        "categories": [
            {
                "name": "Cơ sở"
            },
            {
                "name": "Cửa hàng chuyên dụng"
            },
            {
                "name": "Vui chơi & Giải trí"
            },
            {
                "name": "Dịch vụ hôn lễ & cô dâu"
            }
        ]
    },
    {
        "name": "Nhà Thiếu nhi Quận 11",
        "latitude": 10.76123,
        "longitude": 106.64956,
        "address": "Nhà Thiếu nhi Quận 11, Đường Số 6, Phường 8, Quận 11, Hồ Chí Minh, Việt Nam",
        "country_code": "VNM",
        "country_name": "Việt Nam",
        "city": "Hồ Chí Minh",
        "district": "Quận 11",
        "ward": "Phường 8",
        "street": "Đường Số 6",
        "postal_code": "72614",
        "categories": [
            {
                "name": "Cơ sở"
            }
        ]
    },
    {
        "name": "Thiên Ý Pagoda",
        "latitude": 10.75197,
        "longitude": 106.64508,
        "address": "Thiên Ý Pagoda, Hẻm 751 Đường Hồng Bàng, Phường 6, Quận 6, Hồ Chí Minh, Việt Nam",
        "country_code": "VNM",
        "country_name": "Việt Nam",
        "city": "Hồ Chí Minh",
        "district": "Quận 6",
        "ward": "Phường 6",
        "street": "Hẻm 751 Đường Hồng Bàng",
        "postal_code": "73111",
        "categories": [
            {
                "name": "Cơ sở"
            }
        ]
    }
]
